,O3H8_level,regioncode,O3,latitude,CO_level,SYWRW,PM10H24,NO2,O3H8,O3_level,PM10_color,PM25_color,SO2,sitename,O3H8_color,AQI,NO2_level,AQI_level,PM10H24_level,districtcode,SO2_color,longitude,NO2_color,PM25,PM10_level,CO,PM25_level,CO_color,PM25H24_color,sitecode,PM25H24_level,AQI_color,districtname,O3_color,SO2_level,PM10,PM25H24,PM10H24_color,sort,time
0,良,330328,52,27.804722,优,--,29,7,107,优,#00E400,#00E400,7,文成中学,#FFFF00,20,优,优,优,330300,#00E400,120.077222,#00E400,12,优,0.5,优,#00E400,#00E400,330328002,优,#00E400,温州市,#00E400,优,20,22,#00E400,1,2026-05-30 19:00:00
1,优,331181,63,28.076,优,--,38,10,85,优,#00E400,#00E400,9,粮食大楼,#00E400,20,优,优,优,331100,#00E400,119.1217,#00E400,14,优,0.6,优,#00E400,#00E400,331181002,优,#00E400,丽水市,#00E400,优,19,35,#00E400,1,2026-05-30 19:00:00
2,优,331181,49,28.08007,优,--,45,19,82,优,#00E400,#00E400,8,龙泉环保大楼,#00E400,26,优,优,优,331100,#00E400,119.1328,#00E400,13,优,0.6,优,#00E400,#00E400,331181001,优,#00E400,丽水市,#00E400,优,26,25,#00E400,3,2026-05-30 19:00:00
3,良,330727,89,29.051486,优,--,29,16,115,优,#00E400,#00E400,8,国税大楼,#FFFF00,28,优,优,优,330700,#00E400,120.438346,#00E400,6,优,0.5,优,#00E400,#00E400,330727002,优,#00E400,金华市,#00E400,优,11,19,#00E400,4,2026-05-30 19:00:00
4,良,331024,87,28.8589,优,--,26,14,119,优,#00E400,#00E400,8,仙居环监站,#FFFF00,28,优,优,优,331000,#00E400,120.7248,#00E400,14,优,0.4,优,#00E400,#00E400,331024001,优,#00E400,台州市,#00E400,优,18,15,#00E400,4,2026-05-30 19:00:00
5,良,331125,78,28.1173,优,--,30,18,104,优,#00E400,#00E400,7,云和监测楼,#FFFF00,28,优,优,优,331100,#00E400,119.5626,#00E400,17,优,0.8,优,#00E400,#00E400,331125001,优,#00E400,丽水市,#00E400,优,28,19,#00E400,4,2026-05-30 19:00:00
6,良,330727,87,29.039869,优,--,37,12,115,优,#00E400,#00E400,7,南园初中,#FFFF00,30,优,优,优,330700,#00E400,120.440622,#00E400,17,优,0.4,优,#00E400,#00E400,330727003,优,#00E400,金华市,#00E400,优,30,22,#00E400,7,2026-05-30 19:00:00
7,良,331127,94,27.9772,优,--,26,8,109,优,#00E400,#00E400,4,景宁县政府,#FFFF00,30,优,优,优,331100,#00E400,119.6311,#00E400,15,优,0.6,优,#00E400,#00E400,331127002,优,#00E400,丽水市,#00E400,优,23,17,#00E400,7,2026-05-30 19:00:00
8,良,331127,99,28.002222,优,--,33,6,110,优,#00E400,#00E400,4,红星小学,#FFFF00,31,优,优,优,331100,#00E400,119.636389,#00E400,17,优,0.5,优,#00E400,#00E400,331127003,优,#00E400,丽水市,#00E400,优,29,17,#00E400,9,2026-05-30 19:00:00
9,良,331124,93,28.4505,优,--,44,16,106,优,#00E400,#00E400,4,松阳监测楼,#FFFF00,33,优,优,优,331100,#00E400,119.4799,#00E400,23,优,0.6,优,#00E400,#00E400,331124001,优,#00E400,丽水市,#00E400,优,26,34,#00E400,10,2026-05-30 19:00:00
10,良,330783,107,29.30093,优,--,38,23,130,优,#00E400,#00E400,6,广厦学院,#FFFF00,34,优,优,优,330700,#00E400,120.24157,#00E400,13,优,0.5,优,#00E400,#00E400,330783001,优,#00E400,金华市,#00E400,优,29,24,#00E400,11,2026-05-30 19:00:00
11,良,331124,106,28.4516,优,--,46,14,111,优,#00E400,#00E400,6,和平水厂,#FFFF00,34,优,优,优,331100,#00E400,119.4699,#00E400,13,优,0.7,优,#00E400,#00E400,331124002,优,#00E400,丽水市,#00E400,优,27,26,#00E400,11,2026-05-30 19:00:00
12,良,330483,106,30.7369,优,--,37,28,140,优,#00E400,#00E400,8,植材小学,#FFFF00,34,优,优,优,330400,#00E400,120.4902,#00E400,4,优,0.5,优,#00E400,#00E400,330483509,优,#00E400,嘉兴市,#00E400,优,28,16,#00E400,11,2026-05-30 19:00:00
13,良,330329,109,27.557,优,--,33,7,126,优,#00E400,#00E400,5,罗阳,#FFFF00,35,优,优,优,330300,#00E400,119.7084,#00E400,16,优,0.5,优,#00E400,#00E400,330329001,优,#00E400,温州市,#00E400,优,27,21,#00E400,14,2026-05-30 19:00:00
14,良,330329,111,27.5438,优,--,31,7,128,优,#00E400,#00E400,6,泰顺实验中学,#FFFF00,35,优,优,优,330300,#00E400,119.716111,#00E400,17,优,0.5,优,#00E400,#00E400,330329002,优,#00E400,温州市,#00E400,优,25,21,#00E400,14,2026-05-30 19:00:00
15,良,330824,96,29.1478,优,--,46,15,127,优,#00E400,#00E400,9,开化监测大楼,#FFFF00,35,优,优,优,330800,#00E400,118.4108,#00E400,22,优,0.5,优,#00E400,#00E400,330824002,优,#00E400,衢州市,#00E400,优,35,29,#00E400,14,2026-05-30 19:00:00
16,良,330326,114,27.6593,优,--,28,8,117,优,#00E400,#00E400,9,平阳监测站,#FFFF00,36,优,优,优,330300,#00E400,120.5705,#00E400,6,优,0.5,优,#00E400,#00E400,330326001,优,#00E400,温州市,#00E400,优,11,14,#00E400,17,2026-05-30 19:00:00
17,优,331024,115,28.7403,优,--,30,20,88,优,#00E400,#00E400,6,新生中学,#00E400,36,优,优,优,331000,#00E400,120.4728,#00E400,8,优,0.4,优,#00E400,#00E400,331024002,优,#00E400,台州市,#00E400,优,24,19,#00E400,17,2026-05-30 19:00:00
18,良,330782,107,29.3686,优,--,37,38,133,优,#00E400,#00E400,9,第五中学,#FFFF00,36,优,优,优,330700,#00E400,120.1345,#00E400,17,优,0.6,优,#00E400,#00E400,330782003,优,#00E400,金华市,#00E400,优,36,18,#00E400,17,2026-05-30 19:00:00
19,良,330421,112,30.836,优,--,42,22,140,优,#00E400,#00E400,7,嘉善监测大楼,#FFFF00,37,优,优,优,330400,#00E400,120.9226,#00E400,14,优,0.2,优,#00E400,#00E400,330421001,优,#00E400,嘉兴市,#00E400,优,37,22,#00E400,20,2026-05-30 19:00:00
20,良,330782,117,29.305096,优,--,35,25,136,优,#00E400,#00E400,6,江东,#FFFF00,37,优,优,优,330700,#00E400,120.090442,#00E400,20,优,0.5,优,#00E400,#00E400,330782002,优,#00E400,金华市,#00E400,优,34,20,#00E400,20,2026-05-30 19:00:00
21,良,331023,116,29.1504,优,--,26,18,136,优,#00E400,#00E400,6,育青中学,#FFFF00,37,优,优,优,331000,#00E400,121.0091,#00E400,10,优,0.5,优,#00E400,#00E400,331023001,优,#00E400,台州市,#00E400,优,23,14,#00E400,20,2026-05-30 19:00:00
22,良,331122,116,28.6628,优,--,45,30,132,优,#00E400,#00E400,7,信访大楼,#FFFF00,37,优,优,优,331100,#00E400,120.0856,#00E400,19,优,0.5,优,#00E400,#00E400,331122002,优,#00E400,丽水市,#00E400,优,32,27,#00E400,20,2026-05-30 19:00:00
23,良,331126,78,27.629585,优,--,34,10,101,优,#00E400,#00E400,5,庆元监测楼,#FFFF00,37,优,优,优,331100,#00E400,119.054809,#00E400,23,优,1.0,优,#00E400,#00E400,331126001,优,#00E400,丽水市,#00E400,优,37,20,#00E400,20,2026-05-30 19:00:00
24,良,330324,121,28.044335,优,--,32,25,128,优,#00E400,#00E400,7,瓯北,#FFFF00,38,优,优,优,330300,#00E400,120.654963,#00E400,9,优,0.5,优,#00E400,#00E400,330324002,优,#00E400,温州市,#00E400,优,23,20,#00E400,25,2026-05-30 19:00:00
25,良,330328,64,27.7838,优,--,28,19,106,优,#00E400,#00E400,7,大峃,#FFFF00,38,优,优,优,330300,#00E400,120.085,#00E400,22,优,0.6,优,#00E400,#00E400,330328001,优,#00E400,温州市,#00E400,优,38,20,#00E400,25,2026-05-30 19:00:00
26,良,330481,119,30.5524,优,--,40,30,136,优,#00E400,#00E400,7,胜利社区,#FFFF00,38,优,优,优,330400,#00E400,120.6713,#00E400,12,优,0.5,优,#00E400,#00E400,330481003,优,#00E400,嘉兴市,#00E400,优,35,18,#00E400,25,2026-05-30 19:00:00
27,良,330481,125,30.5261,优,--,33,18,132,优,#00E400,#00E400,6,海宁监测大楼,#FFFF00,40,优,优,优,330400,#00E400,120.6739,#00E400,10,优,0.2,优,#00E400,#00E400,330481001,优,#00E400,嘉兴市,#00E400,优,26,15,#00E400,28,2026-05-30 19:00:00
28,良,330481,115,30.5137,优,--,32,26,123,优,#00E400,#00E400,10,硖石街道,#FFFF00,40,优,优,优,330400,#00E400,120.7082,#00E400,15,优,0.3,优,#00E400,#00E400,330481002,优,#00E400,嘉兴市,#00E400,优,40,13,#00E400,28,2026-05-30 19:00:00
29,良,330784,126,28.8854,优,--,45,15,149,优,#00E400,#00E400,7,永康一中,#FFFF00,40,优,优,优,330700,#00E400,120.0439,#00E400,17,优,0.5,优,#00E400,#00E400,330784001,优,#00E400,金华市,#00E400,优,26,28,#00E400,28,2026-05-30 19:00:00
30,良,331023,125,29.1342,优,--,27,17,144,优,#00E400,#00E400,6,天台实验中学,#FFFF00,40,优,优,优,331000,#00E400,121.0349,#00E400,14,优,0.5,优,#00E400,#00E400,331023002,优,#00E400,台州市,#00E400,优,19,16,#00E400,28,2026-05-30 19:00:00
31,良,331125,100,28.1062,优,--,42,15,109,优,#00E400,#00E400,6,云和三中,#FFFF00,40,优,优,优,331100,#00E400,119.5728,#00E400,23,优,0.6,优,#00E400,#00E400,331125002,优,#00E400,丽水市,#00E400,优,40,20,#00E400,28,2026-05-30 19:00:00
32,良,330324,130,28.158269,优,--,41,24,135,优,#00E400,#00E400,9,上塘,#FFFF00,41,优,优,优,330300,#00E400,120.694244,#00E400,24,优,0.7,优,#00E400,#00E400,330324001,优,#00E400,温州市,#00E400,优,35,26,#00E400,33,2026-05-30 19:00:00
33,良,330782,130,29.335473,优,--,34,24,139,优,#00E400,#00E400,5,北苑,#FFFF00,41,优,优,优,330700,#00E400,120.078609,#00E400,15,优,0.5,优,#00E400,#00E400,330782001,优,#00E400,金华市,#00E400,优,30,20,#00E400,33,2026-05-30 19:00:00
34,良,331122,119,28.6574,优,--,50,36,135,优,#00E400,#00E400,7,缙云中学,#FFFF00,41,优,优,优,331100,#00E400,120.0696,#00E400,21,优,0.6,优,#00E400,#00E400,331122001,优,#00E400,丽水市,#00E400,优,41,30,#00E400,33,2026-05-30 19:00:00
35,良,330327,134,27.503889,优,--,34,10,139,优,#00E400,#00E400,9,灵溪,#FFFF00,42,优,优,优,330300,#00E400,120.395278,#00E400,9,优,0.4,优,#00E400,#00E400,330327001,优,#00E400,温州市,#00E400,优,11,20,#00E400,36,2026-05-30 19:00:00
36,轻度污染,330624,133,29.5036,优,--,26,20,163,优,#00E400,#00E400,5,钟楼站,#FF7E00,42,优,优,优,330600,#00E400,120.8938,#00E400,17,优,0.4,优,#00E400,#00E400,330624001,优,#00E400,绍兴市,#00E400,优,31,14,#00E400,36,2026-05-30 19:00:00
37,良,330726,134,29.465746,优,--,34,16,141,优,#00E400,#00E400,7,浦江实验中学,#FFFF00,42,优,优,优,330700,#00E400,119.875227,#00E400,9,优,0.5,优,#00E400,#00E400,330726001,优,#00E400,金华市,#00E400,优,16,21,#00E400,36,2026-05-30 19:00:00
38,良,331082,134,28.873,优,--,26,20,142,优,#00E400,#00E400,7,临海环保大楼,#FFFF00,42,优,优,优,331000,#00E400,121.1769,#00E400,13,优,0.5,优,#00E400,#00E400,331082001,优,#00E400,台州市,#00E400,优,25,14,#00E400,36,2026-05-30 19:00:00
39,良,331081,133,28.37558,优,--,19,13,134,优,#00E400,#00E400,6,温岭环监站,#FFFF00,42,优,优,优,331000,#00E400,121.36579,#00E400,5,优,0.4,优,#00E400,#00E400,331081001,优,#00E400,台州市,#00E400,优,18,7,#00E400,36,2026-05-30 19:00:00
40,轻度污染,330624,135,29.4938,优,--,26,20,164,优,#00E400,#00E400,5,城东站,#FF7E00,43,优,优,优,330600,#00E400,120.9109,#00E400,13,优,0.4,优,#00E400,#00E400,330624002,优,#00E400,绍兴市,#00E400,优,29,14,#00E400,41,2026-05-30 19:00:00
41,良,331126,93,27.6211,优,--,37,7,105,优,#00E400,#00E400,5,庆元气象局,#FFFF00,43,优,优,优,331100,#00E400,119.0788,#00E400,28,优,1.1,优,#00E400,#00E400,331126002,优,#00E400,丽水市,#00E400,优,43,23,#00E400,41,2026-05-30 19:00:00
42,良,330783,140,29.27739,优,--,24,12,159,优,#00E400,#00E400,6,东阳环保大楼,#FFFF00,44,优,优,优,330700,#00E400,120.23692,#00E400,9,优,0.4,优,#00E400,#00E400,330783002,优,#00E400,金华市,#00E400,优,14,17,#00E400,43,2026-05-30 19:00:00
43,良,330782,138,29.2637,优,--,43,25,150,优,#00E400,#00E400,8,儿童公园,#FFFF00,44,优,优,优,330700,#00E400,120.0321,#00E400,15,优,0.4,优,#00E400,#00E400,330782004,优,#00E400,金华市,#00E400,优,36,20,#00E400,43,2026-05-30 19:00:00
44,良,330127,143,29.605,优,--,49,13,148,优,#00E400,#00E400,12,老年活动中心,#FFFF00,45,优,优,优,330100,#00E400,119.0372,#00E400,19,优,0.4,优,#00E400,#00E400,330127T_4,优,#00E400,杭州市,#00E400,优,35,32,#00E400,45,2026-05-30 19:00:00
45,良,330381,143,27.791645,优,--,29,10,137,优,#00E400,#00E400,7,花园桥,#FFFF00,45,优,优,优,330300,#00E400,120.62372,#00E400,6,优,0.5,优,#00E400,#00E400,330381001,优,#00E400,温州市,#00E400,优,13,19,#00E400,45,2026-05-30 19:00:00
46,良,330482,141,30.6937,优,--,35,14,134,优,#00E400,#00E400,9,平湖幼儿园,#FFFF00,45,优,优,优,330400,#00E400,121.0259,#00E400,14,优,0.6,优,#00E400,#00E400,330482001,优,#00E400,嘉兴市,#00E400,优,40,18,#00E400,45,2026-05-30 19:00:00
47,良,330521,143,30.5231,优,--,41,19,156,优,#00E400,#00E400,8,地信科创园,#FFFF00,45,优,优,优,330500,#00E400,119.9781,#00E400,13,优,0.4,优,#00E400,#00E400,330521001,优,#00E400,湖州市,#00E400,优,27,25,#00E400,45,2026-05-30 19:00:00
48,良,330723,141,28.896108,优,--,53,23,157,优,#00E400,#00E400,9,武义县政府,#FFFF00,45,优,优,良,330700,#00E400,119.811352,#00E400,14,优,0.5,优,#00E400,#00E400,330723001,优,#00E400,金华市,#00E400,优,29,33,#FFFF00,45,2026-05-30 19:00:00
49,良,330781,144,29.216166,优,--,47,16,150,优,#00E400,#00E400,7,兰溪监测站,#FFFF00,45,优,优,优,330700,#00E400,119.459992,#00E400,14,优,0.7,优,#00E400,#00E400,330781001,优,#00E400,金华市,#00E400,优,23,31,#00E400,45,2026-05-30 19:00:00
50,良,330781,141,29.229931,优,--,47,15,150,优,#00E400,#00E400,9,兰溪八中,#FFFF00,45,优,优,优,330700,#00E400,119.475172,#00E400,13,优,0.5,优,#00E400,#00E400,330781002,优,#00E400,金华市,#00E400,优,22,31,#00E400,45,2026-05-30 19:00:00
51,良,330784,141,28.90016,优,--,48,11,132,优,#00E400,#00E400,8,西城供电所,#FFFF00,45,优,优,优,330700,#00E400,120.01452,#00E400,18,优,0.4,优,#00E400,#00E400,330784002,优,#00E400,金华市,#00E400,优,36,27,#00E400,45,2026-05-30 19:00:00
52,良,331082,143,28.84326,优,--,33,17,147,优,#00E400,#00E400,5,巾山实验小学,#FFFF00,45,优,优,优,331000,#00E400,121.136,#00E400,16,优,0.5,优,#00E400,#00E400,331082002,优,#00E400,台州市,#00E400,优,35,18,#00E400,45,2026-05-30 19:00:00
53,良,331123,77,28.5839,优,--,45,20,104,优,#00E400,#00E400,4,遂昌中学,#FFFF00,45,优,优,优,331100,#00E400,119.2656,#00E400,26,优,0.8,优,#00E400,#00E400,331123002,优,#00E400,丽水市,#00E400,优,45,25,#00E400,45,2026-05-30 19:00:00
54,良,330681,146,29.7257,优,--,31,24,156,优,#00E400,#00E400,8,城新小学,#FFFF00,46,优,优,优,330600,#00E400,120.272,#00E400,16,优,0.3,优,#00E400,#00E400,330681505,优,#00E400,绍兴市,#00E400,优,38,17,#00E400,55,2026-05-30 19:00:00
55,轻度污染,330213,145,29.693,优,--,29,19,202,优,#00E400,#00E400,5,溪口政府大楼,#FF7E00,46,优,优,优,330200,#00E400,121.2774,#00E400,13,优,0.3,优,#00E400,#00E400,330283T_1,优,#00E400,宁波市,#00E400,优,27,15,#00E400,55,2026-05-30 19:00:00
56,良,330424,146,30.5042,优,--,20,8,139,优,#00E400,#00E400,5,高级中学,#FFFF00,46,优,优,优,330400,#00E400,120.9413,#00E400,4,优,0.3,优,#00E400,#00E400,330424001,优,#00E400,嘉兴市,#00E400,优,12,9,#00E400,55,2026-05-30 19:00:00
57,良,330424,145,30.5299,优,--,20,12,139,优,#00E400,#00E400,4,海盐商贸学校,#FFFF00,46,优,优,优,330400,#00E400,120.9293,#00E400,5,优,0.3,优,#00E400,#00E400,330424002,优,#00E400,嘉兴市,#00E400,优,15,11,#00E400,55,2026-05-30 19:00:00
58,良,330523,146,30.6422,优,--,32,24,146,优,#00E400,#00E400,8,安吉实验小学,#FFFF00,46,优,优,优,330500,#00E400,119.6768,#00E400,22,优,0.3,优,#00E400,#00E400,330523001,优,#00E400,湖州市,#00E400,优,40,25,#00E400,55,2026-05-30 19:00:00
59,轻度污染,330213,148,29.6506,优,--,29,15,176,优,#00E400,#00E400,7,奉化教育局,#FF7E00,47,优,优,优,330200,#00E400,121.4042,#00E400,16,优,0.5,优,#00E400,#00E400,330283005,优,#00E400,宁波市,#00E400,优,30,19,#00E400,60,2026-05-30 19:00:00
60,良,330282,150,30.1636,优,--,29,29,160,优,#00E400,#00E400,4,慈溪环保大楼,#FFFF00,47,优,优,优,330200,#00E400,121.2677,#00E400,24,优,0.5,优,#00E400,#00E400,330282001,优,#00E400,宁波市,#00E400,优,46,15,#00E400,60,2026-05-30 19:00:00
61,良,330381,150,27.782284,优,--,36,12,147,优,#00E400,#00E400,8,安阳新区,#FFFF00,47,优,优,优,330300,#00E400,120.650915,#00E400,7,优,0.4,优,#00E400,#00E400,330381002,优,#00E400,温州市,#00E400,优,14,21,#00E400,60,2026-05-30 19:00:00
62,良,330522,149,31.0263,优,--,33,21,146,优,#00E400,#00E400,8,龙山新区,#FFFF00,47,优,优,优,330500,#00E400,119.9046,#00E400,13,优,0.3,优,#00E400,#00E400,330522002,优,#00E400,湖州市,#00E400,优,31,18,#00E400,60,2026-05-30 19:00:00
63,良,330681,150,29.6818,优,--,27,9,156,优,#00E400,#00E400,5,杨树畈,#FFFF00,47,优,优,优,330600,#00E400,120.2359,#00E400,8,优,0.3,优,#00E400,#00E400,330681001,优,#00E400,绍兴市,#00E400,优,27,12,#00E400,60,2026-05-30 19:00:00
64,良,330726,150,29.439787,优,--,38,22,152,优,#00E400,#00E400,6,浦江中学,#FFFF00,47,优,优,优,330700,#00E400,119.924638,#00E400,6,优,0.3,优,#00E400,#00E400,330726002,优,#00E400,金华市,#00E400,优,32,21,#00E400,60,2026-05-30 19:00:00
65,良,331022,148,29.11779,优,--,30,11,144,优,#00E400,#00E400,6,三门环监楼,#FFFF00,47,优,优,优,331000,#00E400,121.382189,#00E400,11,优,0.5,优,#00E400,#00E400,331022001,优,#00E400,台州市,#00E400,优,25,15,#00E400,60,2026-05-30 19:00:00
66,良,331121,98,28.1094,优,--,46,45,105,优,#00E400,#00E400,5,青田中学,#FFFF00,47,优,优,优,331100,#00E400,120.3161,#00E400,24,优,0.7,优,#00E400,#00E400,331121002,优,#00E400,丽水市,#00E400,优,47,30,#00E400,60,2026-05-30 19:00:00
67,轻度污染,330212,149,29.7736,优,--,31,17,187,优,#00E400,#00E400,5,钱湖水厂,#FF7E00,47,优,优,优,330200,#00E400,121.6330,#00E400,11,优,0.3,优,#00E400,#00E400,2013302120001,优,#00E400,宁波市,#00E400,优,21,16,#00E400,60,2026-05-30 19:00:00
68,轻度污染,330281,151,30.0358,优,--,22,25,168,优,#00E400,#00E400,7,姚江小学,#FF7E00,48,优,优,优,330200,#00E400,121.1221,#00E400,24,优,0.4,优,#00E400,#00E400,330281002,优,#00E400,宁波市,#00E400,优,42,13,#00E400,69,2026-05-30 19:00:00
69,良,330382,153,28.1209,优,--,27,11,158,优,#00E400,#00E400,5,乐成,#FFFF00,48,优,优,优,330300,#00E400,120.9659,#00E400,8,优,0.4,优,#00E400,#00E400,330382001,优,#00E400,温州市,#00E400,优,12,16,#00E400,69,2026-05-30 19:00:00
70,良,330382,152,28.0297,优,--,35,12,147,优,#00E400,#00E400,5,柳市,#FFFF00,48,优,优,优,330300,#00E400,120.891,#00E400,6,优,0.5,优,#00E400,#00E400,330382002,优,#00E400,温州市,#00E400,优,15,29,#00E400,69,2026-05-30 19:00:00
71,良,330327,152,27.522222,优,--,34,11,156,优,#00E400,#00E400,8,苍南中学,#FFFF00,48,优,优,优,330300,#00E400,120.416111,#00E400,6,优,0.4,优,#00E400,#00E400,330327004,优,#00E400,温州市,#00E400,优,14,22,#00E400,69,2026-05-30 19:00:00
72,良,330881,152,28.7282,优,--,53,14,156,优,#00E400,#00E400,7,人民医院,#FFFF00,48,优,优,良,330800,#00E400,118.6227,#00E400,20,优,0.6,优,#00E400,#00E400,330881002,优,#00E400,衢州市,#00E400,优,39,35,#FFFF00,69,2026-05-30 19:00:00
73,良,330921,151,30.2517,优,--,20,16,160,优,#00E400,#00E400,7,岱山高亭,#FFFF00,48,优,优,优,330900,#00E400,122.1958,#00E400,10,优,0.4,优,#00E400,#00E400,330921002,优,#00E400,舟山市,#00E400,优,27,9,#00E400,69,2026-05-30 19:00:00
74,良,331123,63,28.5991,优,--,46,15,104,优,#00E400,#00E400,5,遂昌民政局,#FFFF00,48,优,优,优,331100,#00E400,119.2622,#00E400,33,优,0.8,优,#00E400,#00E400,331123001,优,#00E400,丽水市,#00E400,优,41,29,#00E400,69,2026-05-30 19:00:00
75,轻度污染,330723,151,28.9178,优,--,46,22,161,优,#00E400,#00E400,8,武义北岭幼儿园,#FF7E00,48,优,优,优,330700,#00E400,119.8022,#00E400,13,优,0.6,优,#00E400,#00E400,330723003,优,#00E400,金华市,#00E400,优,22,32,#00E400,69,2026-05-30 19:00:00
76,良,330282,155,30.1786,优,--,26,19,159,优,#00E400,#00E400,4,慈溪实验小学,#FFFF00,49,优,优,优,330200,#00E400,121.2525,#00E400,22,优,0.4,优,#00E400,#00E400,330282002,优,#00E400,宁波市,#00E400,优,40,16,#00E400,77,2026-05-30 19:00:00
77,良,330681,155,29.726389,优,--,29,28,157,优,#00E400,#00E400,8,青少年宫,#FFFF00,49,优,优,优,330600,#00E400,120.199722,#00E400,19,优,0.3,优,#00E400,#00E400,330681002,优,#00E400,绍兴市,#00E400,优,31,16,#00E400,77,2026-05-30 19:00:00
78,轻度污染,331083,154,28.2221,优,--,17,18,161,优,#00E400,#00E400,6,楚门中心小学,#FF7E00,49,优,优,优,331000,#00E400,121.2846,#00E400,10,优,0.6,优,#00E400,#00E400,331021002,优,#00E400,台州市,#00E400,优,12,10,#00E400,77,2026-05-30 19:00:00
79,轻度污染,330182,157,29.4769,优,--,49,15,164,优,#00E400,#00E400,7,建德监测大楼,#FF7E00,50,优,优,优,330100,#00E400,119.2711,#00E400,13,优,0.5,优,#00E400,#00E400,330182T_2,优,#00E400,杭州市,#00E400,优,32,30,#00E400,80,2026-05-30 19:00:00
80,良,330182,159,29.4638,优,--,46,11,150,优,#00E400,#00E400,6,第二中学,#FFFF00,50,优,优,优,330100,#00E400,119.2821,#00E400,15,优,0.5,优,#00E400,#00E400,330182002,优,#00E400,杭州市,#00E400,优,33,32,#00E400,80,2026-05-30 19:00:00
81,轻度污染,330225,158,29.4767,优,--,18,19,166,优,#00E400,#00E400,9,文峰小学,#FF7E00,50,优,优,优,330200,#00E400,121.8864,#00E400,7,优,0.5,优,#00E400,#00E400,330225001,优,#00E400,宁波市,#00E400,优,17,8,#00E400,80,2026-05-30 19:00:00
82,良,330383,157,27.5812,优,--,33,13,158,优,#00E400,#00E400,8,龙港,#FFFF00,50,优,优,优,330300,#00E400,120.5489,#00E400,6,优,0.4,优,#00E400,#00E400,330327002,优,#00E400,温州市,#00E400,优,12,22,#00E400,80,2026-05-30 19:00:00
83,轻度污染,330110,158,30.2635,优,--,45,33,162,优,#00E400,#00E400,9,海辰小学,#FF7E00,50,优,优,优,330100,#00E400,119.9842,#00E400,15,优,0.6,优,#00E400,#00E400,2013301100001,优,#00E400,杭州市,#00E400,优,35,24,#00E400,80,2026-05-30 19:00:00
84,轻度污染,330521,156,30.548493,优,--,40,37,161,优,#00E400,#00E400,8,春晖小学,#FF7E00,50,优,优,优,330500,#00E400,119.9505,#00E400,31,优,0.5,优,#00E400,#00E400,330521003,优,#00E400,湖州市,#00E400,优,50,25,#00E400,80,2026-05-30 19:00:00
85,良,330822,121,28.901,优,PM₁₀,51,16,129,优,#FFFF00,#00E400,6,常山环保大楼,#FFFF00,51,优,良,良,330800,#00E400,118.5196,#00E400,29,良,0.5,优,#00E400,#00E400,330822001,优,#FFFF00,衢州市,#00E400,优,51,27,#FFFF00,86,2026-05-30 19:00:00
86,良,330822,126,28.9012,优,PM₁₀,51,18,131,优,#FFFF00,#00E400,6,图书馆大楼,#FFFF00,52,优,良,良,330800,#00E400,118.5062,#00E400,25,良,0.5,优,#00E400,#00E400,330822002,优,#FFFF00,衢州市,#00E400,优,52,28,#FFFF00,87,2026-05-30 19:00:00
87,轻度污染,330803,146,28.9844,优,PM₁₀,56,25,167,优,#FFFF00,#00E400,7,衢州三中（市）,#FF7E00,53,优,良,良,330800,#00E400,118.9628,#00E400,30,良,0.7,优,#00E400,#FFFF00,330803704,良,#FFFF00,衢州市,#00E400,优,53,39,#FFFF00,88,2026-05-30 19:00:00
88,良,330281,150,30.0497,优,PM₁₀,27,22,160,优,#FFFF00,#00E400,7,龙山公园,#FFFF00,53,优,良,优,330200,#00E400,121.1475,#00E400,34,良,0.4,优,#00E400,#00E400,330281001,优,#FFFF00,宁波市,#00E400,优,54,16,#00E400,88,2026-05-30 19:00:00
89,轻度污染,330921,162,30.2669,优,O₃,21,19,164,良,#00E400,#00E400,6,岱山环保大楼,#FF7E00,53,优,良,优,330900,#00E400,122.2199,#00E400,6,优,0.4,优,#00E400,#00E400,330921001,优,#FFFF00,舟山市,#FFFF00,优,18,9,#00E400,88,2026-05-30 19:00:00
90,良,331121,101,28.1341,优,PM₁₀,53,33,110,优,#FFFF00,#00E400,6,塔山小学,#FFFF00,53,优,良,良,331100,#00E400,120.2936,#00E400,30,良,0.7,优,#00E400,#FFFF00,331121001,良,#FFFF00,丽水市,#00E400,优,53,38,#FFFF00,88,2026-05-30 19:00:00
91,轻度污染,330383,162,27.5617,优,O₃,31,16,162,良,#00E400,#00E400,6,龙港实验中学,#FF7E00,53,优,良,优,330300,#00E400,120.5355,#00E400,5,优,0.2,优,#00E400,#00E400,330303101,优,#FFFF00,温州市,#FFFF00,优,10,22,#00E400,88,2026-05-30 19:00:00
92,良,330421,117,30.8307,优,PM₁₀,44,31,151,优,#FFFF00,#00E400,10,气象观测台,#FFFF00,54,优,良,优,330400,#00E400,120.9356,#00E400,23,良,0.4,优,#00E400,#00E400,330421002,优,#FFFF00,嘉兴市,#00E400,优,55,20,#00E400,93,2026-05-30 19:00:00
93,良,330824,94,29.1343,优,PM₁₀,51,12,119,优,#FFFF00,#00E400,6,开化气象局,#FFFF00,56,优,良,良,330800,#00E400,118.402,#00E400,26,良,0.5,优,#00E400,#00E400,330824001,优,#FFFF00,衢州市,#00E400,优,58,26,#FFFF00,94,2026-05-30 19:00:00
94,良,330683,165,29.5663,优,O₃,22,18,151,良,#00E400,#00E400,7,丽湖小区,#FFFF00,57,优,良,优,330600,#00E400,120.8173,#00E400,16,优,0.4,优,#00E400,#00E400,330683002,优,#FFFF00,绍兴市,#FFFF00,优,32,14,#00E400,95,2026-05-30 19:00:00
95,良,330483,106,30.625,优,PM₁₀,44,32,121,优,#FFFF00,#00E400,5,振东新六中站,#FFFF00,60,优,良,优,330400,#00E400,120.5613,#00E400,32,良,0.5,优,#00E400,#00E400,330483002,优,#FFFF00,嘉兴市,#00E400,优,63,20,#00E400,96,2026-05-30 19:00:00
96,轻度污染,330825,169,29.0392,优,O₃,47,22,168,良,#00E400,#00E400,8,建设大楼,#FF7E00,62,优,良,优,330800,#00E400,119.1675,#00E400,14,优,0.5,优,#00E400,#00E400,330825001,优,#FFFF00,衢州市,#FFFF00,优,33,29,#00E400,97,2026-05-30 19:00:00
97,轻度污染,331022,169,29.1028,优,O₃,26,14,166,良,#00E400,#00E400,7,心湖站,#FF7E00,62,优,良,优,331000,#00E400,121.3918,#00E400,13,优,0.4,优,#00E400,#00E400,331022002,优,#FFFF00,台州市,#FFFF00,优,28,13,#00E400,97,2026-05-30 19:00:00
98,轻度污染,330225,171,29.2003,优,O₃,20,25,177,良,#00E400,#00E400,8,石浦新港小学,#FF7E00,64,优,良,优,330200,#00E400,121.934,#00E400,15,优,0.4,优,#00E400,#00E400,330225002,优,#FFFF00,宁波市,#FFFF00,优,31,8,#00E400,99,2026-05-30 19:00:00
99,轻度污染,330881,173,28.7465,优,O₃,55,14,186,良,#00E400,#00E400,2,江山环保大楼,#FF7E00,67,优,良,良,330800,#00E400,118.6301,#00E400,24,优,0.6,优,#00E400,#00E400,330881001,优,#FFFF00,衢州市,#FFFF00,优,45,35,#FFFF00,100,2026-05-30 19:00:00
100,良,330305,174,27.8342,优,O₃,20,10,158,良,#00E400,#00E400,8,洞头气象局,#FFFF00,68,优,良,优,330300,#00E400,121.1502,#00E400,6,优,0.5,优,#00E400,#00E400,330305001,优,#FFFF00,温州市,#FFFF00,优,19,9,#00E400,101,2026-05-30 19:00:00
101,轻度污染,330226,175,29.3125,优,O₃,25,18,176,良,#00E400,#00E400,7,宁海水利局,#FF7E00,69,优,良,优,330200,#00E400,121.4306,#00E400,11,优,0.3,优,#00E400,#00E400,330226001,优,#FFFF00,宁波市,#FFFF00,优,24,13,#00E400,102,2026-05-30 19:00:00
102,轻度污染,330922,175,30.7269,优,O₃,19,10,168,良,#00E400,#00E400,8,嵊泗菜园,#FF7E00,69,优,良,优,330900,#00E400,122.4464,#00E400,14,优,0.4,优,#00E400,#00E400,330922001,优,#FFFF00,舟山市,#FFFF00,优,25,10,#00E400,102,2026-05-30 19:00:00
103,轻度污染,330122,170,29.8058,优,PM₂.₅,46,24,171,良,#FFFF00,#FFFF00,9,桐庐江北,#FF7E00,70,优,良,优,330100,#00E400,119.669,#00E400,45,良,0.5,良,#00E400,#00E400,330122002,优,#FFFF00,杭州市,#FFFF00,优,67,28,#00E400,104,2026-05-30 19:00:00
104,轻度污染,330226,177,29.2878,优,O₃,26,15,178,良,#00E400,#00E400,7,宁海城南站,#FF7E00,72,优,良,优,330200,#00E400,121.4201,#00E400,13,优,0.4,优,#00E400,#00E400,330226002,优,#FFFF00,宁波市,#FFFF00,优,28,13,#00E400,105,2026-05-30 19:00:00
105,轻度污染,330683,182,29.5901,优,O₃,28,22,169,良,#00E400,#00E400,6,马寅初初中,#FF7E00,78,优,良,优,330600,#00E400,120.8249,#00E400,18,优,0.4,优,#00E400,#00E400,330683001,优,#FFFF00,绍兴市,#FFFF00,优,35,15,#00E400,106,2026-05-30 19:00:00
106,轻度污染,330122,176,29.7955,优,PM₂.₅,53,25,171,良,#FFFF00,#FFFF00,11,桐庐江南,#FF7E00,86,优,良,良,330100,#00E400,119.6874,#00E400,53,良,0.5,良,#00E400,#00E400,330122001,优,#FFFF00,杭州市,#FFFF00,优,87,28,#FFFF00,107,2026-05-30 19:00:00
107,轻度污染,330825,189,29.0464,优,O₃,62,23,194,良,#00E400,#00E400,6,龙游二高,#FF7E00,87,优,良,良,330800,#00E400,119.204,#00E400,18,优,0.4,优,#00E400,#FFFF00,330825002,良,#FFFF00,衢州市,#FFFF00,优,43,37,#FFFF00,108,2026-05-30 19:00:00
108,良,330127,127,29.5995,优,--,44,11,134,优,#00E400,#00E400,--,淳安环保大楼,#FFFF00,--,优,--,优,330100,--,119.0481,#00E400,18,优,0.7,优,#00E400,#00E400,330127001,优,--,杭州市,#00E400,--,27,35,#00E400,109,2026-05-30 19:00:00
109,轻度污染,330213,158,29.6774,--,--,32,18,198,优,#00E400,#00E400,5,大桥市场,#FF7E00,--,优,--,优,330200,#00E400,121.4237,#00E400,9,优,--,优,--,#00E400,330213001,优,--,宁波市,#00E400,优,21,16,#00E400,109,2026-05-30 19:00:00
110,--,330326,--,27.6653,--,--,--,--,--,--,--,--,--,平阳县政府,--,--,--,--,--,330300,--,120.5611,--,--,--,--,--,--,--,330326002,--,--,温州市,--,--,--,--,--,109,2026-05-30 19:00:00
111,良,330482,124,30.7292,--,--,32,23,127,优,#00E400,#00E400,9,陆家桥村,#FFFF00,--,优,--,优,330400,#00E400,120.9953,#00E400,17,优,--,优,--,#00E400,330482002,优,--,嘉兴市,#00E400,优,36,18,#00E400,109,2026-05-30 19:00:00
112,良,330483,111,30.6488,优,--,44,29,130,优,#00E400,--,5,茅盾小学,#FFFF00,--,优,--,优,330400,#00E400,120.5498,#00E400,--,优,0.3,--,#00E400,#00E400,330483001,优,--,嘉兴市,#00E400,优,43,19,#00E400,109,2026-05-30 19:00:00
113,--,330523,--,30.5974,--,--,--,--,--,--,--,--,--,安吉城东,--,--,--,--,--,330500,--,119.6953,--,--,--,--,--,--,--,330523002,--,--,湖州市,--,--,--,--,--,109,2026-05-30 19:00:00
114,轻度污染,330522,176,31.0143,优,--,39,26,170,良,#00E400,--,6,职教中心,#FF7E00,--,优,--,优,330500,#00E400,119.8935,#00E400,--,优,0.3,--,#00E400,#00E400,330522001,优,--,湖州市,#FFFF00,优,38,17,#00E400,109,2026-05-30 19:00:00
115,良,331083,146,28.12715,优,--,22,10,150,优,#00E400,#00E400,--,玉环环监站,#FFFF00,--,优,--,优,331000,--,121.2339,#00E400,9,优,0.6,优,#00E400,#00E400,331021001,优,--,台州市,#00E400,--,21,12,#00E400,109,2026-05-30 19:00:00
116,轻度污染,331081,162,28.39136,优,--,10,6,166,良,--,#00E400,4,之江高级中学,#FF7E00,--,优,--,优,331000,#00E400,121.37696,#00E400,6,--,0.4,优,#00E400,#00E400,331081002,优,--,台州市,#FFFF00,优,--,11,#00E400,109,2026-05-30 19:00:00
117,良,330483,110,30.6355,优,--,39,30,134,优,#00E400,#00E400,--,文化中心,#FFFF00,--,优,--,优,330400,--,120.5795,#00E400,17,优,0.4,优,#00E400,#00E400,330483003,优,--,嘉兴市,#00E400,--,38,19,#00E400,109,2026-05-30 19:00:00
