timepoint,stationcode,longitude,latitude,area,positionname,primarypollutant,aqi,pm10,pm10_24h,pm2_5,pm2_5_24h,o3,o3_24h,o3_8h,o3_8h_24h,no2,no2_24h,so2,so2_24h,co,co_24h
2026-04-14T1900,2568A,102.2503,31.8896,阿坝藏族羌族自治州,马师校,,32,22,14,9,8,101,101,96,96,8,6,6,6,0.4,0.4
2026-04-14T1900,3994A,102.2174,31.9016,阿坝藏族羌族自治州,马尔康中学西区,,30,27,10,11,9,96,96,91,91,7,6,3,4,0.3,0.3
2026-04-14T1900,2695A,80.2899,41.1684,阿克苏地区,电视台,,49,45,75,34,24,133,133,116,116,5,12,2,2,0.5,0.5
2026-04-14T1900,2696A,80.2592,41.1541,阿克苏地区,艺术中心,颗粒物(PM10),53,53,84,25,29,136,136,120,120,5,22,4,4,0.3,0.5
2026-04-14T1900,2205A,105.699,38.8409,阿拉善盟,蒙二幼,,36,21,45,9,14,113,113,115,115,6,4,9,9,0.5,0.5
2026-04-14T1900,2206A,105.7198,38.8508,阿拉善盟,环保局新楼,,32,21,48,6,21,100,100,105,105,6,4,8,8,0.4,0.5
2026-04-14T1900,2708A,88.1266,47.8515,阿勒泰地区,市站,颗粒物(PM10),140,223,32,49,6,91,91,88,88,4,8,5,6,0.2,0.2
2026-04-14T1900,4166A,88.1198,47.7931,阿勒泰地区,阿勒泰路33号,颗粒物(PM10),401,501,54,73,7,91,91,87,87,3,5,6,6,0.2,0.2
2026-04-14T1900,2630A,80.1171,32.4999,阿里地区,阿里监测站,,42,10,12,3,4,134,134,130,130,1,3,5,6,0.4,0.4
2026-04-14T1900,3192A,80.0906,32.5029,阿里地区,阿里藏医院,,45,9,10,3,3,141,141,136,136,1,2,5,5,0.4,0.4
2026-04-14T1900,2644A,109.0088,32.6974,安康市,汉滨区检察院,,25,25,31,11,17,55,55,78,78,17,9,5,6,0.6,0.5
2026-04-14T1900,4054A,109.0324,32.6913,安康市,市邮政管理局,NA,NA,38,33,22,19,53,53,86,85,26,12,4,6,NA,0.7
2026-04-14T1900,2291A,117.0806,30.5181,安庆市,环科院,,26,20,17,6,14,81,81,95,95,12,8,5,5,0.5,0.7
2026-04-14T1900,2292A,117.0331,30.5118,安庆市,马山宾馆,,25,17,16,3,13,77,77,90,90,9,7,4,4,0.4,0.6
2026-04-14T1900,2294A,116.9897,30.6146,安庆市,安庆大学,,27,14,17,3,9,86,86,90,90,6,6,2,2,0.4,0.6
2026-04-14T1900,3173A,117.0598,30.5351,安庆市,市人大,,24,18,17,6,11,74,74,91,90,12,8,6,6,0.5,0.7
2026-04-14T1900,3123A,105.9408,26.2431,安顺市,凤凰山,颗粒物(PM10),63,68,44,35,27,101,101,96,96,8,8,6,7,0.6,0.5
2026-04-14T1900,3124A,105.9443,26.2567,安顺市,金钟山,细颗粒物(PM2.5),66,57,35,43,26,95,95,86,86,6,6,7,7,0.6,0.5
2026-04-14T1900,3125A,105.8983,26.248,安顺市,娄家坡,细颗粒物(PM2.5),70,58,37,45,28,97,97,91,91,7,7,7,19,0.6,0.6
2026-04-14T1900,1819A,114.3552,36.1017,安阳市,红庙街,颗粒物(PM10),98,116,80,24,44,103,103,128,128,11,22,3,5,0.0,0.3
2026-04-14T1900,1820A,114.361,36.0681,安阳市,银杏小区,颗粒物(PM10),85,99,78,22,47,103,103,127,127,8,20,4,6,0,0.2
2026-04-14T1900,3141A,114.3921,36.0879,安阳市,信访局,,48,48,70,22,45,110,110,137,133,4,19,2,4,0.3,0.5
2026-04-14T1900,3669A,114.4706,36.0634,安阳市,左辅环卫站,,39,39,88,20,42,97,97,115,115,13,22,1,2,0.3,0.4
2026-04-14T1900,4117A,114.2918,36.0769,安阳市,钢三路198号,,32,32,82,20,47,94,94,118,118,9,18,2,4,0.4,0.6
2026-04-14T1900,1748A,123.0441,41.1201,鞍山市,深沟寺,细颗粒物(PM2.5),130,136,124,92,78,70,70,115,115,32,44,9,18,1.0,1
2026-04-14T1900,1749A,123.011,41.0931,鞍山市,太阳城,细颗粒物(PM2.5),145,147,132,109,90,80,80,105,105,29,45,12,28,1.3,1.8
2026-04-14T1900,1750A,123.0483,41.1445,鞍山市,太平,细颗粒物(PM2.5),133,140,129,96,77,85,85,116,116,33,38,10,16,1.0,1
2026-04-14T1900,1751A,122.964,41.0968,鞍山市,铁西三道街,细颗粒物(PM2.5),140,147,138,103,95,74,74,112,112,50,52,25,48,1.8,2.4
2026-04-14T1900,1753A,123.0219,41.0822,鞍山市,明达新区,细颗粒物(PM2.5),134,135,131,97,89,83,83,104,104,30,44,12,29,1.2,1.7
2026-04-14T1900,4201A,122.944647,41.082639,鞍山市,兴盛南路290号,细颗粒物(PM2.5),146,142,143,110,98,86,86,109,109,40,55,13,40,1.5,2.1
2026-04-14T1900,2195A,107.4206,40.7609,巴彦淖尔市,附二中,,50,50,199,13,41,114,114,115,115,6,6,9,10,0.3,0.3
2026-04-14T1900,2196A,107.37,40.7372,巴彦淖尔市,市环保大楼,,43,43,173,14,38,113,113,115,115,6,6,6,6,0.3,0.3
2026-04-14T1900,1956A,86.1476,41.7529,巴音郭楞蒙古自治州,孔雀公园,,39,31,75,27,32,100,100,97,97,6,13,10,10,0.1,0.2
2026-04-14T1900,1957A,86.1971,41.7166,巴音郭楞蒙古自治州,棉纺厂,颗粒物(PM10),67,73,89,3,30,98,98,99,99,6,7,/,/,/,/
2026-04-14T1900,1958A,86.236,41.7172,巴音郭楞蒙古自治州,经济开发区,,30,30,76,3,19,88,88,90,90,11,11,7,8,0.2,0.2
2026-04-14T1900,3181A,106.776805,31.852614,巴中市,市五中,,23,16,22,3,13,71,71,66,66,8,12,8,8,0.6,0.8
2026-04-14T1900,3183A,106.7419,31.8654,巴中市,圣泉水务公司,,23,17,18,6,11,73,73,70,70,7,13,8,8,0.6,0.7
2026-04-14T1900,3616A,106.7617,31.8343,巴中市,市中心医院,,27,10,19,3,13,84,84,78,78,5,11,8,8,0.5,0.6
2026-04-14T1900,2235A,122.7909,45.608,白城市,洮北区环保局,,48,42,45,33,27,111,111,109,109,5,28,4,7,0.1,0.2
2026-04-14T1900,2236A,122.8741,45.5725,白城市,市环保局,颗粒物(PM10),56,58,46,29,22,64,64,94,90,32,36,4,5,0,0
2026-04-14T1900,2231A,126.4219,41.9172,白山市,喜丰,细颗粒物(PM2.5),140,139,193,103,143,103,103,116,115,34,34,12,14,1.1,1.1
2026-04-14T1900,2232A,126.4082,41.9416,白山市,环保局,细颗粒物(PM2.5),136,114,150,99,155,124,124,123,123,22,28,13,14,0.9,0.9
2026-04-14T1900,2647A,104.1727,36.5448,白银市,第三小学,,34,32,24,22,10,108,108,106,106,6,4,5,7,0.3,0.3
2026-04-14T1900,2648A,104.1467,36.5482,白银市,动力公司,,35,30,24,16,10,112,112,108,108,6,6,7,8,0.2,0.3
2026-04-14T1900,2512A,106.6102,23.901,百色市,市监测站,细颗粒物(PM2.5),115,120,98,76,70,148,148,166,166,13,19,16,20,0.9,1
2026-04-14T1900,2513A,106.6524,23.8842,百色市,市中心血站,细颗粒物(PM2.5),137,NA,105,100,116,148,148,166,166,8,12,16,18,1.2,1.2
2026-04-14T1900,4133A,106.6273,23.8798,百色市,龙景西路,细颗粒物(PM2.5),113,124,105,74,79,150,150,170,170,13,18,16,22,0.7,0.8
2026-04-14T1900,2270A,117.396,32.9389,蚌埠市,工人疗养院,颗粒物(PM10),60,64,50,22,25,102,102,121,121,24,15,6,4,0.3,0.3
2026-04-14T1900,2271A,117.3606,32.9428,蚌埠市,百货大楼,,42,42,36,20,19,115,115,126,124,10,9,8,5,0.3,0.4
2026-04-14T1900,2273A,117.4183,32.8909,蚌埠市,蚌埠学院,,39,39,31,15,20,112,112,123,123,14,18,6,5,0.4,0.4
2026-04-14T1900,2274A,117.3534,32.9672,蚌埠市,淮上区政府,,46,46,36,17,21,115,115,128,128,14,12,7,5,0.4,0.3
2026-04-14T1900,2275A,117.3143,32.8977,蚌埠市,高新区,,41,41,32,15,19,108,108,120,120,15,12,8,7,0.4,0.4
2026-04-14T1900,3715A,117.3091,32.9314,蚌埠市,蚌埠田家炳中学,颗粒物(PM10),51,51,44,19,21,100,100,124,124,23,13,5,5,0.3,0.3
2026-04-14T1900,1585A,109.8761,40.6533,包头市,市环境监测站,颗粒物(PM10),65,70,99,16,30,120,120,124,124,17,25,8,12,0.6,0.7
2026-04-14T1900,1587A,109.9992,40.5843,包头市,包头八中,颗粒物(PM10),68,74,103,20,35,116,116,118,118,13,22,8,17,0.3,0.7
2026-04-14T1900,1589A,109.8641,40.6288,包头市,惠龙物流,颗粒物(PM10),56,58,100,18,31,115,115,117,117,11,19,8,11,0.4,0.6
2026-04-14T1900,1590A,110.0376,40.5546,包头市,东河鸿龙湾,,48,48,85,19,33,123,123,123,123,10,22,10,15,0.3,0.5
2026-04-14T1900,3283A,109.9154,40.5684,包头市,滨河大厦,颗粒物(PM10),53,54,92,22,33,116,116,122,122,14,19,9,12,0.3,0.4
2026-04-14T1900,3419A,109.9449,40.6259,包头市,包头市委党校,,50,50,88,13,27,124,124,122,122,7,23,8,12,0.3,0.4
2026-04-14T1900,3683A,109.8332,40.6577,包头市,昆区政府,颗粒物(PM10),54,55,99,16,32,111,111,120,120,25,27,5,11,0.7,0.9
2026-04-14T1900,1931A,107.0802,34.3129,宝鸡市,竹园沟,细颗粒物(PM2.5),82,80,60,51,40,133,133,121,121,14,14,8,8,0.5,0.5
2026-04-14T1900,1933A,107.1429,34.3549,宝鸡市,监测站,颗粒物(PM10),100,120,78,53,50,133,133,120,120,26,16,7,6,0.5,0.4
2026-04-14T1900,1934A,107.1172,34.3759,宝鸡市,技工学校,NA,NA,NA,69,NA,46,113,113,119,119,18,13,5,5,0.6,0.6
2026-04-14T1900,1936A,107.2025,34.3518,宝鸡市,文理学院,颗粒物(PM10),79,90,67,45,44,130,130,119,119,16,14,6,6,0.6,0.6
2026-04-14T1900,1937A,107.2396,34.3626,宝鸡市,三迪小学,颗粒物(PM10),75,84,69,47,44,128,128,121,121,16,13,7,6,0.7,0.6
2026-04-14T1900,4155A,107.1721,34.3558,宝鸡市,滨河北路,"颗粒物(PM10),细颗粒物(PM2.5)",80,91,69,50,46,124,124,115,115,17,13,8,8,0.7,0.6
2026-04-14T1900,4308A,107.3898,34.3601,宝鸡市,陈仓区北开路21号,颗粒物(PM10),75,85,71,43,44,126,126,123,123,10,12,10,10,0.6,0.6
2026-04-14T1900,1051A,115.4803,38.8568,保定市,游泳馆,细颗粒物(PM2.5),108,122,101,68,58,115,115,126,126,29,33,3,3,0.8,0.5
2026-04-14T1900,1052A,115.509,38.8895,保定市,华电二区,细颗粒物(PM2.5),84,95,94,52,52,112,112,126,126,26,28,7,4,0.7,0.5
2026-04-14T1900,1053A,115.4588,38.9037,保定市,接待中心,细颗粒物(PM2.5),102,104,99,62,54,105,105,118,118,28,24,3,2,0.6,0.4
2026-04-14T1900,1054A,115.4484,38.8344,保定市,地表水厂,NA,NA,116,120,58,57,NA,NA,130,130,28,38,6,6,0.7,0.5
2026-04-14T1900,3581A,115.3136,38.9511,保定市,满城区生态环境分局,颗粒物(PM10),107,136,137,56,49,107,107,120,120,30,32,6,5,0.7,0.5
2026-04-14T1900,3582A,115.4709,38.7628,保定市,清苑区第二中学,颗粒物(PM10),115,159,124,47,50,114,114,125,125,31,39,7,5,0.8,0.5
2026-04-14T1900,3583A,115.6231,39.0223,保定市,徐水物探局,颗粒物(PM10),115,159,136,60,54,87,87,111,111,35,30,6,4,1.1,0.7
2026-04-14T1900,4004A,115.4199,38.8665,保定市,双鹰农机,颗粒物(PM10),106,134,129,60,57,116,116,129,129,29,33,8,5,0.7,0.5
2026-04-14T1900,4034A,115.515,38.8589,保定市,植保所站,细颗粒物(PM2.5),94,100,111,57,56,111,111,123,123,30,34,6,5,0.8,0.6
2026-04-14T1900,2594A,99.1589,25.1137,保山市,市环境监测站,细颗粒物(PM2.5),88,89,75,54,40,141,141,136,136,8,9,8,6,0.3,0.3
2026-04-14T1900,2595A,99.1616,25.1381,保山市,市环保局,细颗粒物(PM2.5),98,106,82,59,47,140,140,138,138,7,8,9,7,0.4,0.4
2026-04-14T1900,1867A,109.1435,21.4085,北海市,海滩公园,颗粒物(PM10),58,60,45,30,28,103,103,103,103,8,8,7,6,0.5,0.5
2026-04-14T1900,1868A,109.0983,21.466,北海市,新市环保局,NA,NA,65,43,39,28,108,108,98,98,NA,9,3,4,0.7,0.6
2026-04-14T1900,1869A,109.1775,21.5232,北海市,北海工业园,细颗粒物(PM2.5),68,68,54,44,31,107,107,100,100,10,15,6,9,0.8,0.8
2026-04-14T1900,3400A,109.1844,21.4396,北海市,龙潭自来水厂,颗粒物(PM10),56,58,44,22,23,92,92,95,95,5,6,8,6,0.6,0.6
2026-04-14T1900,1001A,116.3611,39.8786,北京市,万寿西宫,颗粒物(PM10),88,102,123,43,48,98,98,90,90,29,42,6,6,0.7,0.7
2026-04-14T1900,1003A,116.4174,39.9289,北京市,东四,颗粒物(PM10),93,109,123,48,48,107,107,100,100,34,44,5,5,0.6,0.6
2026-04-14T1900,1004A,116.4073,39.8858,北京市,天坛,颗粒物(PM10),78,89,99,41,42,79,79,83,83,27,36,6,6,0.7,0.8
2026-04-14T1900,1005A,116.4622,39.9364,北京市,农展馆,颗粒物(PM10),85,99,115,45,45,108,108,97,97,23,38,6,6,0.8,0.7
2026-04-14T1900,1006A,116.3399,39.9293,北京市,官园,NA,NA,NA,121,46,47,93,93,86,86,30,36,5,6,NA,1
2026-04-14T1900,1007A,116.2879,39.9613,北京市,海淀万柳,颗粒物(PM10),80,92,109,42,42,83,83,81,81,28,43,6,6,0.6,0.6
2026-04-14T1900,1008A,116.6635,40.1349,北京市,顺义新城,颗粒物(PM10),82,94,110,42,39,91,91,91,91,25,33,7,7,0.7,0.7
2026-04-14T1900,1009A,116.6275,40.327,北京市,怀柔镇,细颗粒物(PM2.5),88,90,93,54,40,90,90,90,90,18,18,6,6,0.9,0.8
2026-04-14T1900,1010A,116.2295,40.217,北京市,昌平镇,颗粒物(PM10),75,84,103,46,40,91,91,88,88,26,32,4,5,0.8,0.7
2026-04-14T1900,1011A,116.3968,39.982,北京市,奥体中心,颗粒物(PM10),85,99,113,40,42,100,100,93,93,30,43,7,6,0.8,0.7
2026-04-14T1900,3418A,116.8336,40.4095,北京市,密云新城,颗粒物(PM10),82,94,110,46,42,85,85,86,86,21,28,5,5,0.7,0.7
2026-04-14T1900,3671A,116.0879,39.9725,北京市,门头沟三家店,颗粒物(PM10),83,95,119,49,42,90,90,90,90,29,38,4,4,0.6,0.5
2026-04-14T1900,3672A,116.1507,39.8246,北京市,丰台云岗,颗粒物(PM10),88,102,129,53,48,91,91,91,91,35,48,5,5,0.7,0.7
2026-04-14T1900,3674A,115.9578,39.7602,北京市,房山燕山,颗粒物(PM10),95,113,110,54,45,78,78,83,83,40,31,7,5,0.9,0.6
2026-04-14T1900,3675A,116.4669,39.7734,北京市,大兴旧宫,颗粒物(PM10),83,95,118,44,46,92,92,91,91,25,42,6,8,0.9,0.8
2026-04-14T1900,3694A,115.9859,40.4562,北京市,延庆石河营,细颗粒物(PM2.5),100,86,95,60,42,79,79,91,90,27,20,1,2,0.7,0.6
2026-04-14T1900,3695A,116.6151,40.3052,北京市,怀柔新城,颗粒物(PM10),83,95,95,46,37,79,79,93,93,19,19,5,6,0.9,0.8
2026-04-14T1900,3696A,116.2542,39.8764,北京市,丰台小屯,颗粒物(PM10),80,91,111,47,51,86,86,85,85,34,50,5,5,0.7,0.6
2026-04-14T1900,3697A,116.8399,40.3843,北京市,密云镇,颗粒物(PM10),81,93,97,41,37,82,82,86,86,23,31,6,7,0.8,0.7
2026-04-14T1900,4057A,115.9423,40.4431,北京市,延庆百泉,颗粒物(PM10),78,89,104,48,41,75,75,82,82,25,22,1,2,0.6,0.5
2026-04-14T1900,4058A,116.6598,39.9164,北京市,通州新华,颗粒物(PM10),88,102,118,45,46,100,100,90,90,27,41,7,6,0.8,0.7
2026-04-14T1900,4182A,116.1942,39.9158,北京市,石景山八角,颗粒物(PM10),89,104,134,44,46,91,91,87,87,33,53,6,4,0.6,0.6
2026-04-14T1900,4194A,117.078628,40.151726,北京市,平谷新城,颗粒物(PM10),87,101,94,43,39,65,65,76,76,42,31,7,6,1.0,0.7
2026-04-14T1900,1761A,123.8274146,41.31234549,本溪市,大峪,细颗粒物(PM2.5),121,138,130,83,76,122,122,142,142,28,40,10,17,0.9,2
2026-04-14T1900,1763A,123.7169,41.3094,本溪市,彩屯,细颗粒物(PM2.5),125,133,135,87,90,122,122,151,151,24,43,14,22,0.8,1.5
2026-04-14T1900,1764A,123.7672166,41.28649327,本溪市,东明,细颗粒物(PM2.5),115,120,127,76,87,121,121,139,139,26,51,18,23,0.7,1.8
2026-04-14T1900,1765A,123.799345,41.266614,本溪市,新立屯,细颗粒物(PM2.5),128,122,119,90,80,124,124,136,136,25,51,15,22,0.8,2.5
2026-04-14T1900,1766A,123.829144,41.336777,本溪市,威宁,细颗粒物(PM2.5),139,166,140,102,81,107,107,134,134,36,45,7,12,0.8,1.2
2026-04-14T1900,2587A,105.287,27.3133,毕节市,八中,,20,20,12,13,12,62,62,71,63,10,6,11,10,0.6,0.5
2026-04-14T1900,2588A,105.3079,27.2987,毕节市,师专,,26,26,16,13,11,61,61,70,65,6,4,9,9,0.5,0.4
2026-04-14T1900,4263A,105.3688,27.3598,毕节市,工业大道,,29,29,16,19,9,74,74,78,77,6,4,12,10,/,/
2026-04-14T1900,1629A,117.9961,37.3604,滨州市,第二水厂,颗粒物(PM10),55,56,93,31,56,149,149,152,152,10,26,10,12,0.6,0.7
2026-04-14T1900,1630A,117.9789,37.3931,滨州市,北中新校,颗粒物(PM10),53,53,84,31,47,155,155,157,157,15,30,18,18,0.5,0.7
2026-04-14T1900,3514A,117.9379,37.3959,滨州市,中海酒店,颗粒物(PM10),72,80,85,42,46,158,158,161,161,22,31,12,16,0.5,0.6
2026-04-14T1900,3515A,117.9381509,37.35547456,滨州市,开发区一中,颗粒物(PM10),72,80,99,42,61,147,147,146,146,18,31,9,12,0.7,0.9
2026-04-14T1900,3516A,118.0914,37.6938,滨州市,金海六路,细颗粒物(PM2.5),90,95,75,55,43,127,127,157,151,35,26,10,9,0.4,0.4
2026-04-14T1900,4028A,117.9955,37.3752,滨州市,滨州市西街道办事处,颗粒物(PM10),55,56,90,25,49,146,146,156,156,10,21,10,12,0.4,0.5
2026-04-14T1900,2311A,115.8071,33.8399,亳州市,污水处理厂,,37,37,25,10,11,117,117,122,122,12,13,6,8,0,0
2026-04-14T1900,2312A,115.7789,33.8519,亳州市,三国揽胜宫,,36,30,25,10,9,114,114,113,113,11,10,7,6,0.0,0
2026-04-14T1900,3332A,115.7631,33.803,亳州市,亳州学院,,42,42,30,13,10,106,106,118,118,12,7,7,6,0.2,0.1
2026-04-14T1900,2693A,82.0482,44.8553,博尔塔拉蒙古自治州,市党校,颗粒物(PM10),111,148,118,14,14,104,104,103,103,1,4,2,2,0.2,0.3
2026-04-14T1900,2694A,82.0805,44.8966,博尔塔拉蒙古自治州,市环保局,颗粒物(PM10),100,120,122,12,18,99,99,96,96,7,18,3,2,0.2,0.3
2026-04-14T1900,1071A,116.8733,38.2922,沧州市,沧县城建局,颗粒物(PM10),84,97,79,50,42,102,102,126,126,30,28,8,5,0.5,0.5
2026-04-14T1900,1072A,116.8462,38.3189,沧州市,电视转播站,细颗粒物(PM2.5),102,94,82,62,43,108,108,136,136,28,26,9,9,0.4,0.5
2026-04-14T1900,1073A,116.8588,38.3161,沧州市,市环保局,颗粒物(PM10),88,103,87,45,38,105,105,136,136,23,23,9,8,0.6,0.5
2026-04-14T1900,3324A,116.8011,38.294,沧州市,河北水利电力学院,细颗粒物(PM2.5),107,90,78,67,44,104,104,130,130,29,24,8,7,0.5,0.5
2026-04-14T1900,2622A,97.1813,31.1289,昌都市,昌都监测站,,37,10,6,8,3,117,117,122,122,9,6,9,9,0.4,0.3
2026-04-14T1900,3719A,97.1707,31.1428,昌都市,昌都会议中心,,41,NA,8,15,5,129,129,124,124,4,6,6,6,0.2,0.2
2026-04-14T1900,2692A,87.2722,44.0298,昌吉回族自治州,新区政务中心,颗粒物(PM10),96,114,73,7,14,92,92,99,99,6,20,4,5,0.2,0.3
2026-04-14T1900,3613A,87.3069,44.0093,昌吉回族自治州,亚心广场,颗粒物(PM10),86,100,90,17,16,96,96,102,102,3,15,5,6,0.2,0.3
2026-04-14T1900,4164A,87.2057,43.9289,昌吉回族自治州,财政所,颗粒物(PM10),115,158,101,NA,12,90,90,99,99,13,13,7,7,0.2,0.2
2026-04-14T1900,1120A,125.2874,43.9024,长春市,客车厂,,43,43,44,27,31,86,86,99,98,24,26,7,7,0.4,0.4
2026-04-14T1900,1121A,125.2943,43.8508,长春市,邮电学院,颗粒物(PM10),54,55,44,33,30,94,94,107,106,14,14,7,8,0.3,0.3
2026-04-14T1900,1122A,125.3648,43.8745,长春市,劳动公园,颗粒物(PM10),55,56,51,37,34,82,82,105,102,25,22,7,8,0.3,0.4
2026-04-14T1900,1123A,125.3233,43.8781,长春市,园林处,,48,48,46,33,34,94,94,109,108,18,20,7,7,0.3,0.3
2026-04-14T1900,1124A,125.4604,43.7904,长春市,净月潭,,42,42,35,29,26,91,91,109,108,13,11,6,6,0.3,0.3
2026-04-14T1900,1126A,125.38,43.8422,长春市,经开区环卫处,细颗粒物(PM2.5),56,49,47,38,32,91,91,105,104,21,26,6,6,0.4,0.4
2026-04-14T1900,1127A,125.234,43.7761,长春市,高新区管委会,,49,49,37,34,28,86,86,101,98,24,17,7,7,0.5,0.5
2026-04-14T1900,1128A,125.1695,43.83,长春市,岱山公园,颗粒物(PM10),56,58,43,35,29,70,70,96,94,40,26,6,5,0.5,0.5
2026-04-14T1900,4281A,125.334645,43.916281,长春市,北亚泰大街1068号,,48,48,49,30,33,90,90,104,103,18,22,6,8,0.3,0.3
2026-04-14T1900,1335A,113.082,28.2421,长沙市,经开区环保局,,27,27,24,14,15,53,53,70,51,22,14,4,4,0.4,0.4
2026-04-14T1900,1336A,112.8873,28.2202,长沙市,高开区环保局,,21,21,21,11,14,65,65,75,66,10,6,5,6,0.4,0.4
2026-04-14T1900,1337A,113.0785,28.2012,长沙市,马坡岭,,25,25,26,16,18,57,57,70,52,14,8,5,5,0.8,0.7
2026-04-14T1900,1338A,112.9448,28.1894,长沙市,湖南师范大学,,23,20,23,11,14,72,72,81,69,8,6,4,5,0.6,0.6
2026-04-14T1900,1339A,113.0177,28.1322,长沙市,雨花区环保局,,24,24,21,13,15,68,68,76,61,9,6,3,3,0.5,0.5
2026-04-14T1900,1340A,112.9795,28.2593,长沙市,伍家岭,,28,28,24,13,15,62,62,70,61,14,10,4,3,0.3,0.3
2026-04-14T1900,1341A,113.002,28.1944,长沙市,火车新站,,23,23,22,16,17,67,67,75,62,10,7,4,3,0.4,0.4
2026-04-14T1900,1342A,112.9846,28.1177,长沙市,天心区环保局,,21,NA,23,14,18,66,66,80,62,10,8,5,5,0.5,0.5
2026-04-14T1900,1343A,112.8906,28.1307,长沙市,湖南中医药大学,,19,17,21,10,15,59,59,83,67,19,9,5,5,0.5,0.5
2026-04-14T1900,1727A,113.1146,36.1547,长治市,清华站,,42,42,30,20,16,110,110,135,132,24,8,8,8,0.4,0.5
2026-04-14T1900,1730A,113.0887,36.2126,长治市,审计局,,38,38,34,25,19,112,112,131,131,15,10,9,8,0.3,0.4
2026-04-14T1900,1731A,113.0845,36.1856,长治市,长治八中,,43,43,38,18,17,110,110,130,130,21,15,9,9,0.5,0.5
2026-04-14T1900,2845A,113.1561,36.1912,长治市,德盛苑,,35,35,28,23,14,106,106,137,135,15,10,8,8,0.4,0.5
2026-04-14T1900,3568A,113.0603,36.0464,长治市,向阳小学,颗粒物(PM10),52,52,53,16,18,118,118,140,140,17,18,6,7,0.5,0.6
2026-04-14T1900,3569A,112.8788,36.315,长治市,屯留一中,,30,30,35,20,16,92,92,117,116,29,25,8,8,0.5,0.5
2026-04-14T1900,4189A,113.113092,36.199482,长治市,英华南巷50号,,48,48,36,27,19,114,114,134,133,15,10,6,7,0.7,0.8
2026-04-14T1900,4190A,113.23666,36.33435,长治市,学府街1号,颗粒物(PM10),53,53,37,21,17,110,110,128,128,18,22,7,5,0.7,0.6
2026-04-14T1900,1854A,111.696,28.9725,常德市,市二中,NA,NA,26,23,10,21,88,88,78,78,NA,4,7,8,0.7,0.8
2026-04-14T1900,3138A,111.7152,29.0288,常德市,武陵区永安,,29,22,24,8,23,91,91,82,82,7,6,5,5,0.6,0.6
2026-04-14T1900,3139A,111.6891,28.9881,常德市,鼎城区玉霞,,29,21,22,10,21,91,91,80,80,4,5,8,8,0.6,0.8
2026-04-14T1900,3140A,111.6651,29.0526,常德市,武陵区长庚,,30,22,24,12,22,93,93,80,80,5,5,8,8,0.6,0.7
2026-04-14T1900,1196A,119.9524,31.7586,常州市,市监测站,颗粒物(PM10),68,74,78,33,32,72,72,80,80,31,26,9,9,1.0,0.9
2026-04-14T1900,1200A,119.9351,31.703,常州市,武进监测站,颗粒物(PM10),63,67,70,33,32,70,70,80,80,33,27,4,5,0.8,0.9
2026-04-14T1900,3002A,119.9701,31.813,常州市,行政中心,颗粒物(PM10),55,56,59,30,33,68,68,69,69,31,28,5,5,0.5,0.6
2026-04-14T1900,3003A,120.0434,31.7726,常州市,经开区,NA,NA,64,81,32,35,NA,NA,75,75,31,23,2,3,1.0,1
2026-04-14T1900,3010A,119.8919,31.7892,常州市,钟楼,,50,50,50,34,36,71,71,75,75,35,26,7,7,0.8,0.4
2026-04-14T1900,3429A,119.8595,31.706,常州市,武进经发区,颗粒物(PM10),51,51,49,29,30,72,72,84,84,34,35,4,4,0.9,0.9
2026-04-14T1900,3430A,119.5812,31.7256,常州市,金坛城区,,38,38,39,26,27,86,86,82,82,11,10,7,7,0.7,0.7
2026-04-14T1900,4089A,119.9551,31.863,常州市,崇义南街5-H号,颗粒物(PM10),66,72,57,33,30,66,66,72,72,32,24,6,6,0.6,0.7
2026-04-14T1900,2220A,120.4318,41.588,朝阳市,西梁,细颗粒物(PM2.5),66,NA,50,43,27,91,91,99,98,21,23,10,15,0.7,0.6
2026-04-14T1900,2221A,120.452,41.565,朝阳市,河畔小区,,46,32,40,32,23,97,97,103,103,15,16,7,16,0.5,0.5
2026-04-14T1900,2222A,120.4176,41.5648,朝阳市,八里堡,细颗粒物(PM2.5),68,49,47,44,28,95,95,102,102,24,23,9,18,0.8,0.6
2026-04-14T1900,3026A,116.6179,23.6608,潮州市,市政府,,48,48,42,31,21,39,39,64,62,23,22,13,15,0.6,0.5
2026-04-14T1900,4036A,116.646,23.676,潮州市,金山,,38,38,30,23,18,44,44,68,67,14,14,6,4,0.6,0.4
2026-04-14T1900,2473A,113.0116,25.8228,郴州市,市职中,,19,19,27,11,25,35,35,42,38,14,11,6,6,0.7,0.7
2026-04-14T1900,2475A,113.0381,25.8074,郴州市,市审计局,,24,24,27,8,23,54,54,51,50,8,8,2,2,/,/
2026-04-14T1900,2476A,113.0348,25.7757,郴州市,市环保局,,26,26,32,10,23,44,44,43,40,16,14,6,7,0.6,0.6
2026-04-14T1900,4252A,113.0138,25.8011,郴州市,好美居路49号,,20,16,26,14,20,45,45,50,47,13,10,8,8,/,/
2026-04-14T1900,1431A,103.9727,30.7242,成都市,金泉两河,,35,22,31,17,20,111,111,111,111,17,20,3,2,0.3,0.3
2026-04-14T1900,1432A,104.1423,30.6765,成都市,十里店,颗粒物(PM10),52,52,33,19,21,109,109,107,107,9,17,3,4,0.5,0.6
2026-04-14T1900,1433A,104.0594,30.5765,成都市,三瓦窑,,35,34,31,12,22,110,110,105,105,4,19,2,3,0.5,0.6
2026-04-14T1900,1434A,104.1122,30.6306,成都市,沙河铺,NA,NA,38,35,14,20,NA,NA,86,86,15,22,2,2,0.4,0.5
2026-04-14T1900,2880A,104.0219,30.6561,成都市,大石西路,颗粒物(PM10),53,54,35,17,22,113,113,101,101,14,22,4,4,0.5,0.6
2026-04-14T1900,3136A,104.2724,30.559,成都市,龙泉驿区区政府,,35,17,24,14,17,109,109,98,98,5,11,6,6,0.3,0.4
2026-04-14T1900,3357A,104.0028,30.6891,成都市,金博路,,38,38,24,17,20,118,118,109,109,15,24,5,6,0.5,0.6
2026-04-14T1900,3359A,104.056,30.5228,成都市,华阳,NA,NA,29,31,13,21,108,108,109,109,NA,19,4,4,0.4,0.5
2026-04-14T1900,3488A,104.387954,30.746684,成都市,青石路225号,,43,43,36,15,19,117,117,108,108,12,19,5,6,0.4,0.6
2026-04-14T1900,3489A,104.0788,30.4054,成都市,科学城,,36,22,28,14,19,115,115,103,103,4,12,7,8,0.3,0.4
2026-04-14T1900,4011A,103.8505,30.6946,成都市,光华大道三段,,46,46,35,18,20,112,112,113,113,16,23,3,3,0.3,0.4
2026-04-14T1900,4144A,104.3257,30.6406,成都市,八角井街185号,,41,41,34,12,16,110,110,99,99,8,13,3,4,0.3,0.4
2026-04-14T1900,4224A,104.2433276,30.53529463,成都市,鲸龙路1057号,,35,24,29,13,15,110,110,99,99,6,11,5,6,0.5,0.6
2026-04-14T1900,1062A,117.9531,40.908,承德市,铁路,细颗粒物(PM2.5),78,78,66,49,29,61,61,73,68,33,25,11,8,1.1,0.7
2026-04-14T1900,1063A,117.9397,40.9763,承德市,中国银行,颗粒物(PM10),83,96,70,47,28,66,66,77,75,31,20,15,6,1.3,0.7
2026-04-14T1900,4073A,117.9462,40.95,承德市,杏林街1号,细颗粒物(PM2.5),78,85,68,49,32,70,70,81,79,26,19,16,7,1.4,0.8
2026-04-14T1900,4274A,117.7994,40.9605,承德市,滨河大街98号,细颗粒物(PM2.5),92,74,85,56,33,68,68,75,73,21,24,17,16,1.2,0.9
2026-04-14T1900,2314A,117.4698,30.6617,池州市,池州学院,,25,16,23,13,16,78,78,95,95,30,23,4,3,0.7,0.9
2026-04-14T1900,3237A,117.4918,30.6617,池州市,展览馆,,29,18,25,11,17,90,90,101,101,19,20,2,2,0.4,0.7
2026-04-14T1900,3333A,117.5626,30.695,池州市,第八中学,,26,14,23,9,16,81,81,89,89,27,24,3,4,0.5,0.8
2026-04-14T1900,3334A,117.5037,30.6242,池州市,第十二中学,NA,NA,12,22,6,16,79,79,93,93,NA,22,2,3,0.8,1
2026-04-14T1900,1744A,118.9229,42.2816,赤峰市,松山一中,细颗粒物(PM2.5),62,43,29,41,18,47,47,70,67,36,20,17,10,0.9,0.5
2026-04-14T1900,1745A,118.9588,42.2733,赤峰市,哈达街,细颗粒物(PM2.5),68,51,32,44,21,50,50,72,72,44,21,22,20,0.9,0.7
2026-04-14T1900,1746A,118.8792,42.2551,赤峰市,天义路,,49,NA,23,34,17,60,60,73,73,22,14,5,6,0.5,0.4
2026-04-14T1900,3058A,119.2656,42.0356,赤峰市,银河街,细颗粒物(PM2.5),68,52,49,44,28,85,85,73,73,18,16,10,15,0.6,0.4
2026-04-14T1900,3286A,118.9359,42.3146,赤峰市,桥北物流园区,细颗粒物(PM2.5),58,50,32,39,21,59,59,71,66,31,18,21,8,0.9,0.5
2026-04-14T1900,2521A,107.3473,22.4137,崇左市,市环保局江州分局,细颗粒物(PM2.5),140,148,99,103,75,138,138,129,129,15,13,2,3,1.2,1
2026-04-14T1900,4256A,107.375,22.3736,崇左市,石景林东路7号,细颗粒物(PM2.5),138,131,86,101,71,149,149,140,140,12,12,3,4,1.3,1
2026-04-14T1900,3207A,118.31131,32.3033,滁州市,市政府原办公楼,,38,32,31,26,30,75,75,106,105,11,10,4,5,0.4,0.4
2026-04-14T1900,3331A,118.3268,32.2633,滁州市,图书馆,,32,32,40,17,23,67,67,102,101,11,13,9,9,0.3,0.3
2026-04-14T1900,4101A,118.3196,32.3335,滁州市,银山路666号,,37,37,38,21,24,85,85,110,109,7,9,6,6,0.5,0.5
2026-04-14T1900,4102A,118.3426,32.2979,滁州市,黄山路555号,颗粒物(PM10),51,51,50,20,27,70,70,112,110,10,9,5,6,0.6,0.6
2026-04-14T1900,2606A,101.5379,25.0492,楚雄彝族自治州,市经济开发区,细颗粒物(PM2.5),82,86,69,51,40,134,134,137,137,9,10,4,4,0.6,0.5
2026-04-14T1900,4153A,101.5536,25.0343,楚雄彝族自治州,团结路562号,细颗粒物(PM2.5),72,69,60,46,37,143,143,143,143,6,9,2,2,0.4,0.4
2026-04-14T1900,2549A,107.5087,31.2186,达州市,市环境监测站,,30,30,19,8,6,42,42,47,47,22,21,5,6,0.3,0.3
2026-04-14T1900,2550A,107.4988,31.2132,达州市,凤凰小区,,27,27,18,12,7,45,45,52,52,22,21,4,5,0.3,0.3
2026-04-14T1900,2551A,107.5081,31.1987,达州市,达县机关宾馆,,29,29,20,6,9,38,38,49,49,27,25,4,5,0.4,0.4
2026-04-14T1900,2552A,107.4644,31.2124,达州市,市政中心,,30,30,25,7,6,46,46,54,54,27,24,5,5,0.4,0.4
2026-04-14T1900,2614A,100.2168,25.5818,大理白族自治州,大理市环境监测站,细颗粒物(PM2.5),78,73,60,49,40,116,116,120,120,10,11,4,4,0.3,0.3
2026-04-14T1900,2615A,100.1542,25.7055,大理白族自治州,大理古城,颗粒物(PM10),62,66,54,36,35,120,120,121,121,5,7,2,3,0.3,0.3
2026-04-14T1900,1109A,121.6119,38.974,大连市,甘井子,颗粒物(PM10),68,74,93,35,42,149,149,161,161,28,35,10,10,0.5,0.5
2026-04-14T1900,1110A,121.565,38.9509,大连市,周水子,细颗粒物(PM2.5),100,104,90,60,49,118,118,141,141,49,49,8,8,0.8,0.7
2026-04-14T1900,1111A,121.5637,38.8849,大连市,星海三站,,48,48,62,29,32,95,95,129,124,41,31,3,4,0.6,0.5
2026-04-14T1900,1112A,121.6301,38.9117,大连市,青泥洼桥,细颗粒物(PM2.5),80,83,85,50,45,129,129,142,142,42,37,8,6,0.8,0.7
2026-04-14T1900,1113A,121.6248,38.8643,大连市,傅家庄,,39,39,66,21,34,124,124,140,140,14,18,6,7,0.5,0.5
2026-04-14T1900,1114A,121.5117,38.8636,大连市,七贤岭,颗粒物(PM10),65,70,59,35,32,112,112,126,126,34,24,8,7,0.7,0.6
2026-04-14T1900,1116A,121.7507,39.1339,大连市,金州,颗粒物(PM10),103,127,115,61,56,145,145,153,153,40,49,14,7,0.7,0.8
2026-04-14T1900,1117A,121.7811,39.0495,大连市,开发区,颗粒物(PM10),84,97,100,45,50,111,111,136,136,53,58,14,13,0.7,0.7
2026-04-14T1900,1118A,121.9762,39.0631,大连市,双D港,细颗粒物(PM2.5),68,70,95,44,53,149,149,139,139,24,29,8,9,0.5,0.6
2026-04-14T1900,4082A,121.2548,38.8188,大连市,旅顺,细颗粒物(PM2.5),115,121,69,76,42,130,130,137,137,28,21,13,9,0.8,0.6
2026-04-14T1900,1789A,124.8085,46.0381,大庆市,大同区,颗粒物(PM10),53,54,49,31,31,95,95,112,110,26,21,5,4,0.5,0.5
2026-04-14T1900,1790A,125.1166,46.5255,大庆市,龙凤区,颗粒物(PM10),55,56,59,32,33,85,85,105,104,30,25,6,16,0.3,0.3
2026-04-14T1900,1791A,124.8894,46.4007,大庆市,红岗区,,38,35,40,26,25,89,89,103,102,13,14,12,13,0.2,0.3
2026-04-14T1900,1792A,125.1391,46.578,大庆市,萨尔图区,,44,44,53,19,26,102,102,111,111,19,21,7,9,0.5,0.5
2026-04-14T1900,1793A,124.9026,46.6217,大庆市,让胡路区,,50,50,50,26,26,91,91,101,101,25,32,4,5,0.4,0.5
2026-04-14T1900,3481A,125.127,46.6277,大庆市,萨区政府监测点,,43,43,47,19,24,104,104,104,104,12,16,8,10,0.3,0.4
2026-04-14T1900,1723A,113.2926,40.0759,大同市,云冈宾馆,颗粒物(PM10),68,75,55,24,23,115,115,114,114,12,22,4,8,0.3,0.5
2026-04-14T1900,1724A,113.3437,40.0921,大同市,大同大学,颗粒物(PM10),73,81,66,25,22,120,120,117,117,12,28,3,4,0.3,0.6
2026-04-14T1900,1725A,113.2637,40.129,大同市,安家小村,颗粒物(PM10),75,85,63,20,21,108,108,111,111,18,22,11,13,0.2,0.7
2026-04-14T1900,3282A,113.3399,40.0586,大同市,大同市卫生学校,颗粒物(PM10),80,91,66,14,22,128,128,128,128,11,20,4,7,0.3,0.6
2026-04-14T1900,3565A,113.1371,40.1122,大同市,云冈站,颗粒物(PM10),72,80,59,23,21,118,118,116,116,6,20,6,6,0.4,0.6
2026-04-14T1900,3566A,113.1186,40.2556,大同市,图书馆,颗粒物(PM10),85,98,55,25,21,107,107,111,111,16,16,4,7,0.3,0.5
2026-04-14T1900,3567A,113.5931,40.0459,大同市,区一中,NA,NA,NA,53,NA,22,NA,NA,139,NA,NA,13,NA,10,NA,0.5
2026-04-14T1900,4199A,113.2798248,40.09972476,大同市,魏都大道141号,NA,NA,39,64,24,24,NA,NA,114,114,NA,21,NA,10,NA,0.9
2026-04-14T1900,2269A,124.1068,50.4091,大兴安岭地区,科技局,,32,32,21,19,10,77,77,76,76,5,4,8,8,0.2,0.2
2026-04-14T1900,3663A,124.117,50.4279,大兴安岭地区,红旗社区,,29,29,17,12,9,90,90,89,89,11,10,19,9,0.2,0.2
2026-04-14T1900,1600A,124.33,40.0625,丹东市,江湾东路,颗粒物(PM10),83,95,98,43,38,123,123,136,136,22,26,6,10,0.5,0.7
2026-04-14T1900,1601A,124.4242,40.1513,丹东市,临江后街,颗粒物(PM10),92,108,113,41,44,108,108,128,128,19,26,12,12,0.9,0.9
2026-04-14T1900,1602A,124.3935,40.1461,丹东市,元宝山,颗粒物(PM10),73,82,97,36,36,123,123,127,127,24,28,10,10,0.5,0.7
2026-04-14T1900,1603A,124.3634,40.1093,丹东市,民主桥,颗粒物(PM10),82,94,90,39,36,124,124,131,131,25,33,15,10,0.4,0.5
2026-04-14T1900,3541A,109.5726195,19.51688767,儋州市,第一中学子站,,50,50,57,31,39,106,106,121,121,7,8,8,10,0.4,0.5
2026-04-14T1900,3542A,109.5567,19.5187,儋州市,东坡学校子站,颗粒物(PM10),51,51,56,32,38,105,105,118,118,8,7,8,8,0.7,0.7
2026-04-14T1900,2616A,98.5611,24.4273,德宏傣族景颇族自治州,德宏州监测站,NA,NA,NA,73,NA,56,145,145,132,132,14,21,11,7,0.3,0.4
2026-04-14T1900,3677A,98.5887,24.4366,德宏傣族景颇族自治州,芒市人民政府综合楼,颗粒物(PM10),109,143,111,60,50,130,130,120,120,13,16,14,9,0.4,0.5
2026-04-14T1900,1901A,104.424,31.1209,德阳市,东山公园,,31,29,26,13,18,97,97,106,106,6,15,3,4,0.4,0.5
2026-04-14T1900,1902A,104.3827,31.1318,德阳市,西小区,,46,46,40,13,18,99,99,100,100,9,22,3,4,0.4,0.5
2026-04-14T1900,1904A,104.3553,31.1091,德阳市,耐火材料厂,颗粒物(PM10),55,57,38,14,20,109,109,119,119,14,22,2,2,0.3,0.4
2026-04-14T1900,4145A,104.4144,31.1495,德阳市,市林业局,,33,33,31,12,18,104,104,116,116,7,18,4,5,0.5,0.6
2026-04-14T1900,1622A,116.3034,37.4675,德州市,儿童乐园,颗粒物(PM10),74,83,116,39,53,152,152,154,154,12,25,8,14,0.7,0.8
2026-04-14T1900,1624A,116.2992,37.4449,德州市,监理站,颗粒物(PM10),75,85,109,33,50,148,148,155,155,19,27,9,15,0.5,0.7
2026-04-14T1900,3066A,116.2722,37.438,德州市,九衢泉纯净水厂,颗粒物(PM10),74,83,110,41,53,119,119,137,137,30,22,5,11,0.7,0.8
2026-04-14T1900,3371A,116.3693,37.44,德州市,开发区人民医院,颗粒物(PM10),75,85,110,37,52,152,152,152,152,15,26,10,15,0.7,0.7
2026-04-14T1900,3511A,116.5687,37.3331,德州市,陵城艺术中心,细颗粒物(PM2.5),80,68,93,50,55,136,136,142,142,13,17,5,10,0.7,0.9
2026-04-14T1900,4292A,116.352738,37.420875,德州市,新河东路,颗粒物(PM10),74,83,103,37,54,132,132,142,142,15,20,10,14,0.7,0.9
2026-04-14T1900,2621A,99.7054,27.8319,迪庆藏族自治州,迪庆州站,,39,37,26,18,15,124,124,129,128,12,10,8,9,0.4,0.5
2026-04-14T1900,3180A,99.7122,27.8129,迪庆藏族自治州,质量技术监督局,,41,35,24,14,14,130,130,135,134,12,12,6,6,0.5,0.5
2026-04-14T1900,4257A,104.6092,35.5962,定西市,将台街,,48,48,55,29,18,121,121,118,118,6,16,5,7,0.1,0.1
2026-04-14T1900,4309A,104.6159,35.5701,定西市,正龙路62号,,42,42,56,20,20,123,123,116,116,7,11,4,5,0.3,0.3
