,O3H8_level,regioncode,O3,latitude,CO_level,SYWRW,PM10H24,NO2,O3H8,O3_level,PM10_color,PM25_color,SO2,sitename,O3H8_color,AQI,NO2_level,AQI_level,PM10H24_level,districtcode,SO2_color,longitude,NO2_color,PM25,PM10_level,CO,PM25_level,CO_color,PM25H24_color,sitecode,PM25H24_level,AQI_color,districtname,O3_color,SO2_level,PM10,PM25H24,PM10H24_color,sort,time
0,优,331181,78,28.08007,优,--,21,6,62,优,#00E400,#00E400,8,龙泉环保大楼,#00E400,25,优,优,优,331100,#00E400,119.1328,#00E400,7,优,0.4,优,#00E400,#00E400,331181001,优,#00E400,丽水市,#00E400,优,14,11,#00E400,1,2026-05-11 15:00:00
1,优,331126,82,27.629585,优,--,21,4,59,优,#00E400,#00E400,6,庆元监测楼,#00E400,26,优,优,优,331100,#00E400,119.054809,#00E400,7,优,0.5,优,#00E400,#00E400,331126001,优,#00E400,丽水市,#00E400,优,16,16,#00E400,2,2026-05-11 15:00:00
2,优,331181,81,28.076,优,--,18,6,65,优,#00E400,#00E400,5,粮食大楼,#00E400,26,优,优,优,331100,#00E400,119.1217,#00E400,9,优,0.5,优,#00E400,#00E400,331181002,优,#00E400,丽水市,#00E400,优,14,11,#00E400,2,2026-05-11 15:00:00
3,优,330127,84,29.5995,优,--,20,6,69,优,#00E400,#00E400,12,淳安环保大楼,#00E400,27,优,优,优,330100,#00E400,119.0481,#00E400,6,优,0.6,优,#00E400,#00E400,330127001,优,#00E400,杭州市,#00E400,优,13,9,#00E400,4,2026-05-11 15:00:00
4,优,331125,84,28.1173,优,--,14,2,69,优,#00E400,#00E400,3,云和监测楼,#00E400,27,优,优,优,331100,#00E400,119.5626,#00E400,5,优,0.4,优,#00E400,#00E400,331125001,优,#00E400,丽水市,#00E400,优,9,9,#00E400,4,2026-05-11 15:00:00
5,优,331126,85,27.6211,优,--,23,3,61,优,#00E400,#00E400,4,庆元气象局,#00E400,27,优,优,优,331100,#00E400,119.0788,#00E400,7,优,0.6,优,#00E400,#00E400,331126002,优,#00E400,丽水市,#00E400,优,9,17,#00E400,4,2026-05-11 15:00:00
6,优,330305,88,27.8342,优,--,26,10,83,优,#00E400,#00E400,7,洞头气象局,#00E400,28,优,优,优,330300,#00E400,121.1502,#00E400,5,优,0.4,优,#00E400,#00E400,330305001,优,#00E400,温州市,#00E400,优,7,13,#00E400,7,2026-05-11 15:00:00
7,优,330329,88,27.557,优,--,21,6,75,优,#00E400,#00E400,5,罗阳,#00E400,28,优,优,优,330300,#00E400,119.7084,#00E400,8,优,0.4,优,#00E400,#00E400,330329001,优,#00E400,温州市,#00E400,优,14,15,#00E400,7,2026-05-11 15:00:00
8,优,330329,87,27.5438,优,--,23,4,70,优,#00E400,#00E400,6,泰顺实验中学,#00E400,28,优,优,优,330300,#00E400,119.716111,#00E400,7,优,0.3,优,#00E400,#00E400,330329002,优,#00E400,温州市,#00E400,优,10,15,#00E400,7,2026-05-11 15:00:00
9,优,331123,87,28.5839,优,--,19,3,69,优,#00E400,#00E400,7,遂昌中学,#00E400,28,优,优,优,331100,#00E400,119.2656,#00E400,8,优,0.4,优,#00E400,#00E400,331123002,优,#00E400,丽水市,#00E400,优,11,13,#00E400,7,2026-05-11 15:00:00
10,优,331125,88,28.1062,优,--,32,11,72,优,#00E400,#00E400,6,云和三中,#00E400,28,优,优,优,331100,#00E400,119.5728,#00E400,11,优,0.4,优,#00E400,#00E400,331125002,优,#00E400,丽水市,#00E400,优,25,16,#00E400,7,2026-05-11 15:00:00
11,优,330328,90,27.7838,优,--,33,6,80,优,#00E400,#00E400,8,大峃,#00E400,29,优,优,优,330300,#00E400,120.085,#00E400,11,优,0.3,优,#00E400,#00E400,330328001,优,#00E400,温州市,#00E400,优,19,18,#00E400,12,2026-05-11 15:00:00
12,优,330922,90,30.7269,优,--,15,7,79,优,#00E400,#00E400,8,嵊泗菜园,#00E400,29,优,优,优,330900,#00E400,122.4464,#00E400,2,优,0.4,优,#00E400,#00E400,330922001,优,#00E400,舟山市,#00E400,优,4,6,#00E400,12,2026-05-11 15:00:00
13,优,330921,92,30.2517,优,--,21,12,86,优,#00E400,#00E400,8,岱山高亭,#00E400,29,优,优,优,330900,#00E400,122.1958,#00E400,2,优,0.4,优,#00E400,#00E400,330921002,优,#00E400,舟山市,#00E400,优,8,8,#00E400,12,2026-05-11 15:00:00
14,优,331024,90,28.8589,优,--,36,8,87,优,#00E400,#00E400,8,仙居环监站,#00E400,29,优,优,优,331000,#00E400,120.7248,#00E400,11,优,0.5,优,#00E400,#00E400,331024001,优,#00E400,台州市,#00E400,优,19,20,#00E400,12,2026-05-11 15:00:00
15,优,331127,94,28.002222,优,--,20,5,70,优,#00E400,#00E400,6,红星小学,#00E400,30,优,优,优,331100,#00E400,119.636389,#00E400,8,优,0.5,优,#00E400,#00E400,331127003,优,#00E400,丽水市,#00E400,优,14,12,#00E400,16,2026-05-11 15:00:00
16,优,330824,93,29.1343,优,--,21,3,65,优,#00E400,#00E400,6,开化气象局,#00E400,30,优,优,优,330800,#00E400,118.402,#00E400,6,优,0.3,优,#00E400,#00E400,330824001,优,#00E400,衢州市,#00E400,优,11,8,#00E400,16,2026-05-11 15:00:00
17,优,331024,94,28.7403,优,--,28,7,86,优,#00E400,#00E400,6,新生中学,#00E400,30,优,优,优,331000,#00E400,120.4728,#00E400,10,优,0.5,优,#00E400,#00E400,331024002,优,#00E400,台州市,#00E400,优,15,16,#00E400,16,2026-05-11 15:00:00
18,优,331081,94,28.37558,优,--,25,9,88,优,#00E400,#00E400,5,温岭环监站,#00E400,30,优,优,优,331000,#00E400,121.36579,#00E400,2,优,0.3,优,#00E400,#00E400,331081001,优,#00E400,台州市,#00E400,优,10,19,#00E400,16,2026-05-11 15:00:00
19,优,331123,96,28.5991,优,--,19,3,77,优,#00E400,#00E400,4,遂昌民政局,#00E400,30,优,优,优,331100,#00E400,119.2622,#00E400,6,优,0.4,优,#00E400,#00E400,331123001,优,#00E400,丽水市,#00E400,优,11,12,#00E400,16,2026-05-11 15:00:00
20,优,331127,95,27.9772,优,--,14,4,72,优,#00E400,#00E400,4,景宁县政府,#00E400,30,优,优,优,331100,#00E400,119.6311,#00E400,9,优,0.5,优,#00E400,#00E400,331127002,优,#00E400,丽水市,#00E400,优,14,12,#00E400,16,2026-05-11 15:00:00
21,优,330127,98,29.605,优,--,14,4,76,优,#00E400,#00E400,12,老年活动中心,#00E400,31,优,优,优,330100,#00E400,119.0372,#00E400,2,优,0.7,优,#00E400,#00E400,330127T_4,优,#00E400,杭州市,#00E400,优,9,9,#00E400,22,2026-05-11 15:00:00
22,优,330781,99,29.229931,优,--,37,6,70,优,#00E400,#00E400,9,兰溪八中,#00E400,31,优,优,优,330700,#00E400,119.475172,#00E400,7,优,0.5,优,#00E400,#00E400,330781002,优,#00E400,金华市,#00E400,优,14,29,#00E400,22,2026-05-11 15:00:00
23,优,330881,98,28.7282,优,--,29,5,82,优,#00E400,#00E400,7,人民医院,#00E400,31,优,优,优,330800,#00E400,118.6227,#00E400,15,优,0.4,优,#00E400,#00E400,330881002,优,#00E400,衢州市,#00E400,优,26,18,#00E400,22,2026-05-11 15:00:00
24,优,330824,98,29.1478,优,--,15,6,66,优,#00E400,#00E400,7,开化监测大楼,#00E400,31,优,优,优,330800,#00E400,118.4108,#00E400,6,优,0.4,优,#00E400,#00E400,330824002,优,#00E400,衢州市,#00E400,优,10,9,#00E400,22,2026-05-11 15:00:00
25,优,331083,97,28.12715,优,--,22,8,92,优,#00E400,#00E400,9,玉环环监站,#00E400,31,优,优,优,331000,#00E400,121.2339,#00E400,3,优,0.7,优,#00E400,#00E400,331021001,优,#00E400,台州市,#00E400,优,8,10,#00E400,22,2026-05-11 15:00:00
26,优,330382,102,28.1209,优,--,19,5,88,优,#00E400,#00E400,5,乐成,#00E400,32,优,优,优,330300,#00E400,120.9659,#00E400,2,优,0.4,优,#00E400,#00E400,330382001,优,#00E400,温州市,#00E400,优,11,11,#00E400,27,2026-05-11 15:00:00
27,良,331083,102,28.2221,优,--,30,10,101,优,#00E400,#00E400,5,楚门中心小学,#FFFF00,32,优,优,优,331000,#00E400,121.2846,#00E400,3,优,0.6,优,#00E400,#00E400,331021002,优,#00E400,台州市,#00E400,优,9,15,#00E400,27,2026-05-11 15:00:00
28,优,331121,100,28.1341,优,--,38,3,88,优,#00E400,#00E400,5,塔山小学,#00E400,32,优,优,优,331100,#00E400,120.2936,#00E400,7,优,0.5,优,#00E400,#00E400,331121001,优,#00E400,丽水市,#00E400,优,11,20,#00E400,27,2026-05-11 15:00:00
29,良,330225,105,29.4767,优,--,21,4,107,优,#00E400,#00E400,8,文峰小学,#FFFF00,33,优,优,优,330200,#00E400,121.8864,#00E400,3,优,0.4,优,#00E400,#00E400,330225001,优,#00E400,宁波市,#00E400,优,6,10,#00E400,30,2026-05-11 15:00:00
30,优,330382,103,28.0297,优,--,21,10,96,优,#00E400,#00E400,4,柳市,#00E400,33,优,优,优,330300,#00E400,120.891,#00E400,3,优,0.3,优,#00E400,#00E400,330382002,优,#00E400,温州市,#00E400,优,6,11,#00E400,30,2026-05-11 15:00:00
31,优,330881,103,28.7465,优,--,26,3,79,优,#00E400,#00E400,4,江山环保大楼,#00E400,33,优,优,优,330800,#00E400,118.6301,#00E400,14,优,0.5,优,#00E400,#00E400,330881001,优,#00E400,衢州市,#00E400,优,26,15,#00E400,30,2026-05-11 15:00:00
32,优,330383,103,27.5617,优,--,35,6,94,优,#00E400,#00E400,5,龙港实验中学,#00E400,33,优,优,优,330300,#00E400,120.5355,#00E400,7,优,0.5,优,#00E400,#00E400,330303101,优,#00E400,温州市,#00E400,优,13,19,#00E400,30,2026-05-11 15:00:00
33,良,330225,106,29.2003,优,--,18,10,111,优,#00E400,#00E400,6,石浦新港小学,#FFFF00,34,优,优,优,330200,#00E400,121.934,#00E400,1,优,0.4,优,#00E400,#00E400,330225002,优,#00E400,宁波市,#00E400,优,3,9,#00E400,34,2026-05-11 15:00:00
34,优,331023,107,29.1504,优,--,37,8,93,优,#00E400,#00E400,5,育青中学,#00E400,34,优,优,优,331000,#00E400,121.0091,#00E400,13,优,0.4,优,#00E400,#00E400,331023001,优,#00E400,台州市,#00E400,优,20,17,#00E400,34,2026-05-11 15:00:00
35,优,331023,108,29.1342,优,--,35,11,92,优,#00E400,#00E400,5,天台实验中学,#00E400,34,优,优,优,331000,#00E400,121.0349,#00E400,8,优,0.5,优,#00E400,#00E400,331023002,优,#00E400,台州市,#00E400,优,25,14,#00E400,34,2026-05-11 15:00:00
36,优,331081,107,28.39136,优,--,25,3,100,优,#00E400,#00E400,3,之江高级中学,#00E400,34,优,优,优,331000,#00E400,121.37696,#00E400,5,优,0.3,优,#00E400,#00E400,331081002,优,#00E400,台州市,#00E400,优,8,13,#00E400,34,2026-05-11 15:00:00
37,优,331121,108,28.1094,优,--,35,5,92,优,#00E400,#00E400,4,青田中学,#00E400,34,优,优,优,331100,#00E400,120.3161,#00E400,5,优,0.4,优,#00E400,#00E400,331121002,优,#00E400,丽水市,#00E400,优,8,17,#00E400,34,2026-05-11 15:00:00
38,优,330781,110,29.216166,优,--,35,7,79,优,#00E400,#00E400,8,兰溪监测站,#00E400,35,优,优,优,330700,#00E400,119.459992,#00E400,6,优,0.5,优,#00E400,#00E400,330781001,优,#00E400,金华市,#00E400,优,14,20,#00E400,39,2026-05-11 15:00:00
39,优,330822,109,28.901,优,--,24,8,87,优,#00E400,#00E400,8,常山环保大楼,#00E400,35,优,优,优,330800,#00E400,118.5196,#00E400,14,优,0.5,优,#00E400,#00E400,330822001,优,#00E400,衢州市,#00E400,优,25,12,#00E400,39,2026-05-11 15:00:00
40,优,331124,110,28.4516,优,--,25,9,88,优,#00E400,#00E400,6,和平水厂,#00E400,35,优,优,优,331100,#00E400,119.4699,#00E400,9,优,0.4,优,#00E400,#00E400,331124002,优,#00E400,丽水市,#00E400,优,18,12,#00E400,39,2026-05-11 15:00:00
41,优,330381,114,27.791645,优,--,40,9,100,优,#00E400,#00E400,7,花园桥,#00E400,36,优,优,优,330300,#00E400,120.62372,#00E400,8,优,0.2,优,#00E400,#00E400,330381001,优,#00E400,温州市,#00E400,优,15,22,#00E400,42,2026-05-11 15:00:00
42,良,330381,113,27.782284,优,--,33,7,102,优,#00E400,#00E400,10,安阳新区,#FFFF00,36,优,优,优,330300,#00E400,120.650915,#00E400,7,优,0.4,优,#00E400,#00E400,330381002,优,#00E400,温州市,#00E400,优,11,19,#00E400,42,2026-05-11 15:00:00
43,优,330324,113,28.044335,优,--,36,18,96,优,#00E400,#00E400,7,瓯北,#00E400,36,优,优,优,330300,#00E400,120.654963,#00E400,14,优,0.5,优,#00E400,#00E400,330324002,优,#00E400,温州市,#00E400,优,36,18,#00E400,42,2026-05-11 15:00:00
44,优,330783,115,29.27739,优,--,52,8,98,优,#00E400,#00E400,7,东阳环保大楼,#00E400,36,优,优,良,330700,#00E400,120.23692,#00E400,16,优,0.7,优,#00E400,#00E400,330783002,优,#00E400,金华市,#00E400,优,21,30,#FFFF00,42,2026-05-11 15:00:00
45,优,330822,113,28.9012,优,--,24,3,88,优,#00E400,#00E400,8,图书馆大楼,#00E400,36,优,优,优,330800,#00E400,118.5062,#00E400,17,优,0.3,优,#00E400,#00E400,330822002,优,#00E400,衢州市,#00E400,优,28,11,#00E400,42,2026-05-11 15:00:00
46,优,331122,114,28.6628,优,--,31,26,96,优,#00E400,#00E400,7,信访大楼,#00E400,36,优,优,优,331100,#00E400,120.0856,#00E400,15,优,0.6,优,#00E400,#00E400,331122002,优,#00E400,丽水市,#00E400,优,35,15,#00E400,42,2026-05-11 15:00:00
47,优,330726,117,29.439787,优,--,27,5,94,优,#00E400,#00E400,4,浦江中学,#00E400,37,优,优,优,330700,#00E400,119.924638,#00E400,17,优,0.4,优,#00E400,#00E400,330726002,优,#00E400,金华市,#00E400,优,22,23,#00E400,48,2026-05-11 15:00:00
48,优,331122,118,28.6574,优,--,22,21,97,优,#00E400,#00E400,8,缙云中学,#00E400,37,优,优,优,331100,#00E400,120.0696,#00E400,18,优,0.6,优,#00E400,#00E400,331122001,优,#00E400,丽水市,#00E400,优,31,15,#00E400,48,2026-05-11 15:00:00
49,优,330803,121,28.9844,优,--,29,7,84,优,#00E400,#00E400,9,衢州三中（市）,#00E400,38,优,优,优,330800,#00E400,118.9628,#00E400,15,优,0.5,优,#00E400,#00E400,330803704,优,#00E400,衢州市,#00E400,优,23,19,#00E400,50,2026-05-11 15:00:00
50,优,330182,120,29.4769,优,--,--,5,83,优,#00E400,#00E400,7,建德监测大楼,#00E400,38,优,优,--,330100,#00E400,119.2711,#00E400,9,优,0.6,优,#00E400,#00E400,330182T_2,优,#00E400,杭州市,#00E400,优,15,12,--,50,2026-05-11 15:00:00
51,优,330326,121,27.6593,优,--,27,7,94,优,#00E400,#00E400,11,平阳监测站,#00E400,38,优,优,优,330300,#00E400,120.5705,#00E400,15,优,0.7,优,#00E400,#00E400,330326001,优,#00E400,温州市,#00E400,优,29,16,#00E400,50,2026-05-11 15:00:00
52,优,330825,120,29.0464,优,--,34,5,93,优,#00E400,#00E400,6,龙游二高,#00E400,38,优,优,优,330800,#00E400,119.204,#00E400,10,优,0.3,优,#00E400,#00E400,330825002,优,#00E400,衢州市,#00E400,优,15,19,#00E400,50,2026-05-11 15:00:00
53,优,330383,123,27.5812,优,--,41,15,98,优,#00E400,#00E400,8,龙港,#00E400,39,优,优,优,330300,#00E400,120.5489,#00E400,21,优,0.4,优,#00E400,#00E400,330327002,优,#00E400,温州市,#00E400,优,30,25,#00E400,54,2026-05-11 15:00:00
54,优,330624,122,29.4938,优,--,27,7,100,优,#00E400,#00E400,5,城东站,#00E400,39,优,优,优,330600,#00E400,120.9109,#00E400,10,优,0.6,优,#00E400,#00E400,330624002,优,#00E400,绍兴市,#00E400,优,19,16,#00E400,54,2026-05-11 15:00:00
55,良,331022,124,29.11779,优,--,28,7,104,优,#00E400,#00E400,6,三门环监楼,#FFFF00,39,优,优,优,331000,#00E400,121.382189,#00E400,14,优,0.5,优,#00E400,#00E400,331022001,优,#00E400,台州市,#00E400,优,21,17,#00E400,54,2026-05-11 15:00:00
56,良,330122,127,29.7955,优,--,25,6,102,优,#00E400,#00E400,6,桐庐江南,#FFFF00,40,优,优,优,330100,#00E400,119.6874,#00E400,13,优,0.4,优,#00E400,#00E400,330122001,优,#00E400,杭州市,#00E400,优,19,16,#00E400,57,2026-05-11 15:00:00
57,优,330182,127,29.4638,优,--,23,4,96,优,#00E400,#00E400,5,第二中学,#00E400,40,优,优,优,330100,#00E400,119.2821,#00E400,8,优,0.6,优,#00E400,#00E400,330182002,优,#00E400,杭州市,#00E400,优,15,14,#00E400,57,2026-05-11 15:00:00
58,良,330326,128,27.6653,优,--,28,9,105,优,#00E400,#00E400,8,平阳县政府,#FFFF00,40,优,优,优,330300,#00E400,120.5611,#00E400,17,优,0.6,优,#00E400,#00E400,330326002,优,#00E400,温州市,#00E400,优,34,15,#00E400,57,2026-05-11 15:00:00
59,良,330683,127,29.5901,优,--,27,5,103,优,#00E400,#00E400,5,马寅初初中,#FFFF00,40,优,优,优,330600,#00E400,120.8249,#00E400,11,优,0.5,优,#00E400,#00E400,330683001,优,#00E400,绍兴市,#00E400,优,13,16,#00E400,57,2026-05-11 15:00:00
60,优,330727,126,29.051486,优,--,28,9,94,优,#00E400,#00E400,8,国税大楼,#00E400,40,优,优,优,330700,#00E400,120.438346,#00E400,20,优,0.6,优,#00E400,#00E400,330727002,优,#00E400,金华市,#00E400,优,33,19,#00E400,57,2026-05-11 15:00:00
61,优,330727,127,29.039869,优,--,24,7,98,优,#00E400,#00E400,6,南园初中,#00E400,40,优,优,优,330700,#00E400,120.440622,#00E400,24,优,0.5,优,#00E400,#00E400,330727003,优,#00E400,金华市,#00E400,优,27,16,#00E400,57,2026-05-11 15:00:00
62,优,331082,127,28.873,优,--,31,11,99,优,#00E400,#00E400,6,临海环保大楼,#00E400,40,优,优,优,331000,#00E400,121.1769,#00E400,11,优,0.4,优,#00E400,#00E400,331082001,优,#00E400,台州市,#00E400,优,17,16,#00E400,57,2026-05-11 15:00:00
63,良,330683,131,29.5663,优,--,29,11,106,优,#00E400,#00E400,6,丽湖小区,#FFFF00,41,优,优,优,330600,#00E400,120.8173,#00E400,13,优,0.6,优,#00E400,#00E400,330683002,优,#00E400,绍兴市,#00E400,优,31,17,#00E400,64,2026-05-11 15:00:00
64,优,330825,131,29.0392,优,--,30,7,100,优,#00E400,#00E400,7,建设大楼,#00E400,41,优,优,优,330800,#00E400,119.1675,#00E400,14,优,0.4,优,#00E400,#00E400,330825001,优,#00E400,衢州市,#00E400,优,22,22,#00E400,64,2026-05-11 15:00:00
65,良,330226,134,29.3125,优,--,26,10,112,优,#00E400,#00E400,6,宁海水利局,#FFFF00,42,优,优,优,330200,#00E400,121.4306,#00E400,11,优,0.4,优,#00E400,#00E400,330226001,优,#00E400,宁波市,#00E400,优,19,13,#00E400,66,2026-05-11 15:00:00
66,良,330783,134,29.30093,优,--,40,7,114,优,#00E400,#00E400,6,广厦学院,#FFFF00,42,优,优,优,330700,#00E400,120.24157,#00E400,18,优,0.7,优,#00E400,#00E400,330783001,优,#00E400,金华市,#00E400,优,28,17,#00E400,66,2026-05-11 15:00:00
67,优,331082,132,28.84326,优,--,38,10,94,优,#00E400,#00E400,5,巾山实验小学,#00E400,42,优,优,优,331000,#00E400,121.136,#00E400,13,优,0.5,优,#00E400,#00E400,331082002,优,#00E400,台州市,#00E400,优,25,19,#00E400,66,2026-05-11 15:00:00
68,良,331022,134,29.1028,优,--,27,10,105,优,#00E400,#00E400,6,心湖站,#FFFF00,42,优,优,优,331000,#00E400,121.3918,#00E400,13,优,0.4,优,#00E400,#00E400,331022002,优,#00E400,台州市,#00E400,优,24,16,#00E400,66,2026-05-11 15:00:00
69,良,330226,135,29.2878,优,--,26,8,111,优,#00E400,#00E400,6,宁海城南站,#FFFF00,43,优,优,优,330200,#00E400,121.4201,#00E400,12,优,0.4,优,#00E400,#00E400,330226002,优,#00E400,宁波市,#00E400,优,22,14,#00E400,70,2026-05-11 15:00:00
70,优,330726,112,29.465746,优,--,31,6,90,优,#00E400,#00E400,6,浦江实验中学,#00E400,43,优,优,优,330700,#00E400,119.875227,#00E400,21,优,0.5,优,#00E400,#00E400,330726001,优,#00E400,金华市,#00E400,优,43,19,#00E400,70,2026-05-11 15:00:00
71,良,330782,136,29.305096,优,--,44,12,105,优,#00E400,#00E400,7,江东,#FFFF00,43,优,优,优,330700,#00E400,120.090442,#00E400,13,优,0.7,优,#00E400,#00E400,330782002,优,#00E400,金华市,#00E400,优,27,20,#00E400,70,2026-05-11 15:00:00
72,良,330782,136,29.2637,优,--,46,10,105,优,#00E400,#00E400,5,儿童公园,#FFFF00,43,优,优,优,330700,#00E400,120.0321,#00E400,20,优,0.5,优,#00E400,#00E400,330782004,优,#00E400,金华市,#00E400,优,30,28,#00E400,70,2026-05-11 15:00:00
73,良,330327,140,27.522222,优,--,36,13,106,优,#00E400,#00E400,11,苍南中学,#FFFF00,44,优,优,优,330300,#00E400,120.416111,#00E400,19,优,0.5,优,#00E400,#00E400,330327004,优,#00E400,温州市,#00E400,优,33,19,#00E400,74,2026-05-11 15:00:00
74,良,330481,140,30.5137,优,--,41,3,112,优,#00E400,#00E400,8,硖石街道,#FFFF00,44,优,优,优,330400,#00E400,120.7082,#00E400,12,优,0.5,优,#00E400,#00E400,330481002,优,#00E400,嘉兴市,#00E400,优,23,21,#00E400,74,2026-05-11 15:00:00
75,良,330624,138,29.5036,优,--,27,6,114,优,#00E400,#00E400,4,钟楼站,#FFFF00,44,优,优,优,330600,#00E400,120.8938,#00E400,13,优,0.5,优,#00E400,#00E400,330624001,优,#00E400,绍兴市,#00E400,优,19,16,#00E400,74,2026-05-11 15:00:00
76,良,330782,140,29.335473,优,--,45,14,106,优,#00E400,#00E400,6,北苑,#FFFF00,44,优,优,优,330700,#00E400,120.078609,#00E400,15,优,0.6,优,#00E400,#00E400,330782001,优,#00E400,金华市,#00E400,优,29,25,#00E400,74,2026-05-11 15:00:00
77,良,330110,141,30.2635,优,--,37,7,114,优,#00E400,#00E400,7,海辰小学,#FFFF00,45,优,优,优,330100,#00E400,119.9842,#00E400,7,优,0.4,优,#00E400,#00E400,2013301100001,优,#00E400,杭州市,#00E400,优,14,19,#00E400,78,2026-05-11 15:00:00
78,良,330213,145,29.6774,优,--,27,11,122,优,#00E400,#00E400,5,大桥市场,#FFFF00,46,优,优,优,330200,#00E400,121.4237,#00E400,17,优,0.4,优,#00E400,#00E400,330213001,优,#00E400,宁波市,#00E400,优,25,15,#00E400,79,2026-05-11 15:00:00
79,优,330324,121,28.158269,优,--,33,15,91,优,#00E400,#00E400,6,上塘,#00E400,46,优,优,优,330300,#00E400,120.694244,#00E400,24,优,0.4,优,#00E400,#00E400,330324001,优,#00E400,温州市,#00E400,优,46,17,#00E400,79,2026-05-11 15:00:00
80,良,330481,148,30.5261,优,--,42,4,118,优,#00E400,#00E400,6,海宁监测大楼,#FFFF00,47,优,优,优,330400,#00E400,120.6739,#00E400,15,优,0.3,优,#00E400,#00E400,330481001,优,#00E400,嘉兴市,#00E400,优,22,20,#00E400,81,2026-05-11 15:00:00
81,良,330523,149,30.5974,优,--,24,6,114,优,#00E400,#00E400,6,安吉城东,#FFFF00,47,优,优,优,330500,#00E400,119.6953,#00E400,14,优,0.4,优,#00E400,#00E400,330523002,优,#00E400,湖州市,#00E400,优,19,15,#00E400,81,2026-05-11 15:00:00
82,良,330784,150,28.90016,优,--,53,10,104,优,#00E400,#00E400,8,西城供电所,#FFFF00,47,优,优,良,330700,#00E400,120.01452,#00E400,22,优,0.4,优,#00E400,#00E400,330784002,优,#00E400,金华市,#00E400,优,44,24,#FFFF00,81,2026-05-11 15:00:00
83,良,330782,149,29.3686,优,--,43,10,120,优,#00E400,#00E400,7,第五中学,#FFFF00,47,优,优,优,330700,#00E400,120.1345,#00E400,14,优,0.6,优,#00E400,#00E400,330782003,优,#00E400,金华市,#00E400,优,24,22,#00E400,81,2026-05-11 15:00:00
84,良,330213,152,29.6506,优,--,34,9,126,优,#00E400,#00E400,8,奉化教育局,#FFFF00,48,优,优,优,330200,#00E400,121.4042,#00E400,14,优,0.3,优,#00E400,#00E400,330283005,优,#00E400,宁波市,#00E400,优,30,11,#00E400,85,2026-05-11 15:00:00
85,良,330483,153,30.625,优,--,45,9,116,优,#00E400,#00E400,7,振东新六中站,#FFFF00,48,优,优,优,330400,#00E400,120.5613,#00E400,23,优,0.5,优,#00E400,#00E400,330483002,优,#00E400,嘉兴市,#00E400,优,29,22,#00E400,85,2026-05-11 15:00:00
86,良,330723,153,28.896108,优,--,34,13,119,优,#00E400,#00E400,9,武义县政府,#FFFF00,48,优,优,优,330700,#00E400,119.811352,#00E400,27,优,0.6,优,#00E400,#00E400,330723001,优,#00E400,金华市,#00E400,优,41,19,#00E400,85,2026-05-11 15:00:00
87,良,330723,151,28.9178,优,--,32,11,110,优,#00E400,#00E400,8,武义北岭幼儿园,#FFFF00,48,优,优,优,330700,#00E400,119.8022,#00E400,22,优,0.7,优,#00E400,#00E400,330723003,优,#00E400,金华市,#00E400,优,38,21,#00E400,85,2026-05-11 15:00:00
88,良,330213,156,29.693,优,--,26,9,125,优,#00E400,#00E400,6,溪口政府大楼,#FFFF00,49,优,优,优,330200,#00E400,121.2774,#00E400,17,优,0.4,优,#00E400,#00E400,330283T_1,优,#00E400,宁波市,#00E400,优,27,16,#00E400,89,2026-05-11 15:00:00
89,良,330681,156,29.6818,优,--,28,10,113,优,#00E400,#00E400,7,杨树畈,#FFFF00,49,优,优,优,330600,#00E400,120.2359,#00E400,21,优,0.5,优,#00E400,#00E400,330681001,优,#00E400,绍兴市,#00E400,优,31,19,#00E400,89,2026-05-11 15:00:00
90,良,330523,158,30.6422,优,--,33,10,113,优,#00E400,#00E400,8,安吉实验小学,#FFFF00,50,优,优,优,330500,#00E400,119.6768,#00E400,14,优,0.4,优,#00E400,#00E400,330523001,优,#00E400,湖州市,#00E400,优,34,18,#00E400,91,2026-05-11 15:00:00
91,良,330784,160,28.8854,优,--,39,13,109,优,#00E400,#00E400,8,永康一中,#FFFF00,50,优,优,优,330700,#00E400,120.0439,#00E400,22,优,0.7,优,#00E400,#00E400,330784001,优,#00E400,金华市,#00E400,优,41,16,#00E400,91,2026-05-11 15:00:00
92,良,330521,157,30.548493,优,--,36,5,129,优,#00E400,#00E400,6,春晖小学,#FFFF00,50,优,优,优,330500,#00E400,119.9505,#00E400,14,优,0.5,优,#00E400,#00E400,330521003,优,#00E400,湖州市,#00E400,优,23,20,#00E400,91,2026-05-11 15:00:00
93,良,330681,161,29.726389,优,O₃,40,3,116,良,#00E400,#00E400,7,青少年宫,#FFFF00,52,优,良,优,330600,#00E400,120.199722,#00E400,18,优,0.5,优,#00E400,#00E400,330681002,优,#FFFF00,绍兴市,#FFFF00,优,30,20,#00E400,94,2026-05-11 15:00:00
94,良,330522,162,31.0263,优,O₃,43,11,124,良,#00E400,#00E400,7,龙山新区,#FFFF00,53,优,良,优,330500,#00E400,119.9046,#00E400,18,优,0.5,优,#00E400,#00E400,330522002,优,#FFFF00,湖州市,#FFFF00,优,29,24,#00E400,95,2026-05-11 15:00:00
95,良,330481,164,30.5524,优,O₃,41,6,124,良,#00E400,#00E400,7,胜利社区,#FFFF00,55,优,良,优,330400,#00E400,120.6713,#00E400,12,优,0.5,优,#00E400,#00E400,330481003,优,#FFFF00,嘉兴市,#FFFF00,优,20,18,#00E400,96,2026-05-11 15:00:00
96,良,330421,171,30.836,优,O₃,38,7,124,良,#00E400,#00E400,6,嘉善监测大楼,#FFFF00,64,优,良,优,330400,#00E400,120.9226,#00E400,22,优,0.5,优,#00E400,#00E400,330421001,优,#FFFF00,嘉兴市,#FFFF00,优,30,20,#00E400,97,2026-05-11 15:00:00
97,良,330281,174,30.0358,优,O₃,30,16,118,良,#00E400,#00E400,8,姚江小学,#FFFF00,68,优,良,优,330200,#00E400,121.1221,#00E400,29,优,0.5,优,#00E400,#00E400,330281002,优,#FFFF00,宁波市,#FFFF00,优,34,21,#00E400,98,2026-05-11 15:00:00
98,良,330522,177,31.0143,优,O₃,41,14,136,良,#00E400,#00E400,8,职教中心,#FFFF00,72,优,良,优,330500,#00E400,119.8935,#00E400,23,优,0.4,优,#00E400,#00E400,330522001,优,#FFFF00,湖州市,#FFFF00,优,29,27,#00E400,99,2026-05-11 15:00:00
99,良,330483,178,30.6355,优,O₃,37,11,122,良,#00E400,#00E400,11,文化中心,#FFFF00,73,优,良,优,330400,#00E400,120.5795,#00E400,23,优,0.6,优,#00E400,#00E400,330483003,优,#FFFF00,嘉兴市,#FFFF00,优,35,20,#00E400,100,2026-05-11 15:00:00
100,良,330681,180,29.7257,优,O₃,32,7,128,良,#00E400,#00E400,8,城新小学,#FFFF00,75,优,良,优,330600,#00E400,120.272,#00E400,25,优,0.5,优,#00E400,#00E400,330681505,优,#FFFF00,绍兴市,#FFFF00,优,31,22,#00E400,101,2026-05-11 15:00:00
101,良,330482,182,30.7292,优,O₃,33,15,128,良,#00E400,#00E400,10,陆家桥村,#FFFF00,78,优,良,优,330400,#00E400,120.9953,#00E400,30,优,0.6,优,#00E400,#00E400,330482002,优,#FFFF00,嘉兴市,#FFFF00,优,43,18,#00E400,102,2026-05-11 15:00:00
102,良,330424,183,30.5299,优,O₃,41,6,143,良,#00E400,#00E400,8,海盐商贸学校,#FFFF00,79,优,良,优,330400,#00E400,120.9293,#00E400,35,优,0.5,优,#00E400,#00E400,330424002,优,#FFFF00,嘉兴市,#FFFF00,优,47,27,#00E400,103,2026-05-11 15:00:00
103,良,330281,185,30.0497,优,O₃,31,14,120,良,#00E400,#00E400,7,龙山公园,#FFFF00,82,优,良,优,330200,#00E400,121.1475,#00E400,25,优,0.5,优,#00E400,#00E400,330281001,优,#FFFF00,宁波市,#FFFF00,优,42,18,#00E400,104,2026-05-11 15:00:00
104,良,330482,193,30.6937,优,O₃,34,18,141,良,#00E400,#00E400,10,平湖幼儿园,#FFFF00,92,优,良,优,330400,#00E400,121.0259,#00E400,26,优,0.5,优,#00E400,#00E400,330482001,优,#FFFF00,嘉兴市,#FFFF00,优,42,19,#00E400,105,2026-05-11 15:00:00
105,良,330424,193,30.5042,优,O₃,45,10,146,良,#00E400,#00E400,6,高级中学,#FFFF00,92,优,良,优,330400,#00E400,120.9413,#00E400,30,优,0.5,优,#00E400,#00E400,330424001,优,#FFFF00,嘉兴市,#FFFF00,优,40,28,#00E400,105,2026-05-11 15:00:00
106,良,330421,196,30.8307,优,O₃,36,13,133,良,#00E400,#00E400,8,气象观测台,#FFFF00,95,优,良,优,330400,#00E400,120.9356,#00E400,30,优,0.6,优,#00E400,#00E400,330421002,优,#FFFF00,嘉兴市,#FFFF00,优,40,21,#00E400,107,2026-05-11 15:00:00
107,良,330282,197,30.1636,优,O₃,136,14,144,良,#00E400,#00E400,6,慈溪环保大楼,#FFFF00,97,优,良,轻度污染,330200,#00E400,121.2677,#00E400,28,优,0.7,优,#00E400,#00E400,330282001,优,#FFFF00,宁波市,#FFFF00,优,48,18,#FF7E00,108,2026-05-11 15:00:00
108,良,330282,205,30.1786,优,O₃,36,12,148,轻度污染,#FFFF00,#00E400,6,慈溪实验小学,#FFFF00,103,优,轻度污染,优,330200,#00E400,121.2525,#00E400,28,良,0.6,优,#00E400,#00E400,330282002,优,#FF7E00,宁波市,#FF7E00,优,53,17,#00E400,109,2026-05-11 15:00:00
109,良,330483,208,30.7369,优,O₃,43,10,156,轻度污染,#00E400,#00E400,8,植材小学,#FFFF00,104,优,轻度污染,优,330400,#00E400,120.4902,#00E400,31,优,0.6,优,#00E400,#00E400,330483509,优,#FF7E00,嘉兴市,#FF7E00,优,40,33,#00E400,110,2026-05-11 15:00:00
110,优,330328,94,27.804722,优,PM₂.₅,28,5,81,优,#00E400,#7E0023,7,文成中学,#00E400,326,优,严重污染,优,330300,#00E400,120.077222,#00E400,276,优,0.4,严重污染,#00E400,#FFFF00,330328002,良,#7E0023,温州市,#00E400,优,26,42,#00E400,111,2026-05-11 15:00:00
111,良,330122,138,29.8058,--,--,23,6,110,优,#00E400,#00E400,4,桐庐江北,#FFFF00,--,优,--,优,330100,#00E400,119.669,#00E400,12,优,--,优,--,#00E400,330122002,优,--,杭州市,#00E400,优,21,13,#00E400,112,2026-05-11 15:00:00
112,优,330327,135,27.503889,优,--,34,8,91,优,#00E400,#00E400,--,灵溪,#00E400,--,优,--,优,330300,--,120.395278,#00E400,21,优,0.5,优,#00E400,#00E400,330327001,优,--,温州市,#00E400,--,42,19,#00E400,112,2026-05-11 15:00:00
113,良,330483,168,30.6488,--,--,40,10,121,良,#00E400,#00E400,6,茅盾小学,#FFFF00,--,优,--,优,330400,#00E400,120.5498,#00E400,21,优,--,优,--,#00E400,330483001,优,--,嘉兴市,#FFFF00,优,43,21,#00E400,112,2026-05-11 15:00:00
114,良,330521,143,30.5231,--,--,40,6,118,优,#00E400,#00E400,7,地信科创园,#FFFF00,--,优,--,优,330500,#00E400,119.9781,#00E400,8,优,--,优,--,#00E400,330521001,优,--,湖州市,#00E400,优,23,19,#00E400,112,2026-05-11 15:00:00
115,优,330921,92,30.2669,--,--,20,22,80,优,#00E400,#00E400,8,岱山环保大楼,#00E400,--,优,--,优,330900,#00E400,122.2199,#00E400,5,优,--,优,--,#00E400,330921001,优,--,舟山市,#00E400,优,11,9,#00E400,112,2026-05-11 15:00:00
116,优,331124,114,28.4505,--,--,27,9,89,优,#00E400,#00E400,4,松阳监测楼,#00E400,--,优,--,优,331100,#00E400,119.4799,#00E400,10,优,--,优,--,#00E400,331124001,优,--,丽水市,#00E400,优,15,14,#00E400,112,2026-05-11 15:00:00
117,良,330212,158,29.7736,优,--,22,--,131,优,#00E400,#00E400,5,钱湖水厂,#FFFF00,--,--,--,优,330200,#00E400,121.6330,--,16,优,0.5,优,#00E400,#00E400,2013302120001,优,--,宁波市,#00E400,优,22,11,#00E400,112,2026-05-11 15:00:00
