,O3H8_level,regioncode,O3,latitude,CO_level,SYWRW,PM10H24,NO2,O3H8,O3_level,PM10_color,PM25_color,SO2,sitename,O3H8_color,AQI,NO2_level,AQI_level,PM10H24_level,districtcode,SO2_color,longitude,NO2_color,PM25,PM10_level,CO,PM25_level,CO_color,PM25H24_color,sitecode,PM25H24_level,AQI_color,districtname,O3_color,SO2_level,PM10,PM25H24,PM10H24_color,sort,time
0,优,331126,45,27.629585,优,--,21,9,48,优,#00E400,#00E400,6,庆元监测楼,#00E400,15,优,优,优,331100,#00E400,119.054809,#00E400,4,优,0.6,优,#00E400,#00E400,331126001,优,#00E400,丽水市,#00E400,优,8,16,#00E400,1,2026-05-08 09:00:00
1,优,330328,49,27.804722,优,--,27,8,55,优,#00E400,#00E400,7,文成中学,#00E400,22,优,优,优,330300,#00E400,120.077222,#00E400,15,优,0.4,优,#00E400,#00E400,330328002,优,#00E400,温州市,#00E400,优,17,17,#00E400,2,2026-05-08 09:00:00
2,优,330523,46,30.5974,优,--,35,12,40,优,#00E400,#00E400,5,安吉城东,#00E400,22,优,优,优,330500,#00E400,119.6953,#00E400,13,优,0.4,优,#00E400,#00E400,330523002,优,#00E400,湖州市,#00E400,优,22,21,#00E400,2,2026-05-08 09:00:00
3,优,330182,58,29.4769,优,--,31,12,83,优,#00E400,#00E400,8,建德监测大楼,#00E400,23,优,优,优,330100,#00E400,119.2711,#00E400,14,优,0.6,优,#00E400,#00E400,330182T_2,优,#00E400,杭州市,#00E400,优,23,19,#00E400,4,2026-05-08 09:00:00
4,优,330328,57,27.7838,优,--,32,13,52,优,#00E400,#00E400,7,大峃,#00E400,23,优,优,优,330300,#00E400,120.085,#00E400,13,优,0.4,优,#00E400,#00E400,330328001,优,#00E400,温州市,#00E400,优,23,22,#00E400,4,2026-05-08 09:00:00
5,优,330723,75,28.896108,优,--,40,22,90,优,#00E400,#00E400,9,武义县政府,#00E400,24,优,优,优,330700,#00E400,119.811352,#00E400,11,优,0.5,优,#00E400,#00E400,330723001,优,#00E400,金华市,#00E400,优,22,26,#00E400,6,2026-05-08 09:00:00
6,优,330782,76,29.305096,优,--,40,18,95,优,#00E400,#00E400,6,江东,#00E400,24,优,优,优,330700,#00E400,120.090442,#00E400,13,优,0.6,优,#00E400,#00E400,330782002,优,#00E400,金华市,#00E400,优,21,22,#00E400,6,2026-05-08 09:00:00
7,优,330723,76,28.9178,优,--,33,21,85,优,#00E400,#00E400,8,武义北岭幼儿园,#00E400,24,优,优,优,330700,#00E400,119.8022,#00E400,14,优,0.5,优,#00E400,#00E400,330723003,优,#00E400,金华市,#00E400,优,23,21,#00E400,6,2026-05-08 09:00:00
8,优,330213,78,29.693,优,--,34,15,100,优,#00E400,#00E400,5,溪口政府大楼,#00E400,25,优,优,优,330200,#00E400,121.2774,#00E400,15,优,0.3,优,#00E400,#00E400,330283T_1,优,#00E400,宁波市,#00E400,优,25,22,#00E400,9,2026-05-08 09:00:00
9,优,330324,78,28.044335,优,--,29,19,62,优,#00E400,#00E400,6,瓯北,#00E400,25,优,优,优,330300,#00E400,120.654963,#00E400,6,优,0.7,优,#00E400,#00E400,330324002,优,#00E400,温州市,#00E400,优,12,14,#00E400,9,2026-05-08 09:00:00
10,优,330726,80,29.465746,优,--,37,12,95,优,#00E400,#00E400,6,浦江实验中学,#00E400,25,优,优,优,330700,#00E400,119.875227,#00E400,12,优,0.4,优,#00E400,#00E400,330726001,优,#00E400,金华市,#00E400,优,25,22,#00E400,9,2026-05-08 09:00:00
11,优,330781,77,29.229931,优,--,33,12,71,优,#00E400,#00E400,7,兰溪八中,#00E400,25,优,优,优,330700,#00E400,119.475172,#00E400,14,优,0.4,优,#00E400,#00E400,330781002,优,#00E400,金华市,#00E400,优,22,23,#00E400,9,2026-05-08 09:00:00
12,优,330783,78,29.27739,优,--,32,14,86,优,#00E400,#00E400,7,东阳环保大楼,#00E400,25,优,优,优,330700,#00E400,120.23692,#00E400,11,优,0.6,优,#00E400,#00E400,330783002,优,#00E400,金华市,#00E400,优,18,19,#00E400,9,2026-05-08 09:00:00
13,优,331081,80,28.37558,优,--,33,15,83,优,#00E400,#00E400,6,温岭环监站,#00E400,25,优,优,优,331000,#00E400,121.36579,#00E400,6,优,0.3,优,#00E400,#00E400,331081001,优,#00E400,台州市,#00E400,优,14,24,#00E400,9,2026-05-08 09:00:00
14,优,331181,79,28.08007,优,--,32,11,84,优,#00E400,#00E400,7,龙泉环保大楼,#00E400,25,优,优,优,331100,#00E400,119.1328,#00E400,7,优,0.5,优,#00E400,#00E400,331181001,优,#00E400,丽水市,#00E400,优,16,18,#00E400,9,2026-05-08 09:00:00
15,优,331181,79,28.076,优,--,24,12,83,优,#00E400,#00E400,8,粮食大楼,#00E400,25,优,优,优,331100,#00E400,119.1217,#00E400,8,优,0.6,优,#00E400,#00E400,331181002,优,#00E400,丽水市,#00E400,优,11,15,#00E400,9,2026-05-08 09:00:00
16,优,330803,83,28.9844,优,--,31,13,88,优,#00E400,#00E400,7,衢州三中（市）,#00E400,26,优,优,优,330800,#00E400,118.9628,#00E400,12,优,0.4,优,#00E400,#00E400,330803704,优,#00E400,衢州市,#00E400,优,18,21,#00E400,17,2026-05-08 09:00:00
17,优,330127,80,29.605,优,--,23,7,95,优,#00E400,#00E400,12,老年活动中心,#00E400,26,优,优,优,330100,#00E400,119.0372,#00E400,18,优,0.6,优,#00E400,#00E400,330127T_4,优,#00E400,杭州市,#00E400,优,24,16,#00E400,17,2026-05-08 09:00:00
18,优,330324,81,28.158269,优,--,33,9,61,优,#00E400,#00E400,4,上塘,#00E400,26,优,优,优,330300,#00E400,120.694244,#00E400,6,优,0.6,优,#00E400,#00E400,330324001,优,#00E400,温州市,#00E400,优,9,20,#00E400,17,2026-05-08 09:00:00
19,优,330624,80,29.4938,优,--,36,16,90,优,#00E400,#00E400,5,城东站,#00E400,26,优,优,优,330600,#00E400,120.9109,#00E400,15,优,0.4,优,#00E400,#00E400,330624002,优,#00E400,绍兴市,#00E400,优,26,23,#00E400,17,2026-05-08 09:00:00
20,优,330782,72,29.335473,优,--,41,19,92,优,#00E400,#00E400,6,北苑,#00E400,26,优,优,优,330700,#00E400,120.078609,#00E400,15,优,0.5,优,#00E400,#00E400,330782001,优,#00E400,金华市,#00E400,优,26,23,#00E400,17,2026-05-08 09:00:00
21,优,330783,81,29.30093,优,--,41,15,92,优,#00E400,#00E400,6,广厦学院,#00E400,26,优,优,优,330700,#00E400,120.24157,#00E400,17,优,0.5,优,#00E400,#00E400,330783001,优,#00E400,金华市,#00E400,优,24,20,#00E400,17,2026-05-08 09:00:00
22,优,331122,82,28.6574,优,--,32,36,98,优,#00E400,#00E400,7,缙云中学,#00E400,26,优,优,优,331100,#00E400,120.0696,#00E400,14,优,0.5,优,#00E400,#00E400,331122001,优,#00E400,丽水市,#00E400,优,23,21,#00E400,17,2026-05-08 09:00:00
23,优,330482,86,30.6937,优,--,38,16,94,优,#00E400,#00E400,9,平湖幼儿园,#00E400,27,优,优,优,330400,#00E400,121.0259,#00E400,12,优,0.4,优,#00E400,#00E400,330482001,优,#00E400,嘉兴市,#00E400,优,22,22,#00E400,24,2026-05-08 09:00:00
24,优,330683,86,29.5901,优,--,38,12,92,优,#00E400,#00E400,5,马寅初初中,#00E400,27,优,优,优,330600,#00E400,120.8249,#00E400,12,优,0.4,优,#00E400,#00E400,330683001,优,#00E400,绍兴市,#00E400,优,24,21,#00E400,24,2026-05-08 09:00:00
25,优,330683,69,29.5663,优,--,39,41,99,优,#00E400,#00E400,4,丽湖小区,#00E400,27,优,优,优,330600,#00E400,120.8173,#00E400,13,优,0.5,优,#00E400,#00E400,330683002,优,#00E400,绍兴市,#00E400,优,27,23,#00E400,24,2026-05-08 09:00:00
26,优,330681,68,29.6818,优,--,33,12,84,优,#00E400,#00E400,6,杨树畈,#00E400,27,优,优,优,330600,#00E400,120.2359,#00E400,9,优,0.4,优,#00E400,#00E400,330681001,优,#00E400,绍兴市,#00E400,优,27,23,#00E400,24,2026-05-08 09:00:00
27,优,330681,73,29.726389,优,--,38,18,88,优,#00E400,#00E400,8,青少年宫,#00E400,27,优,优,优,330600,#00E400,120.199722,#00E400,14,优,0.4,优,#00E400,#FFFF00,330681002,良,#00E400,绍兴市,#00E400,优,27,37,#00E400,24,2026-05-08 09:00:00
28,优,330624,85,29.5036,优,--,37,14,97,优,#00E400,#00E400,4,钟楼站,#00E400,27,优,优,优,330600,#00E400,120.8938,#00E400,14,优,0.4,优,#00E400,#00E400,330624001,优,#00E400,绍兴市,#00E400,优,26,23,#00E400,24,2026-05-08 09:00:00
29,优,330727,84,29.051486,优,--,39,12,90,优,#00E400,#00E400,7,国税大楼,#00E400,27,优,优,优,330700,#00E400,120.438346,#00E400,11,优,0.5,优,#00E400,#00E400,330727002,优,#00E400,金华市,#00E400,优,21,25,#00E400,24,2026-05-08 09:00:00
30,优,330784,86,28.90016,优,--,43,9,81,优,#00E400,#00E400,6,西城供电所,#00E400,27,优,优,优,330700,#00E400,120.01452,#00E400,13,优,0.5,优,#00E400,#00E400,330784002,优,#00E400,金华市,#00E400,优,26,20,#00E400,24,2026-05-08 09:00:00
31,优,331121,84,28.1094,优,--,39,15,96,优,#00E400,#00E400,4,青田中学,#00E400,27,优,优,优,331100,#00E400,120.3161,#00E400,13,优,0.5,优,#00E400,#00E400,331121002,优,#00E400,丽水市,#00E400,优,21,20,#00E400,24,2026-05-08 09:00:00
32,优,331122,86,28.6628,优,--,47,18,97,优,#00E400,#00E400,7,信访大楼,#00E400,27,优,优,优,331100,#00E400,120.0856,#00E400,12,优,0.6,优,#00E400,#00E400,331122002,优,#00E400,丽水市,#00E400,优,18,21,#00E400,24,2026-05-08 09:00:00
33,优,330182,69,29.4638,优,--,34,27,98,优,#00E400,#00E400,4,第二中学,#00E400,28,优,优,优,330100,#00E400,119.2821,#00E400,16,优,0.5,优,#00E400,#00E400,330182002,优,#00E400,杭州市,#00E400,优,28,20,#00E400,34,2026-05-08 09:00:00
34,优,330327,89,27.503889,优,--,30,7,64,优,#00E400,#00E400,9,灵溪,#00E400,28,优,优,优,330300,#00E400,120.395278,#00E400,19,优,0.6,优,#00E400,#00E400,330327001,优,#00E400,温州市,#00E400,优,28,16,#00E400,34,2026-05-08 09:00:00
35,优,330481,88,30.5137,优,--,44,12,92,优,#00E400,#00E400,9,硖石街道,#00E400,28,优,优,优,330400,#00E400,120.7082,#00E400,14,优,0.4,优,#00E400,#00E400,330481002,优,#00E400,嘉兴市,#00E400,优,26,23,#00E400,34,2026-05-08 09:00:00
36,优,330424,89,30.5042,优,--,45,21,95,优,#00E400,#00E400,7,高级中学,#00E400,28,优,优,优,330400,#00E400,120.9413,#00E400,13,优,0.3,优,#00E400,#00E400,330424001,优,#00E400,嘉兴市,#00E400,优,27,26,#00E400,34,2026-05-08 09:00:00
37,优,330523,88,30.6422,优,--,43,13,68,优,#00E400,#00E400,9,安吉实验小学,#00E400,28,优,优,优,330500,#00E400,119.6768,#00E400,17,优,0.5,优,#00E400,#00E400,330523001,优,#00E400,湖州市,#00E400,优,28,24,#00E400,34,2026-05-08 09:00:00
38,优,330727,88,29.039869,优,--,35,7,90,优,#00E400,#00E400,7,南园初中,#00E400,28,优,优,优,330700,#00E400,120.440622,#00E400,9,优,0.5,优,#00E400,#00E400,330727003,优,#00E400,金华市,#00E400,优,15,23,#00E400,34,2026-05-08 09:00:00
39,优,330784,89,28.8854,优,--,37,13,86,优,#00E400,#00E400,7,永康一中,#00E400,28,优,优,优,330700,#00E400,120.0439,#00E400,10,优,0.6,优,#00E400,#00E400,330784001,优,#00E400,金华市,#00E400,优,23,19,#00E400,34,2026-05-08 09:00:00
40,优,330881,87,28.7465,优,--,29,6,86,优,#00E400,#00E400,3,江山环保大楼,#00E400,28,优,优,优,330800,#00E400,118.6301,#00E400,11,优,0.5,优,#00E400,#00E400,330881001,优,#00E400,衢州市,#00E400,优,18,19,#00E400,34,2026-05-08 09:00:00
41,优,330881,87,28.7282,优,--,29,10,93,优,#00E400,#00E400,5,人民医院,#00E400,28,优,优,优,330800,#00E400,118.6227,#00E400,10,优,0.4,优,#00E400,#00E400,330881002,优,#00E400,衢州市,#00E400,优,21,18,#00E400,34,2026-05-08 09:00:00
42,优,330825,87,29.0464,优,--,36,10,79,优,#00E400,#00E400,5,龙游二高,#00E400,28,优,优,优,330800,#00E400,119.204,#00E400,11,优,0.4,优,#00E400,#00E400,330825002,优,#00E400,衢州市,#00E400,优,19,21,#00E400,34,2026-05-08 09:00:00
43,优,331127,88,27.9772,优,--,22,9,80,优,#00E400,#00E400,4,景宁县政府,#00E400,28,优,优,优,331100,#00E400,119.6311,#00E400,6,优,0.6,优,#00E400,#00E400,331127002,优,#00E400,丽水市,#00E400,优,10,15,#00E400,34,2026-05-08 09:00:00
44,良,330213,85,29.6506,优,--,41,20,102,优,#00E400,#00E400,8,奉化教育局,#FFFF00,29,优,优,优,330200,#00E400,121.4042,#00E400,17,优,0.3,优,#00E400,#00E400,330283005,优,#00E400,宁波市,#00E400,优,29,23,#00E400,45,2026-05-08 09:00:00
45,优,330482,90,30.7292,优,--,37,17,95,优,#00E400,#00E400,9,陆家桥村,#00E400,29,优,优,优,330400,#00E400,120.9953,#00E400,11,优,0.3,优,#00E400,#00E400,330482002,优,#00E400,嘉兴市,#00E400,优,17,21,#00E400,45,2026-05-08 09:00:00
46,优,330781,90,29.216166,优,--,--,11,80,优,#00E400,#00E400,7,兰溪监测站,#00E400,29,优,优,--,330700,#00E400,119.459992,#00E400,14,优,0.5,优,#00E400,#00E400,330781001,优,#00E400,金华市,#00E400,优,12,17,--,45,2026-05-08 09:00:00
47,优,330824,90,29.1478,优,--,20,6,79,优,#00E400,#00E400,7,开化监测大楼,#00E400,29,优,优,优,330800,#00E400,118.4108,#00E400,10,优,0.5,优,#00E400,#00E400,330824002,优,#00E400,衢州市,#00E400,优,15,13,#00E400,45,2026-05-08 09:00:00
48,优,331083,92,28.12715,优,--,26,11,87,优,#00E400,#00E400,9,玉环环监站,#00E400,29,优,优,优,331000,#00E400,121.2339,#00E400,8,优,0.5,优,#00E400,#00E400,331021001,优,#00E400,台州市,#00E400,优,13,15,#00E400,45,2026-05-08 09:00:00
49,优,331024,91,28.8589,优,--,30,10,94,优,#00E400,#00E400,8,仙居环监站,#00E400,29,优,优,优,331000,#00E400,120.7248,#00E400,14,优,0.4,优,#00E400,#00E400,331024001,优,#00E400,台州市,#00E400,优,16,21,#00E400,45,2026-05-08 09:00:00
50,优,331024,90,28.7403,优,--,27,11,81,优,#00E400,#00E400,6,新生中学,#00E400,29,优,优,优,331000,#00E400,120.4728,#00E400,9,优,0.4,优,#00E400,#00E400,331024002,优,#00E400,台州市,#00E400,优,17,18,#00E400,45,2026-05-08 09:00:00
51,优,330782,85,29.2637,优,--,43,16,97,优,#00E400,#00E400,3,儿童公园,#00E400,29,优,优,优,330700,#00E400,120.0321,#00E400,15,优,0.4,优,#00E400,#00E400,330782004,优,#00E400,金华市,#00E400,优,29,27,#00E400,45,2026-05-08 09:00:00
52,优,331127,93,28.002222,优,--,22,8,84,优,#00E400,#00E400,5,红星小学,#00E400,30,优,优,优,331100,#00E400,119.636389,#00E400,7,优,0.5,优,#00E400,#00E400,331127003,优,#00E400,丽水市,#00E400,优,9,15,#00E400,53,2026-05-08 09:00:00
53,优,330122,62,29.8058,优,--,40,22,93,优,#00E400,#00E400,6,桐庐江北,#00E400,30,优,优,优,330100,#00E400,119.669,#00E400,17,优,0.7,优,#00E400,#00E400,330122002,优,#00E400,杭州市,#00E400,优,30,21,#00E400,53,2026-05-08 09:00:00
54,优,330281,93,30.0497,优,--,40,14,98,优,#00E400,#00E400,5,龙山公园,#00E400,30,优,优,优,330200,#00E400,121.1475,#00E400,16,优,0.4,优,#00E400,#00E400,330281001,优,#00E400,宁波市,#00E400,优,24,24,#00E400,53,2026-05-08 09:00:00
55,良,330226,96,29.3125,优,--,30,20,111,优,#00E400,#00E400,5,宁海水利局,#FFFF00,30,优,优,优,330200,#00E400,121.4306,#00E400,14,优,0.3,优,#00E400,#00E400,330226001,优,#00E400,宁波市,#00E400,优,27,17,#00E400,53,2026-05-08 09:00:00
56,优,330382,96,28.0297,优,--,25,17,78,优,#00E400,#00E400,3,柳市,#00E400,30,优,优,优,330300,#00E400,120.891,#00E400,14,优,0.4,优,#00E400,#00E400,330382002,优,#00E400,温州市,#00E400,优,21,14,#00E400,53,2026-05-08 09:00:00
57,优,330481,94,30.5261,优,--,44,14,95,优,#00E400,#00E400,7,海宁监测大楼,#00E400,30,优,优,优,330400,#00E400,120.6739,#00E400,20,优,0.4,优,#00E400,#00E400,330481001,优,#00E400,嘉兴市,#00E400,优,30,25,#00E400,53,2026-05-08 09:00:00
58,良,330421,96,30.8307,优,--,42,21,101,优,#00E400,#00E400,8,气象观测台,#FFFF00,30,优,优,优,330400,#00E400,120.9356,#00E400,9,优,0.4,优,#00E400,#00E400,330421002,优,#00E400,嘉兴市,#00E400,优,18,23,#00E400,53,2026-05-08 09:00:00
59,优,330424,93,30.5299,优,--,44,19,98,优,#00E400,#00E400,5,海盐商贸学校,#00E400,30,优,优,优,330400,#00E400,120.9293,#00E400,13,优,0.4,优,#00E400,#00E400,330424002,优,#00E400,嘉兴市,#00E400,优,26,27,#00E400,53,2026-05-08 09:00:00
60,优,330522,95,31.0263,优,--,38,11,95,优,#00E400,#00E400,7,龙山新区,#00E400,30,优,优,优,330500,#00E400,119.9046,#00E400,6,优,0.5,优,#00E400,#00E400,330522002,优,#00E400,湖州市,#00E400,优,14,22,#00E400,53,2026-05-08 09:00:00
61,优,330822,96,28.901,优,--,21,10,93,优,#00E400,#00E400,4,常山环保大楼,#00E400,30,优,优,优,330800,#00E400,118.5196,#00E400,9,优,0.5,优,#00E400,#00E400,330822001,优,#00E400,衢州市,#00E400,优,17,11,#00E400,53,2026-05-08 09:00:00
62,优,330921,96,30.2517,优,--,37,9,95,优,#00E400,#00E400,7,岱山高亭,#00E400,30,优,优,优,330900,#00E400,122.1958,#00E400,15,优,0.4,优,#00E400,#00E400,330921002,优,#00E400,舟山市,#00E400,优,25,20,#00E400,53,2026-05-08 09:00:00
63,优,331023,95,29.1504,优,--,35,15,100,优,#00E400,#00E400,6,育青中学,#00E400,30,优,优,优,331000,#00E400,121.0091,#00E400,10,优,0.4,优,#00E400,#00E400,331023001,优,#00E400,台州市,#00E400,优,11,21,#00E400,53,2026-05-08 09:00:00
64,优,331124,93,28.4505,优,--,32,19,86,优,#00E400,#00E400,4,松阳监测楼,#00E400,30,优,优,优,331100,#00E400,119.4799,#00E400,20,优,0.4,优,#00E400,#00E400,331124001,优,#00E400,丽水市,#00E400,优,16,20,#00E400,53,2026-05-08 09:00:00
65,优,331125,94,28.1173,优,--,23,10,87,优,#00E400,#00E400,7,云和监测楼,#00E400,30,优,优,优,331100,#00E400,119.5626,#00E400,14,优,0.5,优,#00E400,#00E400,331125001,优,#00E400,丽水市,#00E400,优,17,15,#00E400,53,2026-05-08 09:00:00
66,优,331126,95,27.6211,优,--,21,7,68,优,#00E400,#00E400,4,庆元气象局,#00E400,30,优,优,优,331100,#00E400,119.0788,#00E400,4,优,0.6,优,#00E400,#00E400,331126002,优,#00E400,丽水市,#00E400,优,7,13,#00E400,53,2026-05-08 09:00:00
67,优,330481,94,30.5524,优,--,41,9,97,优,#00E400,#00E400,8,胜利社区,#00E400,30,优,优,优,330400,#00E400,120.6713,#00E400,17,优,0.6,优,#00E400,#00E400,330481003,优,#00E400,嘉兴市,#00E400,优,30,21,#00E400,53,2026-05-08 09:00:00
68,良,330281,99,30.0358,优,--,35,19,101,优,#00E400,#00E400,7,姚江小学,#FFFF00,31,优,优,优,330200,#00E400,121.1221,#00E400,14,优,0.5,优,#00E400,#00E400,330281002,优,#00E400,宁波市,#00E400,优,24,23,#00E400,69,2026-05-08 09:00:00
69,良,330282,98,30.1636,优,--,45,13,102,优,#00E400,#00E400,5,慈溪环保大楼,#FFFF00,31,优,优,优,330200,#00E400,121.2677,#00E400,14,优,0.4,优,#00E400,#00E400,330282001,优,#00E400,宁波市,#00E400,优,24,26,#00E400,69,2026-05-08 09:00:00
70,良,330282,99,30.1786,优,--,45,12,105,优,#00E400,#00E400,5,慈溪实验小学,#FFFF00,31,优,优,优,330200,#00E400,121.2525,#00E400,14,优,0.4,优,#00E400,#00E400,330282002,优,#00E400,宁波市,#00E400,优,21,26,#00E400,69,2026-05-08 09:00:00
71,优,330305,98,27.8342,优,--,19,8,89,优,#00E400,#00E400,7,洞头气象局,#00E400,31,优,优,优,330300,#00E400,121.1502,#00E400,8,优,0.5,优,#00E400,#00E400,330305001,优,#00E400,温州市,#00E400,优,18,11,#00E400,69,2026-05-08 09:00:00
72,优,330382,98,28.1209,优,--,23,7,76,优,#00E400,#00E400,5,乐成,#00E400,31,优,优,优,330300,#00E400,120.9659,#00E400,9,优,0.5,优,#00E400,#00E400,330382001,优,#00E400,温州市,#00E400,优,14,15,#00E400,69,2026-05-08 09:00:00
73,优,330421,92,30.836,优,--,41,17,95,优,#00E400,#00E400,5,嘉善监测大楼,#00E400,31,优,优,优,330400,#00E400,120.9226,#00E400,9,优,0.3,优,#00E400,#00E400,330421001,优,#00E400,嘉兴市,#00E400,优,31,23,#00E400,69,2026-05-08 09:00:00
74,优,330522,97,31.0143,优,--,39,12,99,优,#00E400,#00E400,8,职教中心,#00E400,31,优,优,优,330500,#00E400,119.8935,#00E400,16,优,0.4,优,#00E400,#00E400,330522001,优,#00E400,湖州市,#00E400,优,25,26,#00E400,69,2026-05-08 09:00:00
75,优,330822,98,28.9012,优,--,25,11,93,优,#00E400,#00E400,5,图书馆大楼,#00E400,31,优,优,优,330800,#00E400,118.5062,#00E400,9,优,0.3,优,#00E400,#00E400,330822002,优,#00E400,衢州市,#00E400,优,26,10,#00E400,69,2026-05-08 09:00:00
76,良,331023,99,29.1342,优,--,36,17,102,优,#00E400,#00E400,5,天台实验中学,#FFFF00,31,优,优,优,331000,#00E400,121.0349,#00E400,7,优,0.4,优,#00E400,#00E400,331023002,优,#00E400,台州市,#00E400,优,19,19,#00E400,69,2026-05-08 09:00:00
77,优,331081,98,28.39136,优,--,36,9,100,优,#00E400,#00E400,4,之江高级中学,#00E400,31,优,优,优,331000,#00E400,121.37696,#00E400,8,优,0.3,优,#00E400,#00E400,331081002,优,#00E400,台州市,#00E400,优,11,19,#00E400,69,2026-05-08 09:00:00
78,优,330782,75,29.3686,优,--,45,20,95,优,#00E400,#00E400,7,第五中学,#00E400,31,优,优,优,330700,#00E400,120.1345,#00E400,13,优,0.6,优,#00E400,#00E400,330782003,优,#00E400,金华市,#00E400,优,31,23,#00E400,69,2026-05-08 09:00:00
79,优,330110,98,30.2635,优,--,38,17,95,优,#00E400,#00E400,7,海辰小学,#00E400,31,优,优,优,330100,#00E400,119.9842,#00E400,17,优,0.4,优,#00E400,#00E400,2013301100001,优,#00E400,杭州市,#00E400,优,31,20,#00E400,69,2026-05-08 09:00:00
80,良,330483,93,30.7369,优,--,43,16,101,优,#00E400,#00E400,8,植材小学,#FFFF00,31,优,优,优,330400,#00E400,120.4902,#00E400,5,优,0.6,优,#00E400,#00E400,330483509,优,#00E400,嘉兴市,#00E400,优,31,21,#00E400,69,2026-05-08 09:00:00
81,优,330681,63,29.7257,优,--,40,20,91,优,#00E400,#00E400,7,城新小学,#00E400,32,优,优,优,330600,#00E400,120.272,#00E400,16,优,0.4,优,#00E400,#00E400,330681505,优,#00E400,绍兴市,#00E400,优,32,22,#00E400,82,2026-05-08 09:00:00
82,良,330226,100,29.2878,优,--,31,16,111,优,#00E400,#00E400,6,宁海城南站,#FFFF00,32,优,优,优,330200,#00E400,121.4201,#00E400,13,优,0.3,优,#00E400,#00E400,330226002,优,#00E400,宁波市,#00E400,优,25,18,#00E400,82,2026-05-08 09:00:00
83,良,330483,96,30.625,优,--,41,20,101,优,#00E400,#00E400,6,振东新六中站,#FFFF00,32,优,优,优,330400,#00E400,120.5613,#00E400,17,优,0.5,优,#00E400,#00E400,330483002,优,#00E400,嘉兴市,#00E400,优,32,22,#00E400,82,2026-05-08 09:00:00
84,优,330825,102,29.0392,优,--,36,19,100,优,#00E400,#00E400,5,建设大楼,#00E400,32,优,优,优,330800,#00E400,119.1675,#00E400,13,优,0.4,优,#00E400,#00E400,330825001,优,#00E400,衢州市,#00E400,优,21,25,#00E400,82,2026-05-08 09:00:00
85,良,331082,100,28.873,优,--,27,13,106,优,#00E400,#00E400,5,临海环保大楼,#FFFF00,32,优,优,优,331000,#00E400,121.1769,#00E400,9,优,0.3,优,#00E400,#00E400,331082001,优,#00E400,台州市,#00E400,优,17,16,#00E400,82,2026-05-08 09:00:00
86,良,331022,102,29.11779,优,--,26,9,102,优,#00E400,#00E400,6,三门环监楼,#FFFF00,32,优,优,优,331000,#00E400,121.382189,#00E400,9,优,0.4,优,#00E400,#00E400,331022001,优,#00E400,台州市,#00E400,优,15,16,#00E400,82,2026-05-08 09:00:00
87,--,331123,100,28.5991,优,--,24,5,--,优,#00E400,#00E400,4,遂昌民政局,--,32,优,优,优,331100,#00E400,119.2622,#00E400,9,优,0.5,优,#00E400,#00E400,331123001,优,#00E400,丽水市,#00E400,优,13,19,#00E400,82,2026-05-08 09:00:00
88,优,330483,80,30.6355,优,--,43,18,92,优,#00E400,#00E400,10,文化中心,#00E400,32,优,优,优,330400,#00E400,120.5795,#00E400,17,优,0.6,优,#00E400,#00E400,330483003,优,#00E400,嘉兴市,#00E400,优,32,24,#00E400,82,2026-05-08 09:00:00
89,良,331022,104,29.1028,优,--,28,9,108,优,#00E400,#00E400,6,心湖站,#FFFF00,33,优,优,优,331000,#00E400,121.3918,#00E400,9,优,0.3,优,#00E400,#00E400,331022002,优,#00E400,台州市,#00E400,优,16,16,#00E400,90,2026-05-08 09:00:00
90,优,331124,105,28.4516,优,--,33,16,96,优,#00E400,#00E400,6,和平水厂,#00E400,33,优,优,优,331100,#00E400,119.4699,#00E400,23,优,0.4,优,#00E400,#00E400,331124002,优,#00E400,丽水市,#00E400,优,31,19,#00E400,90,2026-05-08 09:00:00
91,优,331125,104,28.1062,优,--,38,7,98,优,#00E400,#00E400,6,云和三中,#00E400,33,优,优,优,331100,#00E400,119.5728,#00E400,18,优,0.5,优,#00E400,#00E400,331125002,优,#00E400,丽水市,#00E400,优,30,21,#00E400,90,2026-05-08 09:00:00
92,良,330212,103,29.7736,优,--,34,13,108,优,#00E400,#00E400,5,钱湖水厂,#FFFF00,33,优,优,优,330200,#00E400,121.6330,#00E400,12,优,0.4,优,#00E400,#00E400,2013302120001,优,#00E400,宁波市,#00E400,优,21,21,#00E400,90,2026-05-08 09:00:00
93,优,330329,108,27.557,优,--,23,10,100,优,#00E400,#00E400,5,罗阳,#00E400,34,优,优,优,330300,#00E400,119.7084,#00E400,12,优,0.4,优,#00E400,#00E400,330329001,优,#00E400,温州市,#00E400,优,14,13,#00E400,94,2026-05-08 09:00:00
94,优,330329,106,27.5438,优,--,18,6,97,优,#00E400,#00E400,6,泰顺实验中学,#00E400,34,优,优,优,330300,#00E400,119.716111,#00E400,10,优,0.4,优,#00E400,#00E400,330329002,优,#00E400,温州市,#00E400,优,13,12,#00E400,94,2026-05-08 09:00:00
95,优,330521,82,30.5231,优,--,40,19,91,优,#00E400,#00E400,8,地信科创园,#00E400,34,优,优,优,330500,#00E400,119.9781,#00E400,18,优,0.4,优,#00E400,#00E400,330521001,优,#00E400,湖州市,#00E400,优,34,21,#00E400,94,2026-05-08 09:00:00
96,良,330921,107,30.2669,优,--,29,13,104,优,#00E400,#00E400,6,岱山环保大楼,#FFFF00,34,优,优,优,330900,#00E400,122.2199,#00E400,15,优,0.3,优,#00E400,#00E400,330921001,优,#00E400,舟山市,#00E400,优,27,18,#00E400,94,2026-05-08 09:00:00
97,良,331082,107,28.84326,优,--,37,13,105,优,#00E400,#00E400,3,巾山实验小学,#FFFF00,34,优,优,优,331000,#00E400,121.136,#00E400,9,优,0.4,优,#00E400,#00E400,331082002,优,#00E400,台州市,#00E400,优,17,21,#00E400,94,2026-05-08 09:00:00
98,良,330225,109,29.2003,优,--,27,12,116,优,#00E400,#00E400,6,石浦新港小学,#FFFF00,35,优,优,优,330200,#00E400,121.934,#00E400,10,优,0.4,优,#00E400,#00E400,330225002,优,#00E400,宁波市,#00E400,优,23,15,#00E400,99,2026-05-08 09:00:00
99,良,330922,109,30.7269,优,--,26,8,104,优,#00E400,#00E400,7,嵊泗菜园,#FFFF00,35,优,优,优,330900,#00E400,122.4464,#00E400,12,优,0.4,优,#00E400,#00E400,330922001,优,#00E400,舟山市,#00E400,优,21,14,#00E400,99,2026-05-08 09:00:00
100,优,330213,87,29.6774,优,--,42,24,100,优,#00E400,#00E400,4,大桥市场,#00E400,36,优,优,优,330200,#00E400,121.4237,#00E400,17,优,0.4,优,#00E400,#00E400,330213001,优,#00E400,宁波市,#00E400,优,36,24,#00E400,101,2026-05-08 09:00:00
101,优,330225,83,29.4767,优,--,35,20,100,优,#00E400,#00E400,8,文峰小学,#00E400,36,优,优,优,330200,#00E400,121.8864,#00E400,22,优,0.5,优,#00E400,#00E400,330225001,优,#00E400,宁波市,#00E400,优,36,21,#00E400,101,2026-05-08 09:00:00
102,优,330383,83,27.5812,优,--,26,20,66,优,#00E400,#00E400,9,龙港,#00E400,36,优,优,优,330300,#00E400,120.5489,#00E400,25,优,0.6,优,#00E400,#00E400,330327002,优,#00E400,温州市,#00E400,优,34,17,#00E400,101,2026-05-08 09:00:00
103,优,330483,90,30.6488,优,--,43,23,95,优,#00E400,#00E400,6,茅盾小学,#00E400,36,优,优,优,330400,#00E400,120.5498,#00E400,18,优,0.4,优,#00E400,#00E400,330483001,优,#00E400,嘉兴市,#00E400,优,36,23,#00E400,101,2026-05-08 09:00:00
104,优,330521,84,30.548493,优,--,41,13,84,优,#00E400,#00E400,7,春晖小学,#00E400,36,优,优,优,330500,#00E400,119.9505,#00E400,21,优,0.5,优,#00E400,#00E400,330521003,优,#00E400,湖州市,#00E400,优,36,25,#00E400,101,2026-05-08 09:00:00
105,优,330122,56,29.7955,优,--,37,27,87,优,#00E400,#00E400,6,桐庐江南,#00E400,37,优,优,优,330100,#00E400,119.6874,#00E400,18,优,0.6,优,#00E400,#00E400,330122001,优,#00E400,杭州市,#00E400,优,37,20,#00E400,106,2026-05-08 09:00:00
106,优,330726,79,29.439787,优,--,39,18,94,优,#00E400,#00E400,5,浦江中学,#00E400,38,优,优,优,330700,#00E400,119.924638,#00E400,14,优,0.4,优,#00E400,#00E400,330726002,优,#00E400,金华市,#00E400,优,38,25,#00E400,107,2026-05-08 09:00:00
107,优,330383,86,27.5617,优,--,25,22,72,优,#00E400,#00E400,9,龙港实验中学,#00E400,40,优,优,优,330300,#00E400,120.5355,#00E400,28,优,0.5,优,#00E400,#00E400,330303101,优,#00E400,温州市,#00E400,优,32,14,#00E400,108,2026-05-08 09:00:00
108,优,330381,69,27.791645,优,--,18,23,52,优,#00E400,#00E400,6,花园桥,#00E400,41,优,优,优,330300,#00E400,120.62372,#00E400,25,优,0.5,优,#00E400,#00E400,330381001,优,#00E400,温州市,#00E400,优,41,12,#00E400,109,2026-05-08 09:00:00
109,优,330381,72,27.782284,优,--,17,23,57,优,#00E400,#00E400,11,安阳新区,#00E400,45,优,优,优,330300,#00E400,120.650915,#00E400,25,优,0.6,优,#00E400,#00E400,330381002,优,#00E400,温州市,#00E400,优,45,10,#00E400,110,2026-05-08 09:00:00
110,优,330326,87,27.6653,优,--,22,16,66,优,#00E400,#00E400,3,平阳县政府,#00E400,46,优,优,优,330300,#00E400,120.5611,#00E400,32,优,0.6,优,#00E400,#00E400,330326002,优,#00E400,温州市,#00E400,优,35,13,#00E400,111,2026-05-08 09:00:00
111,优,330327,88,27.522222,优,--,28,16,71,优,#00E400,#00E400,8,苍南中学,#00E400,49,优,优,优,330300,#00E400,120.416111,#00E400,34,优,0.7,优,#00E400,#00E400,330327004,优,#00E400,温州市,#00E400,优,47,18,#00E400,112,2026-05-08 09:00:00
112,优,330127,59,29.5995,优,--,25,12,78,优,#00E400,#00E400,--,淳安环保大楼,#00E400,--,优,--,优,330100,--,119.0481,#00E400,16,优,0.7,优,#00E400,#00E400,330127001,优,--,杭州市,#00E400,--,20,17,#00E400,113,2026-05-08 09:00:00
113,优,330326,75,27.6593,优,--,24,15,54,优,#00E400,#00E400,--,平阳监测站,#00E400,--,优,--,优,330300,--,120.5705,#00E400,32,优,0.6,优,#00E400,#00E400,330326001,优,--,温州市,#00E400,--,47,15,#00E400,113,2026-05-08 09:00:00
114,优,330824,--,29.1343,优,--,22,--,76,--,#00E400,#00E400,--,开化气象局,#00E400,--,--,--,优,330800,--,118.402,--,10,优,0.2,优,#00E400,#00E400,330824001,优,--,衢州市,--,--,21,12,#00E400,113,2026-05-08 09:00:00
115,优,331083,96,28.2221,--,--,30,14,98,优,#00E400,#00E400,5,楚门中心小学,#00E400,--,优,--,优,331000,#00E400,121.2846,#00E400,8,优,--,优,--,#00E400,331021002,优,--,台州市,#00E400,优,11,16,#00E400,113,2026-05-08 09:00:00
116,--,331121,--,28.1341,--,--,--,--,--,--,--,--,--,塔山小学,--,--,--,--,--,331100,--,120.2936,--,--,--,--,--,--,--,331121001,--,--,丽水市,--,--,--,--,--,113,2026-05-08 09:00:00
117,优,331123,--,28.5839,优,--,24,13,73,--,#00E400,#00E400,7,遂昌中学,#00E400,--,优,--,优,331100,#00E400,119.2656,#00E400,17,优,0.4,优,#00E400,#00E400,331123002,优,--,丽水市,--,优,13,23,#00E400,113,2026-05-08 09:00:00
