,O3H8_level,regioncode,O3,latitude,CO_level,SYWRW,PM10H24,NO2,O3H8,O3_level,PM10_color,PM25_color,SO2,sitename,O3H8_color,AQI,NO2_level,AQI_level,PM10H24_level,districtcode,SO2_color,longitude,NO2_color,PM25,PM10_level,CO,PM25_level,CO_color,PM25H24_color,sitecode,PM25H24_level,AQI_color,districtname,O3_color,SO2_level,PM10,PM25H24,PM10H24_color,sort,time
0,优,330328,36,27.804722,优,--,20,1,58,优,#00E400,#00E400,7,文成中学,#00E400,15,优,优,优,330300,#00E400,120.077222,#00E400,4,优,0.3,优,#00E400,#00E400,330328002,优,#00E400,温州市,#00E400,优,15,10,#00E400,1,2026-05-23 18:00:00
1,优,330328,54,27.7838,优,--,16,8,64,优,#00E400,#00E400,8,大峃,#00E400,17,优,优,优,330300,#00E400,120.085,#00E400,6,优,0.3,优,#00E400,#00E400,330328001,优,#00E400,温州市,#00E400,优,13,8,#00E400,2,2026-05-23 18:00:00
2,优,330824,54,29.1478,优,--,10,5,67,优,#00E400,#00E400,7,开化监测大楼,#00E400,17,优,优,优,330800,#00E400,118.4108,#00E400,5,优,0.4,优,#00E400,#00E400,330824002,优,#00E400,衢州市,#00E400,优,11,4,#00E400,2,2026-05-23 18:00:00
3,优,330182,57,29.4769,优,--,16,5,70,优,#00E400,#00E400,6,建德监测大楼,#00E400,18,优,优,优,330100,#00E400,119.2711,#00E400,7,优,0.6,优,#00E400,#00E400,330182T_2,优,#00E400,杭州市,#00E400,优,10,11,#00E400,4,2026-05-23 18:00:00
4,优,330329,55,27.5438,优,--,12,4,58,优,#00E400,#00E400,5,泰顺实验中学,#00E400,18,优,优,优,330300,#00E400,119.716111,#00E400,7,优,0.3,优,#00E400,#00E400,330329002,优,#00E400,温州市,#00E400,优,11,7,#00E400,4,2026-05-23 18:00:00
5,优,330824,56,29.1343,优,--,12,4,70,优,#00E400,#00E400,6,开化气象局,#00E400,18,优,优,优,330800,#00E400,118.402,#00E400,2,优,0.2,优,#00E400,#00E400,330824001,优,#00E400,衢州市,#00E400,优,12,3,#00E400,4,2026-05-23 18:00:00
6,优,331126,60,27.629585,优,--,12,8,54,优,#00E400,#00E400,2,庆元监测楼,#00E400,19,优,优,优,331100,#00E400,119.054809,#00E400,8,优,0.5,优,#00E400,#00E400,331126001,优,#00E400,丽水市,#00E400,优,14,7,#00E400,7,2026-05-23 18:00:00
7,优,331181,59,28.08007,优,--,18,7,47,优,#00E400,#00E400,7,龙泉环保大楼,#00E400,19,优,优,优,331100,#00E400,119.1328,#00E400,8,优,0.4,优,#00E400,#00E400,331181001,优,#00E400,丽水市,#00E400,优,17,9,#00E400,7,2026-05-23 18:00:00
8,优,331123,61,28.5839,优,--,19,10,44,优,#00E400,#00E400,6,遂昌中学,#00E400,20,优,优,优,331100,#00E400,119.2656,#00E400,9,优,0.5,优,#00E400,#00E400,331123002,优,#00E400,丽水市,#00E400,优,16,8,#00E400,9,2026-05-23 18:00:00
9,优,331126,62,27.6211,优,--,13,6,54,优,#00E400,#00E400,5,庆元气象局,#00E400,20,优,优,优,331100,#00E400,119.0788,#00E400,4,优,0.6,优,#00E400,#00E400,331126002,优,#00E400,丽水市,#00E400,优,7,8,#00E400,9,2026-05-23 18:00:00
10,优,331181,62,28.076,优,--,16,8,48,优,#00E400,#00E400,9,粮食大楼,#00E400,20,优,优,优,331100,#00E400,119.1217,#00E400,8,优,0.6,优,#00E400,#00E400,331181002,优,#00E400,丽水市,#00E400,优,18,6,#00E400,9,2026-05-23 18:00:00
11,优,331127,45,27.9772,优,--,11,6,47,优,#00E400,#00E400,2,景宁县政府,#00E400,20,优,优,优,331100,#00E400,119.6311,#00E400,9,优,0.4,优,#00E400,#00E400,331127002,优,#00E400,丽水市,#00E400,优,20,4,#00E400,9,2026-05-23 18:00:00
12,优,330329,58,27.557,优,--,14,10,65,优,#00E400,#00E400,4,罗阳,#00E400,21,优,优,优,330300,#00E400,119.7084,#00E400,14,优,0.5,优,#00E400,#00E400,330329001,优,#00E400,温州市,#00E400,优,21,10,#00E400,13,2026-05-23 18:00:00
13,优,330681,66,29.726389,优,--,28,29,85,优,#00E400,#00E400,6,青少年宫,#00E400,21,优,优,优,330600,#00E400,120.199722,#00E400,10,优,0.9,优,#00E400,#00E400,330681002,优,#00E400,绍兴市,#00E400,优,17,18,#00E400,13,2026-05-23 18:00:00
14,优,331121,69,28.1094,优,--,30,9,71,优,#00E400,#00E400,4,青田中学,#00E400,22,优,优,优,331100,#00E400,120.3161,#00E400,4,优,0.5,优,#00E400,#00E400,331121002,优,#00E400,丽水市,#00E400,优,7,22,#00E400,15,2026-05-23 18:00:00
15,优,331123,68,28.5991,优,--,19,9,55,优,#00E400,#00E400,5,遂昌民政局,#00E400,22,优,优,优,331100,#00E400,119.2622,#00E400,6,优,0.5,优,#00E400,#00E400,331123001,优,#00E400,丽水市,#00E400,优,12,10,#00E400,15,2026-05-23 18:00:00
16,良,330213,73,29.6506,优,--,21,15,105,优,#00E400,#00E400,7,奉化教育局,#FFFF00,23,优,优,优,330200,#00E400,121.4042,#00E400,11,优,0.5,优,#00E400,#00E400,330283005,优,#00E400,宁波市,#00E400,优,18,15,#00E400,17,2026-05-23 18:00:00
17,优,330213,64,29.693,优,--,20,13,80,优,#00E400,#00E400,6,溪口政府大楼,#00E400,23,优,优,优,330200,#00E400,121.2774,#00E400,14,优,0.4,优,#00E400,#00E400,330283T_1,优,#00E400,宁波市,#00E400,优,23,12,#00E400,17,2026-05-23 18:00:00
18,优,330881,73,28.7465,优,--,14,4,73,优,#00E400,#00E400,2,江山环保大楼,#00E400,23,优,优,优,330800,#00E400,118.6301,#00E400,7,优,0.6,优,#00E400,#00E400,330881001,优,#00E400,衢州市,#00E400,优,16,7,#00E400,17,2026-05-23 18:00:00
19,优,331125,73,28.1173,优,--,23,13,55,优,#00E400,#00E400,6,云和监测楼,#00E400,23,优,优,优,331100,#00E400,119.5626,#00E400,12,优,0.5,优,#00E400,#00E400,331125001,优,#00E400,丽水市,#00E400,优,23,14,#00E400,17,2026-05-23 18:00:00
20,优,330226,76,29.3125,优,--,20,16,95,优,#00E400,#00E400,5,宁海水利局,#00E400,24,优,优,优,330200,#00E400,121.4306,#00E400,13,优,0.7,优,#00E400,#00E400,330226001,优,#00E400,宁波市,#00E400,优,16,15,#00E400,21,2026-05-23 18:00:00
21,优,330226,76,29.2878,优,--,22,13,98,优,#00E400,#00E400,6,宁海城南站,#00E400,24,优,优,优,330200,#00E400,121.4201,#00E400,11,优,0.4,优,#00E400,#00E400,330226002,优,#00E400,宁波市,#00E400,优,21,15,#00E400,21,2026-05-23 18:00:00
22,优,330783,75,29.27739,优,--,20,5,62,优,#00E400,#00E400,5,东阳环保大楼,#00E400,24,优,优,优,330700,#00E400,120.23692,#00E400,8,优,0.7,优,#00E400,#00E400,330783002,优,#00E400,金华市,#00E400,优,12,13,#00E400,21,2026-05-23 18:00:00
23,优,330822,75,28.901,优,--,9,8,78,优,#00E400,#00E400,5,常山环保大楼,#00E400,24,优,优,优,330800,#00E400,118.5196,#00E400,4,优,0.5,优,#00E400,--,330822001,--,#00E400,衢州市,#00E400,优,14,--,#00E400,21,2026-05-23 18:00:00
24,优,331024,75,28.8589,优,--,24,10,82,优,#00E400,#00E400,7,仙居环监站,#00E400,24,优,优,优,331000,#00E400,120.7248,#00E400,4,优,0.6,优,#00E400,#00E400,331024001,优,#00E400,台州市,#00E400,优,7,15,#00E400,21,2026-05-23 18:00:00
25,优,331023,74,29.1504,优,--,19,7,69,优,#00E400,#00E400,5,育青中学,#00E400,24,优,优,优,331000,#00E400,121.0091,#00E400,1,优,0.5,优,#00E400,#00E400,331023001,优,#00E400,台州市,#00E400,优,5,13,#00E400,21,2026-05-23 18:00:00
26,优,331082,76,28.84326,优,--,25,15,84,优,#00E400,#00E400,3,巾山实验小学,#00E400,24,优,优,优,331000,#00E400,121.136,#00E400,6,优,0.6,优,#00E400,#00E400,331082002,优,#00E400,台州市,#00E400,优,10,19,#00E400,21,2026-05-23 18:00:00
27,优,331121,74,28.1341,优,--,35,7,76,优,#00E400,#00E400,5,塔山小学,#00E400,24,优,优,优,331100,#00E400,120.2936,#00E400,5,优,0.5,优,#00E400,#00E400,331121001,优,#00E400,丽水市,#00E400,优,9,30,#00E400,21,2026-05-23 18:00:00
28,优,331122,74,28.6574,优,--,12,25,77,优,#00E400,#00E400,7,缙云中学,#00E400,24,优,优,优,331100,#00E400,120.0696,#00E400,7,优,0.5,优,#00E400,#00E400,331122001,优,#00E400,丽水市,#00E400,优,15,6,#00E400,21,2026-05-23 18:00:00
29,优,330726,80,29.465746,优,--,12,4,70,优,#00E400,#00E400,6,浦江实验中学,#00E400,25,优,优,优,330700,#00E400,119.875227,#00E400,9,优,0.7,优,#00E400,#00E400,330726001,优,#00E400,金华市,#00E400,优,15,8,#00E400,30,2026-05-23 18:00:00
30,优,330781,80,29.216166,优,--,14,6,67,优,#00E400,#00E400,6,兰溪监测站,#00E400,25,优,优,优,330700,#00E400,119.459992,#00E400,9,优,0.7,优,#00E400,#00E400,330781001,优,#00E400,金华市,#00E400,优,18,8,#00E400,30,2026-05-23 18:00:00
31,优,330783,77,29.30093,优,--,17,5,66,优,#00E400,#00E400,5,广厦学院,#00E400,25,优,优,优,330700,#00E400,120.24157,#00E400,4,优,0.9,优,#00E400,#00E400,330783001,优,#00E400,金华市,#00E400,优,10,11,#00E400,30,2026-05-23 18:00:00
32,优,330881,79,28.7282,优,--,14,11,77,优,#00E400,#00E400,6,人民医院,#00E400,25,优,优,优,330800,#00E400,118.6227,#00E400,9,优,0.5,优,#00E400,#00E400,330881002,优,#00E400,衢州市,#00E400,优,16,9,#00E400,30,2026-05-23 18:00:00
33,优,330825,80,29.0464,优,--,16,7,80,优,#00E400,#00E400,5,龙游二高,#00E400,25,优,优,优,330800,#00E400,119.204,#00E400,4,优,0.4,优,#00E400,#00E400,330825002,优,#00E400,衢州市,#00E400,优,9,8,#00E400,30,2026-05-23 18:00:00
34,优,331023,79,29.1342,优,--,21,10,74,优,#00E400,#00E400,5,天台实验中学,#00E400,25,优,优,优,331000,#00E400,121.0349,#00E400,3,优,0.5,优,#00E400,#00E400,331023002,优,#00E400,台州市,#00E400,优,11,14,#00E400,30,2026-05-23 18:00:00
35,优,331082,80,28.873,优,--,23,12,84,优,#00E400,#00E400,5,临海环保大楼,#00E400,25,优,优,优,331000,#00E400,121.1769,#00E400,4,优,0.6,优,#00E400,#00E400,331082001,优,#00E400,台州市,#00E400,优,7,17,#00E400,30,2026-05-23 18:00:00
36,优,331122,79,28.6628,优,--,25,15,73,优,#00E400,#00E400,7,信访大楼,#00E400,25,优,优,优,331100,#00E400,120.0856,#00E400,8,优,0.5,优,#00E400,#00E400,331122002,优,#00E400,丽水市,#00E400,优,15,9,#00E400,30,2026-05-23 18:00:00
37,优,331124,80,28.4505,优,--,17,14,66,优,#00E400,#00E400,4,松阳监测楼,#00E400,25,优,优,优,331100,#00E400,119.4799,#00E400,8,优,0.5,优,#00E400,#00E400,331124001,优,#00E400,丽水市,#00E400,优,9,8,#00E400,30,2026-05-23 18:00:00
38,优,330727,64,29.039869,优,--,16,7,62,优,#00E400,#00E400,5,南园初中,#00E400,26,优,优,优,330700,#00E400,120.440622,#00E400,18,优,0.4,优,#00E400,#00E400,330727003,优,#00E400,金华市,#00E400,优,20,7,#00E400,39,2026-05-23 18:00:00
39,优,330822,82,28.9012,优,--,14,7,76,优,#00E400,#00E400,5,图书馆大楼,#00E400,26,优,优,优,330800,#00E400,118.5062,#00E400,6,优,0.3,优,#00E400,#00E400,330822002,优,#00E400,衢州市,#00E400,优,25,3,#00E400,39,2026-05-23 18:00:00
40,优,330182,85,29.4638,优,--,17,10,84,优,#00E400,#00E400,4,第二中学,#00E400,27,优,优,优,330100,#00E400,119.2821,#00E400,9,优,0.6,优,#00E400,#00E400,330182002,优,#00E400,杭州市,#00E400,优,16,12,#00E400,41,2026-05-23 18:00:00
41,优,330624,84,29.4938,优,--,20,11,97,优,#00E400,#00E400,4,城东站,#00E400,27,优,优,优,330600,#00E400,120.9109,#00E400,15,优,0.5,优,#00E400,#00E400,330624002,优,#00E400,绍兴市,#00E400,优,24,13,#00E400,41,2026-05-23 18:00:00
42,优,330726,86,29.439787,优,--,13,3,74,优,#00E400,#00E400,3,浦江中学,#00E400,27,优,优,优,330700,#00E400,119.924638,#00E400,10,优,0.5,优,#00E400,#00E400,330726002,优,#00E400,金华市,#00E400,优,12,9,#00E400,41,2026-05-23 18:00:00
43,优,331124,85,28.4516,优,--,17,19,74,优,#00E400,#00E400,6,和平水厂,#00E400,27,优,优,优,331100,#00E400,119.4699,#00E400,9,优,0.3,优,#00E400,#00E400,331124002,优,#00E400,丽水市,#00E400,优,20,8,#00E400,41,2026-05-23 18:00:00
44,优,330803,89,28.9844,优,--,12,9,74,优,#00E400,#00E400,4,衢州三中（市）,#00E400,28,优,优,优,330800,#00E400,118.9628,#00E400,9,优,0.7,优,#00E400,#00E400,330803704,优,#00E400,衢州市,#00E400,优,17,6,#00E400,45,2026-05-23 18:00:00
45,优,330122,87,29.7955,优,--,38,13,85,优,#00E400,#00E400,6,桐庐江南,#00E400,28,优,优,优,330100,#00E400,119.6874,#00E400,7,优,0.5,优,#00E400,#00E400,330122001,优,#00E400,杭州市,#00E400,优,13,18,#00E400,45,2026-05-23 18:00:00
46,良,330326,70,27.6653,优,--,23,18,111,优,#00E400,#00E400,5,平阳县政府,#FFFF00,28,优,优,优,330300,#00E400,120.5611,#00E400,19,优,0.7,优,#00E400,#00E400,330326002,优,#00E400,温州市,#00E400,优,25,18,#00E400,45,2026-05-23 18:00:00
47,优,330683,87,29.5901,优,--,20,10,87,优,#00E400,#00E400,6,马寅初初中,#00E400,28,优,优,优,330600,#00E400,120.8249,#00E400,7,优,0.4,优,#00E400,#00E400,330683001,优,#00E400,绍兴市,#00E400,优,15,15,#00E400,45,2026-05-23 18:00:00
48,优,331024,89,28.7403,优,--,23,10,69,优,#00E400,#00E400,6,新生中学,#00E400,28,优,优,优,331000,#00E400,120.4728,#00E400,5,优,0.6,优,#00E400,#00E400,331024002,优,#00E400,台州市,#00E400,优,7,17,#00E400,45,2026-05-23 18:00:00
49,优,330782,88,29.3686,优,--,24,10,72,优,#00E400,#00E400,7,第五中学,#00E400,28,优,优,优,330700,#00E400,120.1345,#00E400,8,优,0.6,优,#00E400,#00E400,330782003,优,#00E400,金华市,#00E400,优,10,13,#00E400,45,2026-05-23 18:00:00
50,优,330122,92,29.8058,优,--,43,7,91,优,#00E400,#00E400,4,桐庐江北,#00E400,29,优,优,优,330100,#00E400,119.669,#00E400,5,优,0.6,优,#00E400,#00E400,330122002,优,#00E400,杭州市,#00E400,优,10,18,#00E400,51,2026-05-23 18:00:00
51,优,330127,90,29.5995,优,--,18,5,57,优,#00E400,#00E400,9,淳安环保大楼,#00E400,29,优,优,优,330100,#00E400,119.0481,#00E400,8,优,0.8,优,#00E400,#00E400,330127001,优,#00E400,杭州市,#00E400,优,15,14,#00E400,51,2026-05-23 18:00:00
52,良,330327,75,27.522222,优,--,31,13,119,优,#00E400,#00E400,8,苍南中学,#FFFF00,29,优,优,优,330300,#00E400,120.416111,#00E400,16,优,0.7,优,#00E400,#00E400,330327004,优,#00E400,温州市,#00E400,优,29,22,#00E400,51,2026-05-23 18:00:00
53,优,330523,90,30.5974,优,--,18,6,75,优,#00E400,#00E400,5,安吉城东,#00E400,29,优,优,优,330500,#00E400,119.6953,#00E400,8,优,0.3,优,#00E400,#00E400,330523002,优,#00E400,湖州市,#00E400,优,7,16,#00E400,51,2026-05-23 18:00:00
54,优,330723,90,28.896108,优,--,20,14,79,优,#00E400,#00E400,8,武义县政府,#00E400,29,优,优,优,330700,#00E400,119.811352,#00E400,16,优,0.5,优,#00E400,#00E400,330723001,优,#00E400,金华市,#00E400,优,24,12,#00E400,51,2026-05-23 18:00:00
55,良,330681,96,29.7257,优,--,28,22,108,优,#00E400,#00E400,7,城新小学,#FFFF00,30,优,优,优,330600,#00E400,120.272,#00E400,9,优,0.2,优,#00E400,#00E400,330681505,优,#00E400,绍兴市,#00E400,优,13,20,#00E400,56,2026-05-23 18:00:00
56,优,330523,96,30.6422,优,--,27,9,91,优,#00E400,#00E400,7,安吉实验小学,#00E400,30,优,优,优,330500,#00E400,119.6768,#00E400,9,优,0.4,优,#00E400,#00E400,330523001,优,#00E400,湖州市,#00E400,优,14,24,#00E400,56,2026-05-23 18:00:00
57,优,330624,84,29.5036,优,--,20,11,91,优,#00E400,#00E400,4,钟楼站,#00E400,30,优,优,优,330600,#00E400,120.8938,#00E400,20,优,0.5,优,#00E400,#00E400,330624001,优,#00E400,绍兴市,#00E400,优,30,13,#00E400,56,2026-05-23 18:00:00
58,优,330781,93,29.229931,优,--,14,7,77,优,#00E400,#00E400,8,兰溪八中,#00E400,30,优,优,优,330700,#00E400,119.475172,#00E400,11,优,0.5,优,#00E400,#00E400,330781002,优,#00E400,金华市,#00E400,优,14,10,#00E400,56,2026-05-23 18:00:00
59,优,330723,96,28.9178,优,--,16,9,86,优,#00E400,#00E400,7,武义北岭幼儿园,#00E400,30,优,优,优,330700,#00E400,119.8022,#00E400,8,优,0.6,优,#00E400,#00E400,330723003,优,#00E400,金华市,#00E400,优,15,11,#00E400,56,2026-05-23 18:00:00
60,良,330282,99,30.1636,优,--,28,17,125,优,#00E400,#00E400,6,慈溪环保大楼,#FFFF00,31,优,优,优,330200,#00E400,121.2677,#00E400,17,优,0.7,优,#00E400,#00E400,330282001,优,#00E400,宁波市,#00E400,优,29,14,#00E400,61,2026-05-23 18:00:00
61,优,330324,98,28.158269,优,--,30,16,80,优,#00E400,#00E400,7,上塘,#00E400,31,优,优,优,330300,#00E400,120.694244,#00E400,8,优,0.6,优,#00E400,#00E400,330324001,优,#00E400,温州市,#00E400,优,13,17,#00E400,61,2026-05-23 18:00:00
62,良,330327,76,27.503889,优,--,31,7,105,优,#00E400,#00E400,8,灵溪,#FFFF00,31,优,优,优,330300,#00E400,120.395278,#00E400,12,优,0.5,优,#00E400,#00E400,330327001,优,#00E400,温州市,#00E400,优,31,17,#00E400,61,2026-05-23 18:00:00
63,优,330782,102,29.335473,优,--,22,15,78,优,#00E400,#00E400,4,北苑,#00E400,32,优,优,优,330700,#00E400,120.078609,#00E400,11,优,0.7,优,#00E400,#00E400,330782001,优,#00E400,金华市,#00E400,优,17,14,#00E400,64,2026-05-23 18:00:00
64,优,330782,100,29.305096,优,--,17,4,74,优,#00E400,#00E400,5,江东,#00E400,32,优,优,优,330700,#00E400,120.090442,#00E400,14,优,0.7,优,#00E400,#00E400,330782002,优,#00E400,金华市,#00E400,优,26,10,#00E400,64,2026-05-23 18:00:00
65,优,330784,93,28.90016,优,--,31,9,78,优,#00E400,#00E400,7,西城供电所,#00E400,32,优,优,优,330700,#00E400,120.01452,#00E400,9,优,0.5,优,#00E400,#00E400,330784002,优,#00E400,金华市,#00E400,优,32,16,#00E400,64,2026-05-23 18:00:00
66,良,330922,102,30.7269,优,--,16,8,101,优,#00E400,#00E400,7,嵊泗菜园,#FFFF00,32,优,优,优,330900,#00E400,122.4464,#00E400,8,优,0.5,优,#00E400,#00E400,330922001,优,#00E400,舟山市,#00E400,优,9,12,#00E400,64,2026-05-23 18:00:00
67,良,330921,103,30.2517,优,--,26,15,115,优,#00E400,#00E400,8,岱山高亭,#FFFF00,33,优,优,优,330900,#00E400,122.1958,#00E400,9,优,0.9,优,#00E400,#00E400,330921002,优,#00E400,舟山市,#00E400,优,16,16,#00E400,68,2026-05-23 18:00:00
68,良,330213,106,29.6774,优,--,23,10,124,优,#00E400,#00E400,6,大桥市场,#FFFF00,34,优,优,优,330200,#00E400,121.4237,#00E400,11,优,0.6,优,#00E400,#00E400,330213001,优,#00E400,宁波市,#00E400,优,17,17,#00E400,69,2026-05-23 18:00:00
69,优,330825,107,29.0392,优,--,13,11,100,优,#00E400,#00E400,6,建设大楼,#00E400,34,优,优,优,330800,#00E400,119.1675,#00E400,9,优,0.6,优,#00E400,#00E400,330825001,优,#00E400,衢州市,#00E400,优,11,8,#00E400,69,2026-05-23 18:00:00
70,良,330383,66,27.5617,优,--,29,67,128,优,#00E400,#00E400,6,龙港实验中学,#FFFF00,34,优,优,优,330300,#00E400,120.5355,#00E400,23,优,0.7,优,#00E400,#00E400,330303101,优,#00E400,温州市,#00E400,优,32,23,#00E400,69,2026-05-23 18:00:00
71,良,330681,109,29.6818,优,--,24,10,102,优,#00E400,#00E400,4,杨树畈,#FFFF00,35,优,优,优,330600,#00E400,120.2359,#00E400,13,优,0.6,优,#00E400,#00E400,330681001,优,#00E400,绍兴市,#00E400,优,20,19,#00E400,72,2026-05-23 18:00:00
72,优,330784,111,28.8854,优,--,25,9,90,优,#00E400,#00E400,7,永康一中,#00E400,35,优,优,优,330700,#00E400,120.0439,#00E400,11,优,0.6,优,#00E400,#00E400,330784001,优,#00E400,金华市,#00E400,优,21,18,#00E400,72,2026-05-23 18:00:00
73,良,331083,110,28.12715,优,--,24,18,116,优,#00E400,#00E400,9,玉环环监站,#FFFF00,35,优,优,优,331000,#00E400,121.2339,#00E400,16,优,1.0,优,#00E400,#00E400,331021001,优,#00E400,台州市,#00E400,优,25,19,#00E400,72,2026-05-23 18:00:00
74,良,330282,114,30.1786,优,--,27,12,137,优,#00E400,#00E400,5,慈溪实验小学,#FFFF00,36,优,优,优,330200,#00E400,121.2525,#00E400,15,优,0.6,优,#00E400,#00E400,330282002,优,#00E400,宁波市,#00E400,优,24,16,#00E400,75,2026-05-23 18:00:00
75,良,330921,113,30.2669,优,--,23,21,108,优,#00E400,#00E400,6,岱山环保大楼,#FFFF00,36,优,优,优,330900,#00E400,122.2199,#00E400,12,优,0.5,优,#00E400,#00E400,330921001,优,#00E400,舟山市,#00E400,优,15,14,#00E400,75,2026-05-23 18:00:00
76,良,330110,114,30.2635,优,--,50,12,117,优,#00E400,#00E400,8,海辰小学,#FFFF00,36,优,优,优,330100,#00E400,119.9842,#00E400,13,优,0.6,优,#00E400,#00E400,2013301100001,优,#00E400,杭州市,#00E400,优,21,33,#00E400,75,2026-05-23 18:00:00
77,优,330782,114,29.2637,优,--,23,15,80,优,#00E400,#00E400,3,儿童公园,#00E400,36,优,优,优,330700,#00E400,120.0321,#00E400,16,优,0.5,优,#00E400,#00E400,330782004,优,#00E400,金华市,#00E400,优,24,12,#00E400,75,2026-05-23 18:00:00
78,良,330326,64,27.6593,优,--,27,23,102,优,#00E400,#00E400,8,平阳监测站,#FFFF00,37,优,优,优,330300,#00E400,120.5705,#00E400,21,优,0.8,优,#00E400,#00E400,330326001,优,#00E400,温州市,#00E400,优,37,18,#00E400,79,2026-05-23 18:00:00
79,优,330521,116,30.548493,优,--,50,11,94,优,#00E400,#00E400,8,春晖小学,#00E400,37,优,优,优,330500,#00E400,119.9505,#00E400,12,优,0.6,优,#00E400,#00E400,330521003,优,#00E400,湖州市,#00E400,优,18,33,#00E400,79,2026-05-23 18:00:00
80,优,330727,66,29.051486,优,--,17,11,61,优,#00E400,#00E400,8,国税大楼,#00E400,38,优,优,优,330700,#00E400,120.438346,#00E400,15,优,0.6,优,#00E400,#00E400,330727002,优,#00E400,金华市,#00E400,优,38,6,#00E400,81,2026-05-23 18:00:00
81,优,330483,121,30.7369,优,--,39,5,98,优,#00E400,#00E400,8,植材小学,#00E400,38,优,优,优,330400,#00E400,120.4902,#00E400,15,优,0.7,优,#00E400,#00E400,330483509,优,#00E400,嘉兴市,#00E400,优,22,26,#00E400,81,2026-05-23 18:00:00
82,良,330382,122,28.0297,优,--,44,13,142,优,#00E400,#00E400,5,柳市,#FFFF00,39,优,优,优,330300,#00E400,120.891,#00E400,10,优,0.6,优,#00E400,#00E400,330382002,优,#00E400,温州市,#00E400,优,18,27,#00E400,83,2026-05-23 18:00:00
83,良,330225,110,29.4767,优,--,25,13,108,优,#00E400,#00E400,8,文峰小学,#FFFF00,40,优,优,优,330200,#00E400,121.8864,#00E400,28,优,0.7,优,#00E400,#00E400,330225001,优,#00E400,宁波市,#00E400,优,39,19,#00E400,84,2026-05-23 18:00:00
84,良,330381,115,27.791645,优,--,29,20,126,优,#00E400,#00E400,6,花园桥,#FFFF00,40,优,优,优,330300,#00E400,120.62372,#00E400,25,优,0.6,优,#00E400,#00E400,330381001,优,#00E400,温州市,#00E400,优,40,22,#00E400,84,2026-05-23 18:00:00
85,良,330521,127,30.5231,优,--,47,11,107,优,#00E400,#00E400,8,地信科创园,#FFFF00,40,优,优,优,330500,#00E400,119.9781,#00E400,12,优,0.4,优,#00E400,#FFFF00,330521001,良,#00E400,湖州市,#00E400,优,17,38,#00E400,84,2026-05-23 18:00:00
86,优,331022,107,29.11779,优,--,23,10,93,优,#00E400,#00E400,6,三门环监楼,#00E400,40,优,优,优,331000,#00E400,121.382189,#00E400,28,优,0.7,优,#00E400,#00E400,331022001,优,#00E400,台州市,#00E400,优,39,15,#00E400,84,2026-05-23 18:00:00
87,良,330522,129,31.0143,优,--,66,11,122,优,#00E400,#00E400,3,职教中心,#FFFF00,41,优,优,良,330500,#00E400,119.8935,#00E400,16,优,0.5,优,#00E400,#00E400,330522001,优,#00E400,湖州市,#00E400,优,23,33,#FFFF00,88,2026-05-23 18:00:00
88,良,330522,130,31.0263,优,--,51,12,126,优,#00E400,#00E400,5,龙山新区,#FFFF00,41,优,优,良,330500,#00E400,119.9046,#00E400,10,优,0.4,优,#00E400,#00E400,330522002,优,#00E400,湖州市,#00E400,优,16,35,#FFFF00,88,2026-05-23 18:00:00
89,良,331022,112,29.1028,优,--,25,10,115,优,#00E400,#00E400,6,心湖站,#FFFF00,41,优,优,优,331000,#00E400,121.3918,#00E400,26,优,0.5,优,#00E400,#00E400,331022002,优,#00E400,台州市,#00E400,优,41,18,#00E400,88,2026-05-23 18:00:00
90,良,331081,131,28.39136,优,--,24,7,115,优,#00E400,#00E400,4,之江高级中学,#FFFF00,41,优,优,优,331000,#00E400,121.37696,#00E400,19,优,0.8,优,#00E400,#00E400,331081002,优,#00E400,台州市,#00E400,优,36,14,#00E400,88,2026-05-23 18:00:00
91,优,331125,69,28.1062,优,--,28,8,52,优,#00E400,#00E400,6,云和三中,#00E400,41,优,优,优,331100,#00E400,119.5728,#00E400,14,优,0.5,优,#00E400,#00E400,331125002,优,#00E400,丽水市,#00E400,优,41,12,#00E400,88,2026-05-23 18:00:00
92,良,330281,137,30.0497,优,--,22,15,124,优,#00E400,#00E400,5,龙山公园,#FFFF00,43,优,优,优,330200,#00E400,121.1475,#00E400,21,优,0.6,优,#00E400,#00E400,330281001,优,#00E400,宁波市,#00E400,优,34,17,#00E400,93,2026-05-23 18:00:00
93,良,330381,118,27.782284,优,--,31,17,132,优,#00E400,#00E400,8,安阳新区,#FFFF00,43,优,优,优,330300,#00E400,120.650915,#00E400,27,优,0.7,优,#00E400,#00E400,330381002,优,#00E400,温州市,#00E400,优,43,19,#00E400,93,2026-05-23 18:00:00
94,优,330483,136,30.625,优,--,63,17,98,优,#00E400,#00E400,7,振东新六中站,#00E400,43,优,优,良,330400,#00E400,120.5613,#00E400,24,优,0.7,优,#00E400,#00E400,330483002,优,#00E400,嘉兴市,#00E400,优,36,30,#FFFF00,93,2026-05-23 18:00:00
95,优,331081,110,28.37558,优,--,18,20,95,优,#00E400,#00E400,7,温岭环监站,#00E400,43,优,优,优,331000,#00E400,121.36579,#00E400,30,优,0.8,优,#00E400,#00E400,331081001,优,#00E400,台州市,#00E400,优,32,16,#00E400,93,2026-05-23 18:00:00
96,良,330382,138,28.1209,优,--,32,23,154,优,#00E400,#00E400,4,乐成,#FFFF00,44,优,优,优,330300,#00E400,120.9659,#00E400,22,优,0.5,优,#00E400,#00E400,330382001,优,#00E400,温州市,#00E400,优,34,24,#00E400,97,2026-05-23 18:00:00
97,优,330483,138,30.6488,优,--,41,16,96,优,#00E400,#00E400,6,茅盾小学,#00E400,44,优,优,优,330400,#00E400,120.5498,#00E400,22,优,0.5,优,#00E400,#00E400,330483001,优,#00E400,嘉兴市,#00E400,优,39,24,#00E400,97,2026-05-23 18:00:00
98,良,330281,141,30.0358,优,--,22,19,130,优,#00E400,#00E400,5,姚江小学,#FFFF00,45,优,优,优,330200,#00E400,121.1221,#00E400,28,优,0.6,优,#00E400,#00E400,330281002,优,#00E400,宁波市,#00E400,优,38,16,#00E400,99,2026-05-23 18:00:00
99,良,330424,144,30.5299,优,--,39,14,156,优,#00E400,#00E400,5,海盐商贸学校,#FFFF00,45,优,优,优,330400,#00E400,120.9293,#00E400,16,优,0.5,优,#00E400,#FFFF00,330424002,良,#00E400,嘉兴市,#00E400,优,16,36,#00E400,99,2026-05-23 18:00:00
100,良,330324,144,28.044335,优,--,27,27,101,优,#00E400,#00E400,8,瓯北,#FFFF00,46,优,优,优,330300,#00E400,120.654963,#00E400,20,优,0.9,优,#00E400,#00E400,330324002,优,#00E400,温州市,#00E400,优,46,14,#00E400,101,2026-05-23 18:00:00
101,良,330383,99,27.5812,优,--,34,23,121,优,#00E400,#00E400,8,龙港,#FFFF00,46,优,优,优,330300,#00E400,120.5489,#00E400,32,优,0.6,优,#00E400,#00E400,330327002,优,#00E400,温州市,#00E400,优,35,27,#00E400,101,2026-05-23 18:00:00
102,良,331083,146,28.2221,优,--,30,18,154,优,#00E400,#00E400,7,楚门中心小学,#FFFF00,46,优,优,优,331000,#00E400,121.2846,#00E400,16,优,0.9,优,#00E400,#00E400,331021002,优,#00E400,台州市,#00E400,优,28,22,#00E400,101,2026-05-23 18:00:00
103,良,330482,159,30.7292,优,--,39,13,160,优,#00E400,#00E400,9,陆家桥村,#FFFF00,50,优,优,优,330400,#00E400,120.9953,#00E400,27,优,0.9,优,#00E400,#00E400,330482002,优,#00E400,嘉兴市,#00E400,优,38,31,#00E400,104,2026-05-23 18:00:00
104,优,330483,157,30.6355,优,--,41,12,100,优,#00E400,#00E400,9,文化中心,#00E400,50,优,优,优,330400,#00E400,120.5795,#00E400,25,优,0.9,优,#00E400,#00E400,330483003,优,#00E400,嘉兴市,#00E400,优,39,29,#00E400,104,2026-05-23 18:00:00
105,优,330305,93,27.8342,优,PM₂.₅,17,31,85,优,#00E400,#FFFF00,7,洞头气象局,#00E400,52,优,良,优,330300,#00E400,121.1502,#00E400,36,优,0.7,良,#00E400,#00E400,330305001,优,#FFFF00,温州市,#00E400,优,34,14,#00E400,106,2026-05-23 18:00:00
106,轻度污染,330424,161,30.5042,优,O₃,46,15,161,良,#00E400,#00E400,7,高级中学,#FF7E00,52,优,良,优,330400,#00E400,120.9413,#00E400,21,优,0.6,优,#00E400,#FFFF00,330424001,良,#FFFF00,嘉兴市,#FFFF00,优,23,37,#00E400,106,2026-05-23 18:00:00
107,良,330225,132,29.2003,优,PM₂.₅,27,25,120,优,#00E400,#FFFF00,9,石浦新港小学,#FFFF00,54,优,良,优,330200,#00E400,121.934,#00E400,37,优,0.7,良,#00E400,#00E400,330225002,优,#FFFF00,宁波市,#00E400,优,40,21,#00E400,108,2026-05-23 18:00:00
108,轻度污染,330482,169,30.6937,优,O₃,42,18,177,良,#00E400,#00E400,9,平湖幼儿园,#FF7E00,62,优,良,优,330400,#00E400,121.0259,#00E400,26,优,0.6,优,#00E400,#00E400,330482001,优,#FFFF00,嘉兴市,#FFFF00,优,37,31,#00E400,109,2026-05-23 18:00:00
109,良,330421,171,30.836,优,O₃,61,14,157,良,#FFFF00,#FFFF00,7,嘉善监测大楼,#FFFF00,64,优,良,良,330400,#00E400,120.9226,#00E400,37,良,0.6,良,#00E400,#FFFF00,330421001,良,#FFFF00,嘉兴市,#FFFF00,优,51,43,#FFFF00,110,2026-05-23 18:00:00
110,良,330212,176,29.7736,优,O₃,22,9,153,良,#00E400,#00E400,4,钱湖水厂,#FFFF00,70,优,良,优,330200,#00E400,121.6330,#00E400,12,优,0.7,优,#00E400,#00E400,2013302120001,优,#FFFF00,宁波市,#FFFF00,优,21,16,#00E400,111,2026-05-23 18:00:00
111,轻度污染,330421,186,30.8307,优,O₃,44,18,169,良,#00E400,#00E400,8,气象观测台,#FF7E00,83,优,良,优,330400,#00E400,120.9356,#00E400,34,优,0.8,优,#00E400,#00E400,330421002,优,#FFFF00,嘉兴市,#FFFF00,优,43,32,#00E400,112,2026-05-23 18:00:00
112,良,330481,192,30.5261,优,O₃,43,14,106,良,#FFFF00,#FFFF00,8,海宁监测大楼,#FFFF00,90,优,良,优,330400,#00E400,120.6739,#00E400,38,良,0.6,良,#00E400,#00E400,330481001,优,#FFFF00,嘉兴市,#FFFF00,优,56,27,#00E400,113,2026-05-23 18:00:00
113,良,330481,193,30.5524,优,O₃,44,16,105,良,#FFFF00,#FFFF00,7,胜利社区,#FFFF00,92,优,良,优,330400,#00E400,120.6713,#00E400,36,良,0.7,良,#00E400,#00E400,330481003,优,#FFFF00,嘉兴市,#FFFF00,优,51,24,#00E400,114,2026-05-23 18:00:00
114,良,330481,196,30.5137,优,O₃,37,14,109,良,#FFFF00,#FFFF00,9,硖石街道,#FFFF00,95,优,良,优,330400,#00E400,120.7082,#00E400,40,良,0.7,良,#00E400,#00E400,330481002,优,#FFFF00,嘉兴市,#FFFF00,优,56,26,#00E400,115,2026-05-23 18:00:00
115,--,331127,--,28.002222,--,--,--,--,--,--,--,--,--,红星小学,--,--,--,--,--,331100,--,119.636389,--,--,--,--,--,--,--,331127003,--,--,丽水市,--,--,--,--,--,116,2026-05-23 18:00:00
116,优,330127,100,29.605,优,--,20,5,65,优,#00E400,#00E400,--,老年活动中心,#00E400,--,优,--,优,330100,--,119.0372,#00E400,8,优,0.5,优,#00E400,#00E400,330127T_4,优,--,杭州市,#00E400,--,11,12,#00E400,116,2026-05-23 18:00:00
117,优,330683,88,29.5663,优,--,18,13,93,优,#00E400,--,6,丽湖小区,#00E400,--,优,--,优,330600,#00E400,120.8173,#00E400,--,优,0.5,--,#00E400,#00E400,330683002,优,--,绍兴市,#00E400,优,17,17,#00E400,116,2026-05-23 18:00:00
