,O3H8_level,regioncode,O3,latitude,CO_level,SYWRW,PM10H24,NO2,O3H8,O3_level,PM10_color,PM25_color,SO2,sitename,O3H8_color,AQI,NO2_level,AQI_level,PM10H24_level,districtcode,SO2_color,longitude,NO2_color,PM25,PM10_level,CO,PM25_level,CO_color,PM25H24_color,sitecode,PM25H24_level,AQI_color,districtname,O3_color,SO2_level,PM10,PM25H24,PM10H24_color,sort,time
0,优,330328,46,27.804722,优,--,10,4,71,优,#00E400,#00E400,8,文成中学,#00E400,15,优,优,优,330300,#00E400,120.077222,#00E400,5,优,0.3,优,#00E400,#00E400,330328002,优,#00E400,温州市,#00E400,优,11,6,#00E400,1,2026-06-08 19:00:00
1,优,330521,51,30.548493,优,--,23,24,89,优,#00E400,#00E400,7,春晖小学,#00E400,16,优,优,优,330500,#00E400,119.9505,#00E400,6,优,0.4,优,#00E400,#00E400,330521003,优,#00E400,湖州市,#00E400,优,15,13,#00E400,2,2026-06-08 19:00:00
2,优,331125,53,28.1173,优,--,17,11,88,优,#00E400,#00E400,7,云和监测楼,#00E400,18,优,优,优,331100,#00E400,119.5626,#00E400,12,优,0.4,优,#00E400,#00E400,331125001,优,#00E400,丽水市,#00E400,优,14,13,#00E400,3,2026-06-08 19:00:00
3,优,330521,63,30.5231,优,--,25,13,93,优,#00E400,#00E400,8,地信科创园,#00E400,20,优,优,优,330500,#00E400,119.9781,#00E400,6,优,0.3,优,#00E400,#00E400,330521001,优,#00E400,湖州市,#00E400,优,18,15,#00E400,4,2026-06-08 19:00:00
4,优,330326,66,27.6593,优,--,16,21,77,优,#00E400,#00E400,10,平阳监测站,#00E400,21,优,优,优,330300,#00E400,120.5705,#00E400,6,优,0.3,优,#00E400,#00E400,330326001,优,#00E400,温州市,#00E400,优,14,10,#00E400,5,2026-06-08 19:00:00
5,优,330483,66,30.7369,优,--,22,26,95,优,#00E400,#00E400,3,植材小学,#00E400,21,优,优,优,330400,#00E400,120.4902,#00E400,6,优,0.6,优,#00E400,#00E400,330483509,优,#00E400,嘉兴市,#00E400,优,13,13,#00E400,5,2026-06-08 19:00:00
6,优,330328,69,27.7838,优,--,7,8,74,优,#00E400,#00E400,7,大峃,#00E400,22,优,优,优,330300,#00E400,120.085,#00E400,6,优,0.4,优,#00E400,#00E400,330328001,优,#00E400,温州市,#00E400,优,11,5,#00E400,7,2026-06-08 19:00:00
7,优,330482,69,30.6937,优,--,24,20,91,优,#00E400,#00E400,8,平湖幼儿园,#00E400,22,优,优,优,330400,#00E400,121.0259,#00E400,9,优,0.6,优,#00E400,#00E400,330482001,优,#00E400,嘉兴市,#00E400,优,16,14,#00E400,7,2026-06-08 19:00:00
8,优,331121,70,28.1094,优,--,10,11,84,优,#00E400,#00E400,6,青田中学,#00E400,22,优,优,优,331100,#00E400,120.3161,#00E400,8,优,0.3,优,#00E400,#00E400,331121002,优,#00E400,丽水市,#00E400,优,16,6,#00E400,7,2026-06-08 19:00:00
9,优,330483,69,30.6355,优,--,24,18,92,优,#00E400,#00E400,8,文化中心,#00E400,22,优,优,优,330400,#00E400,120.5795,#00E400,5,优,0.4,优,#00E400,#00E400,330483003,优,#00E400,嘉兴市,#00E400,优,12,12,#00E400,7,2026-06-08 19:00:00
10,优,330522,73,31.0263,优,--,19,19,96,优,#00E400,#00E400,5,龙山新区,#00E400,23,优,优,优,330500,#00E400,119.9046,#00E400,4,优,0.3,优,#00E400,#00E400,330522002,优,#00E400,湖州市,#00E400,优,7,11,#00E400,11,2026-06-08 19:00:00
11,优,330482,74,30.7292,优,--,22,27,88,优,#00E400,#00E400,8,陆家桥村,#00E400,24,优,优,优,330400,#00E400,120.9953,#00E400,9,优,0.4,优,#00E400,#00E400,330482002,优,#00E400,嘉兴市,#00E400,优,15,14,#00E400,12,2026-06-08 19:00:00
12,优,330421,54,30.8307,优,--,23,48,93,优,#00E400,#00E400,9,气象观测台,#00E400,24,优,优,优,330400,#00E400,120.9356,#00E400,4,优,0.5,优,#00E400,#00E400,330421002,优,#00E400,嘉兴市,#00E400,优,20,11,#00E400,12,2026-06-08 19:00:00
13,优,330483,74,30.625,优,--,26,29,91,优,#00E400,#00E400,4,振东新六中站,#00E400,24,优,优,优,330400,#00E400,120.5613,#00E400,6,优,0.4,优,#00E400,#00E400,330483002,优,#00E400,嘉兴市,#00E400,优,10,14,#00E400,12,2026-06-08 19:00:00
14,优,330381,80,27.791645,优,--,9,11,85,优,#00E400,#00E400,6,花园桥,#00E400,25,优,优,优,330300,#00E400,120.62372,#00E400,5,优,0.5,优,#00E400,#00E400,330381001,优,#00E400,温州市,#00E400,优,13,6,#00E400,15,2026-06-08 19:00:00
15,优,330327,79,27.503889,优,--,12,11,79,优,#00E400,#00E400,9,灵溪,#00E400,25,优,优,优,330300,#00E400,120.395278,#00E400,10,优,0.4,优,#00E400,#00E400,330327001,优,#00E400,温州市,#00E400,优,15,7,#00E400,15,2026-06-08 19:00:00
16,优,330483,77,30.6488,优,--,25,23,95,优,#00E400,#00E400,4,茅盾小学,#00E400,25,优,优,优,330400,#00E400,120.5498,#00E400,7,优,0.3,优,#00E400,#00E400,330483001,优,#00E400,嘉兴市,#00E400,优,13,12,#00E400,15,2026-06-08 19:00:00
17,优,330782,78,29.335473,优,--,29,27,82,优,#00E400,#00E400,6,北苑,#00E400,25,优,优,优,330700,#00E400,120.078609,#00E400,16,优,0.8,优,#00E400,#00E400,330782001,优,#00E400,金华市,#00E400,优,25,19,#00E400,15,2026-06-08 19:00:00
18,优,330381,81,27.782284,优,--,13,15,88,优,#00E400,#00E400,8,安阳新区,#00E400,26,优,优,优,330300,#00E400,120.650915,#00E400,10,优,0.5,优,#00E400,#00E400,330381002,优,#00E400,温州市,#00E400,优,11,21,#00E400,19,2026-06-08 19:00:00
19,优,330324,83,28.044335,优,--,11,16,83,优,#00E400,#00E400,6,瓯北,#00E400,26,优,优,优,330300,#00E400,120.654963,#00E400,8,优,0.5,优,#00E400,#00E400,330324002,优,#00E400,温州市,#00E400,优,14,5,#00E400,19,2026-06-08 19:00:00
20,优,330481,83,30.5261,优,--,24,17,99,优,#00E400,#00E400,5,海宁监测大楼,#00E400,26,优,优,优,330400,#00E400,120.6739,#00E400,5,优,0.1,优,#00E400,#00E400,330481001,优,#00E400,嘉兴市,#00E400,优,9,14,#00E400,19,2026-06-08 19:00:00
21,良,330481,82,30.5137,优,--,19,17,102,优,#00E400,#00E400,9,硖石街道,#FFFF00,26,优,优,优,330400,#00E400,120.7082,#00E400,3,优,0.3,优,#00E400,#00E400,330481002,优,#00E400,嘉兴市,#00E400,优,7,10,#00E400,19,2026-06-08 19:00:00
22,优,330421,60,30.836,优,--,27,42,90,优,#00E400,#00E400,5,嘉善监测大楼,#00E400,26,优,优,优,330400,#00E400,120.9226,#00E400,13,优,0.4,优,#00E400,#00E400,330421001,优,#00E400,嘉兴市,#00E400,优,26,15,#00E400,19,2026-06-08 19:00:00
23,优,330424,81,30.5299,优,--,22,25,98,优,#00E400,#00E400,4,海盐商贸学校,#00E400,26,优,优,优,330400,#00E400,120.9293,#00E400,5,优,0.4,优,#00E400,#00E400,330424002,优,#00E400,嘉兴市,#00E400,优,14,14,#00E400,19,2026-06-08 19:00:00
24,良,330522,81,31.0143,优,--,26,18,102,优,#00E400,#00E400,4,职教中心,#FFFF00,26,优,优,优,330500,#00E400,119.8935,#00E400,4,优,0.1,优,#00E400,#00E400,330522001,优,#00E400,湖州市,#00E400,优,13,12,#00E400,19,2026-06-08 19:00:00
25,优,331024,81,28.8589,优,--,19,13,90,优,#00E400,#00E400,8,仙居环监站,#00E400,26,优,优,优,331000,#00E400,120.7248,#00E400,15,优,0.5,优,#00E400,#00E400,331024001,优,#00E400,台州市,#00E400,优,25,12,#00E400,19,2026-06-08 19:00:00
26,优,331023,83,29.1504,优,--,18,13,83,优,#00E400,#00E400,6,育青中学,#00E400,26,优,优,优,331000,#00E400,121.0091,#00E400,12,优,0.6,优,#00E400,#00E400,331023001,优,#00E400,台州市,#00E400,优,19,11,#00E400,19,2026-06-08 19:00:00
27,优,331082,73,28.84326,优,--,20,15,85,优,#00E400,#00E400,3,巾山实验小学,#00E400,26,优,优,优,331000,#00E400,121.136,#00E400,15,优,0.4,优,#00E400,#00E400,331082002,优,#00E400,台州市,#00E400,优,26,13,#00E400,19,2026-06-08 19:00:00
28,优,331081,81,28.37558,优,--,16,16,80,优,#00E400,#00E400,5,温岭环监站,#00E400,26,优,优,优,331000,#00E400,121.36579,#00E400,4,优,0.5,优,#00E400,#00E400,331081001,优,#00E400,台州市,#00E400,优,19,11,#00E400,19,2026-06-08 19:00:00
29,优,331123,83,28.5991,优,--,19,5,89,优,#00E400,#00E400,6,遂昌民政局,#00E400,26,优,优,优,331100,#00E400,119.2622,#00E400,12,优,0.5,优,#00E400,#00E400,331123001,优,#00E400,丽水市,#00E400,优,17,13,#00E400,19,2026-06-08 19:00:00
30,优,331127,83,27.9772,优,--,12,8,100,优,#00E400,#00E400,4,景宁县政府,#00E400,26,优,优,优,331100,#00E400,119.6311,#00E400,15,优,0.4,优,#00E400,#00E400,331127002,优,#00E400,丽水市,#00E400,优,16,9,#00E400,19,2026-06-08 19:00:00
31,良,330481,82,30.5524,优,--,23,16,103,优,#00E400,#00E400,6,胜利社区,#FFFF00,26,优,优,优,330400,#00E400,120.6713,#00E400,6,优,0.4,优,#00E400,#00E400,330481003,优,#00E400,嘉兴市,#00E400,优,9,13,#00E400,19,2026-06-08 19:00:00
32,良,330110,81,30.2635,优,--,30,19,109,优,#00E400,#00E400,8,海辰小学,#FFFF00,26,优,优,优,330100,#00E400,119.9842,#00E400,8,优,0.6,优,#00E400,#00E400,2013301100001,优,#00E400,杭州市,#00E400,优,13,18,#00E400,19,2026-06-08 19:00:00
33,良,330281,84,30.0497,优,--,17,21,113,优,#00E400,#00E400,4,龙山公园,#FFFF00,27,优,优,优,330200,#00E400,121.1475,#00E400,5,优,0.4,优,#00E400,#00E400,330281001,优,#00E400,宁波市,#00E400,优,10,10,#00E400,34,2026-06-08 19:00:00
34,良,330281,86,30.0358,优,--,20,25,120,优,#00E400,#00E400,6,姚江小学,#FFFF00,27,优,优,优,330200,#00E400,121.1221,#00E400,5,优,0.5,优,#00E400,#00E400,330281002,优,#00E400,宁波市,#00E400,优,10,14,#00E400,34,2026-06-08 19:00:00
35,优,330326,86,27.6653,优,--,13,13,92,优,#00E400,#00E400,9,平阳县政府,#00E400,27,优,优,优,330300,#00E400,120.5611,#00E400,8,优,0.5,优,#00E400,#00E400,330326002,优,#00E400,温州市,#00E400,优,14,8,#00E400,34,2026-06-08 19:00:00
36,优,330523,84,30.6422,优,--,22,8,100,优,#00E400,#00E400,7,安吉实验小学,#00E400,27,优,优,优,330500,#00E400,119.6768,#00E400,6,优,0.3,优,#00E400,#00E400,330523001,优,#00E400,湖州市,#00E400,优,6,18,#00E400,34,2026-06-08 19:00:00
37,优,330727,86,29.039869,优,--,21,11,90,优,#00E400,#00E400,7,南园初中,#00E400,27,优,优,优,330700,#00E400,120.440622,#00E400,11,优,0.5,优,#00E400,#00E400,330727003,优,#00E400,金华市,#00E400,优,18,14,#00E400,34,2026-06-08 19:00:00
38,优,331023,85,29.1342,优,--,17,16,90,优,#00E400,#00E400,6,天台实验中学,#00E400,27,优,优,优,331000,#00E400,121.0349,#00E400,11,优,0.5,优,#00E400,#00E400,331023002,优,#00E400,台州市,#00E400,优,13,12,#00E400,34,2026-06-08 19:00:00
39,优,331123,86,28.5839,优,--,20,5,86,优,#00E400,#00E400,6,遂昌中学,#00E400,27,优,优,优,331100,#00E400,119.2656,#00E400,9,优,0.3,优,#00E400,#00E400,331123002,优,#00E400,丽水市,#00E400,优,17,12,#00E400,34,2026-06-08 19:00:00
40,优,331124,84,28.4516,优,--,20,21,99,优,#00E400,#00E400,5,和平水厂,#00E400,27,优,优,优,331100,#00E400,119.4699,#00E400,13,优,0.5,优,#00E400,#00E400,331124002,优,#00E400,丽水市,#00E400,优,26,10,#00E400,34,2026-06-08 19:00:00
41,优,331181,86,28.076,优,--,18,12,96,优,#00E400,#00E400,9,粮食大楼,#00E400,27,优,优,优,331100,#00E400,119.1217,#00E400,9,优,0.5,优,#00E400,#00E400,331181002,优,#00E400,丽水市,#00E400,优,22,10,#00E400,34,2026-06-08 19:00:00
42,优,331127,87,28.002222,优,--,15,8,100,优,#00E400,#00E400,4,红星小学,#00E400,28,优,优,优,331100,#00E400,119.636389,#00E400,12,优,0.4,优,#00E400,#00E400,331127003,优,#00E400,丽水市,#00E400,优,22,9,#00E400,43,2026-06-08 19:00:00
43,良,330282,89,30.1636,优,--,22,18,120,优,#00E400,#00E400,3,慈溪环保大楼,#FFFF00,28,优,优,优,330200,#00E400,121.2677,#00E400,6,优,0.4,优,#00E400,#00E400,330282001,优,#00E400,宁波市,#00E400,优,11,12,#00E400,43,2026-06-08 19:00:00
44,优,330383,89,27.5812,优,--,13,18,94,优,#00E400,#00E400,7,龙港,#00E400,28,优,优,优,330300,#00E400,120.5489,#00E400,10,优,0.5,优,#00E400,#00E400,330327002,优,#00E400,温州市,#00E400,优,12,9,#00E400,43,2026-06-08 19:00:00
45,良,330424,89,30.5042,优,--,23,18,102,优,#00E400,#00E400,6,高级中学,#FFFF00,28,优,优,优,330400,#00E400,120.9413,#00E400,5,优,0.3,优,#00E400,#00E400,330424001,优,#00E400,嘉兴市,#00E400,优,9,14,#00E400,43,2026-06-08 19:00:00
46,良,330282,91,30.1786,优,--,19,16,122,优,#00E400,#00E400,4,慈溪实验小学,#FFFF00,29,优,优,优,330200,#00E400,121.2525,#00E400,7,优,0.4,优,#00E400,#00E400,330282002,优,#00E400,宁波市,#00E400,优,9,12,#00E400,47,2026-06-08 19:00:00
47,优,330382,92,28.0297,优,--,15,13,96,优,#00E400,#00E400,4,柳市,#00E400,29,优,优,优,330300,#00E400,120.891,#00E400,12,优,0.5,优,#00E400,#00E400,330382002,优,#00E400,温州市,#00E400,优,20,10,#00E400,47,2026-06-08 19:00:00
48,优,330327,85,27.522222,优,--,17,17,91,优,#00E400,#00E400,8,苍南中学,#00E400,29,优,优,优,330300,#00E400,120.416111,#00E400,20,优,0.6,优,#00E400,#00E400,330327004,优,#00E400,温州市,#00E400,优,23,12,#00E400,47,2026-06-08 19:00:00
49,优,330727,92,29.051486,优,--,17,14,92,优,#00E400,#00E400,8,国税大楼,#00E400,29,优,优,优,330700,#00E400,120.438346,#00E400,10,优,0.5,优,#00E400,#00E400,330727002,优,#00E400,金华市,#00E400,优,9,13,#00E400,47,2026-06-08 19:00:00
50,优,330824,90,29.1343,优,--,33,6,96,优,#00E400,#00E400,5,开化气象局,#00E400,29,优,优,优,330800,#00E400,118.402,#00E400,20,优,0.3,优,#00E400,#00E400,330824001,优,#00E400,衢州市,#00E400,优,28,15,#00E400,47,2026-06-08 19:00:00
51,优,331083,84,28.12715,优,--,16,14,90,优,#00E400,#00E400,9,玉环环监站,#00E400,29,优,优,优,331000,#00E400,121.2339,#00E400,20,优,0.7,优,#00E400,#00E400,331021001,优,#00E400,台州市,#00E400,优,22,11,#00E400,47,2026-06-08 19:00:00
52,优,331121,82,28.1341,优,--,12,12,93,优,#00E400,#00E400,6,塔山小学,#00E400,29,优,优,优,331100,#00E400,120.2936,#00E400,16,优,0.4,优,#00E400,#00E400,331121001,优,#00E400,丽水市,#00E400,优,29,7,#00E400,47,2026-06-08 19:00:00
53,优,331181,91,28.08007,优,--,17,9,99,优,#00E400,#00E400,8,龙泉环保大楼,#00E400,29,优,优,优,331100,#00E400,119.1328,#00E400,10,优,0.3,优,#00E400,#00E400,331181001,优,#00E400,丽水市,#00E400,优,15,11,#00E400,47,2026-06-08 19:00:00
54,优,330383,91,27.5617,优,--,12,20,100,优,#00E400,#00E400,6,龙港实验中学,#00E400,29,优,优,优,330300,#00E400,120.5355,#00E400,12,优,0.5,优,#00E400,#00E400,330303101,优,#00E400,温州市,#00E400,优,14,9,#00E400,47,2026-06-08 19:00:00
55,良,330226,94,29.3125,优,--,22,36,102,优,#00E400,#00E400,6,宁海水利局,#FFFF00,30,优,优,优,330200,#00E400,121.4306,#00E400,11,优,0.4,优,#00E400,#00E400,330226001,优,#00E400,宁波市,#00E400,优,22,13,#00E400,56,2026-06-08 19:00:00
56,优,330382,95,28.1209,优,--,7,6,98,优,#00E400,#00E400,5,乐成,#00E400,30,优,优,优,330300,#00E400,120.9659,#00E400,5,优,0.6,优,#00E400,#00E400,330382001,优,#00E400,温州市,#00E400,优,15,5,#00E400,56,2026-06-08 19:00:00
57,优,330329,94,27.5438,优,--,4,4,90,优,#00E400,#00E400,6,泰顺实验中学,#00E400,30,优,优,优,330300,#00E400,119.716111,#00E400,3,优,0.3,优,#00E400,#00E400,330329002,优,#00E400,温州市,#00E400,优,7,3,#00E400,56,2026-06-08 19:00:00
58,良,330681,96,29.726389,优,--,25,18,120,优,#00E400,#00E400,8,青少年宫,#FFFF00,30,优,优,优,330600,#00E400,120.199722,#00E400,7,优,0.2,优,#00E400,#00E400,330681002,优,#00E400,绍兴市,#00E400,优,15,14,#00E400,56,2026-06-08 19:00:00
59,优,330723,82,28.896108,优,--,27,22,98,优,#00E400,#00E400,7,武义县政府,#00E400,30,优,优,优,330700,#00E400,119.811352,#00E400,17,优,0.7,优,#00E400,#00E400,330723001,优,#00E400,金华市,#00E400,优,30,18,#00E400,56,2026-06-08 19:00:00
60,优,330784,96,28.8854,优,--,28,16,100,优,#00E400,#00E400,7,永康一中,#00E400,30,优,优,优,330700,#00E400,120.0439,#00E400,12,优,0.6,优,#00E400,#00E400,330784001,优,#00E400,金华市,#00E400,优,22,16,#00E400,56,2026-06-08 19:00:00
61,优,330784,87,28.90016,优,--,31,12,91,优,#00E400,#00E400,8,西城供电所,#00E400,30,优,优,优,330700,#00E400,120.01452,#00E400,21,优,0.5,优,#00E400,#00E400,330784002,优,#00E400,金华市,#00E400,优,27,19,#00E400,56,2026-06-08 19:00:00
62,优,331125,93,28.1062,优,--,24,7,97,优,#00E400,#00E400,7,云和三中,#00E400,30,优,优,优,331100,#00E400,119.5728,#00E400,13,优,0.4,优,#00E400,#00E400,331125002,优,#00E400,丽水市,#00E400,优,25,15,#00E400,56,2026-06-08 19:00:00
63,优,331126,94,27.629585,优,--,15,6,86,优,#00E400,#00E400,5,庆元监测楼,#00E400,30,优,优,优,331100,#00E400,119.054809,#00E400,7,优,0.5,优,#00E400,#00E400,331126001,优,#00E400,丽水市,#00E400,优,11,7,#00E400,56,2026-06-08 19:00:00
64,优,330324,97,28.158269,优,--,9,11,99,优,#00E400,#00E400,7,上塘,#00E400,31,优,优,优,330300,#00E400,120.694244,#00E400,7,优,0.6,优,#00E400,#00E400,330324001,优,#00E400,温州市,#00E400,优,12,4,#00E400,65,2026-06-08 19:00:00
65,优,330329,99,27.557,优,--,8,7,94,优,#00E400,#00E400,5,罗阳,#00E400,31,优,优,优,330300,#00E400,119.7084,#00E400,4,优,0.4,优,#00E400,#00E400,330329001,优,#00E400,温州市,#00E400,优,6,3,#00E400,65,2026-06-08 19:00:00
66,优,330782,98,29.305096,优,--,30,24,89,优,#00E400,#00E400,6,江东,#00E400,31,优,优,优,330700,#00E400,120.090442,#00E400,18,优,0.7,优,#00E400,#00E400,330782002,优,#00E400,金华市,#00E400,优,30,20,#00E400,65,2026-06-08 19:00:00
67,良,330824,99,29.1478,优,--,27,7,105,优,#00E400,#00E400,7,开化监测大楼,#FFFF00,31,优,优,优,330800,#00E400,118.4108,#00E400,15,优,0.5,优,#00E400,#00E400,330824002,优,#00E400,衢州市,#00E400,优,24,16,#00E400,65,2026-06-08 19:00:00
68,良,330921,99,30.2517,优,--,22,8,120,优,#00E400,#00E400,7,岱山高亭,#FFFF00,31,优,优,优,330900,#00E400,122.1958,#00E400,3,优,0.4,优,#00E400,#00E400,330921002,优,#00E400,舟山市,#00E400,优,9,12,#00E400,65,2026-06-08 19:00:00
69,良,331122,98,28.6574,优,--,25,23,106,优,#00E400,#00E400,6,缙云中学,#FFFF00,31,优,优,优,331100,#00E400,120.0696,#00E400,20,优,0.6,优,#00E400,#00E400,331122001,优,#00E400,丽水市,#00E400,优,31,18,#00E400,65,2026-06-08 19:00:00
70,优,331122,87,28.6628,优,--,24,18,92,优,#00E400,#00E400,7,信访大楼,#00E400,31,优,优,优,331100,#00E400,120.0856,#00E400,19,优,0.5,优,#00E400,#00E400,331122002,优,#00E400,丽水市,#00E400,优,31,16,#00E400,65,2026-06-08 19:00:00
71,优,331126,98,27.6211,优,--,10,4,93,优,#00E400,#00E400,5,庆元气象局,#00E400,31,优,优,优,331100,#00E400,119.0788,#00E400,7,优,0.6,优,#00E400,#00E400,331126002,优,#00E400,丽水市,#00E400,优,13,5,#00E400,65,2026-06-08 19:00:00
72,良,330681,102,29.7257,优,--,26,14,123,优,#00E400,#00E400,8,城新小学,#FFFF00,32,优,优,优,330600,#00E400,120.272,#00E400,7,优,0.5,优,#00E400,#00E400,330681505,优,#00E400,绍兴市,#00E400,优,16,15,#00E400,73,2026-06-08 19:00:00
73,良,330213,101,29.6506,优,--,21,11,101,优,#00E400,#00E400,6,奉化教育局,#FFFF00,32,优,优,优,330200,#00E400,121.4042,#00E400,8,优,0.5,优,#00E400,#00E400,330283005,优,#00E400,宁波市,#00E400,优,11,14,#00E400,73,2026-06-08 19:00:00
74,良,330226,102,29.2878,优,--,22,21,105,优,#00E400,#00E400,7,宁海城南站,#FFFF00,32,优,优,优,330200,#00E400,121.4201,#00E400,10,优,0.4,优,#00E400,#00E400,330226002,优,#00E400,宁波市,#00E400,优,18,14,#00E400,73,2026-06-08 19:00:00
75,良,330681,101,29.6818,优,--,21,15,119,优,#00E400,#00E400,6,杨树畈,#FFFF00,32,优,优,优,330600,#00E400,120.2359,#00E400,5,优,0.4,优,#00E400,#00E400,330681001,优,#00E400,绍兴市,#00E400,优,16,12,#00E400,73,2026-06-08 19:00:00
76,优,330624,61,29.4938,优,--,26,18,73,优,#00E400,#00E400,3,城东站,#00E400,32,优,优,优,330600,#00E400,120.9109,#00E400,17,优,0.5,优,#00E400,#00E400,330624002,优,#00E400,绍兴市,#00E400,优,32,16,#00E400,73,2026-06-08 19:00:00
77,优,330783,94,29.27739,优,--,26,19,87,优,#00E400,#00E400,7,东阳环保大楼,#00E400,32,优,优,优,330700,#00E400,120.23692,#00E400,20,优,0.6,优,#00E400,#00E400,330783002,优,#00E400,金华市,#00E400,优,32,19,#00E400,73,2026-06-08 19:00:00
78,良,330921,100,30.2669,优,--,24,14,120,优,#00E400,#00E400,5,岱山环保大楼,#FFFF00,32,优,优,优,330900,#00E400,122.2199,#00E400,4,优,0.4,优,#00E400,#00E400,330921001,优,#00E400,舟山市,#00E400,优,8,14,#00E400,73,2026-06-08 19:00:00
79,优,331024,76,28.7403,优,--,14,12,92,优,#00E400,#00E400,6,新生中学,#00E400,32,优,优,优,331000,#00E400,120.4728,#00E400,22,优,0.4,优,#00E400,#00E400,331024002,优,#00E400,台州市,#00E400,优,2,16,#00E400,73,2026-06-08 19:00:00
80,优,331022,101,29.11779,优,--,21,13,98,优,#00E400,#00E400,6,三门环监楼,#00E400,32,优,优,优,331000,#00E400,121.382189,#00E400,7,优,0.5,优,#00E400,#00E400,331022001,优,#00E400,台州市,#00E400,优,12,13,#00E400,73,2026-06-08 19:00:00
81,良,331081,101,28.39136,优,--,17,11,101,优,#00E400,#00E400,3,之江高级中学,#FFFF00,32,优,优,优,331000,#00E400,121.37696,#00E400,18,优,0.5,优,#00E400,#00E400,331081002,优,#00E400,台州市,#00E400,优,29,10,#00E400,73,2026-06-08 19:00:00
82,优,330803,82,28.9844,优,--,39,13,81,优,#00E400,#00E400,7,衢州三中（市）,#00E400,33,优,优,优,330800,#00E400,118.9628,#00E400,19,优,0.5,优,#00E400,#00E400,330803704,优,#00E400,衢州市,#00E400,优,33,24,#00E400,83,2026-06-08 19:00:00
83,良,330213,104,29.693,优,--,22,10,106,优,#00E400,#00E400,5,溪口政府大楼,#FFFF00,33,优,优,优,330200,#00E400,121.2774,#00E400,4,优,0.3,优,#00E400,#00E400,330283T_1,优,#00E400,宁波市,#00E400,优,10,13,#00E400,83,2026-06-08 19:00:00
84,良,330213,105,29.6774,优,--,26,14,108,优,#00E400,#00E400,5,大桥市场,#FFFF00,33,优,优,优,330200,#00E400,121.4237,#00E400,5,优,0.5,优,#00E400,#00E400,330213001,优,#00E400,宁波市,#00E400,优,11,14,#00E400,83,2026-06-08 19:00:00
85,优,330225,103,29.4767,优,--,25,15,96,优,#00E400,#00E400,8,文峰小学,#00E400,33,优,优,优,330200,#00E400,121.8864,#00E400,5,优,0.5,优,#00E400,#00E400,330225001,优,#00E400,宁波市,#00E400,优,10,15,#00E400,83,2026-06-08 19:00:00
86,良,330305,104,27.8342,优,--,15,10,103,优,#00E400,#00E400,7,洞头气象局,#FFFF00,33,优,优,优,330300,#00E400,121.1502,#00E400,12,优,0.5,优,#00E400,#00E400,330305001,优,#00E400,温州市,#00E400,优,19,8,#00E400,83,2026-06-08 19:00:00
87,良,330726,105,29.465746,优,--,26,20,112,优,#00E400,#00E400,7,浦江实验中学,#FFFF00,33,优,优,优,330700,#00E400,119.875227,#00E400,13,优,0.5,优,#00E400,#00E400,330726001,优,#00E400,金华市,#00E400,优,23,16,#00E400,83,2026-06-08 19:00:00
88,良,330726,104,29.439787,优,--,30,22,112,优,#00E400,#00E400,4,浦江中学,#FFFF00,33,优,优,优,330700,#00E400,119.924638,#00E400,7,优,0.4,优,#00E400,#00E400,330726002,优,#00E400,金华市,#00E400,优,21,15,#00E400,83,2026-06-08 19:00:00
89,良,331083,104,28.2221,优,--,13,14,104,优,#00E400,#00E400,6,楚门中心小学,#FFFF00,33,优,优,优,331000,#00E400,121.2846,#00E400,16,优,0.8,优,#00E400,#00E400,331021002,优,#00E400,台州市,#00E400,优,24,9,#00E400,83,2026-06-08 19:00:00
90,优,330723,79,28.9178,优,--,28,22,98,优,#00E400,#00E400,8,武义北岭幼儿园,#00E400,33,优,优,优,330700,#00E400,119.8022,#00E400,23,优,0.7,优,#00E400,#00E400,330723003,优,#00E400,金华市,#00E400,优,33,17,#00E400,83,2026-06-08 19:00:00
91,良,330122,107,29.7955,优,--,35,15,119,优,#00E400,#00E400,7,桐庐江南,#FFFF00,34,优,优,优,330100,#00E400,119.6874,#00E400,14,优,0.6,优,#00E400,#00E400,330122001,优,#00E400,杭州市,#00E400,优,17,23,#00E400,92,2026-06-08 19:00:00
92,良,330881,107,28.7282,优,--,30,10,104,优,#00E400,#00E400,5,人民医院,#FFFF00,34,优,优,优,330800,#00E400,118.6227,#00E400,16,优,0.5,优,#00E400,#00E400,330881002,优,#00E400,衢州市,#00E400,优,26,25,#00E400,92,2026-06-08 19:00:00
93,良,330782,107,29.3686,优,--,34,21,109,优,#00E400,#00E400,8,第五中学,#FFFF00,34,优,优,优,330700,#00E400,120.1345,#00E400,12,优,0.7,优,#00E400,#00E400,330782003,优,#00E400,金华市,#00E400,优,25,17,#00E400,92,2026-06-08 19:00:00
94,良,330212,107,29.7736,优,--,22,17,120,优,#00E400,#00E400,5,钱湖水厂,#FFFF00,34,优,优,优,330200,#00E400,121.6330,#00E400,5,优,0.3,优,#00E400,#00E400,2013302120001,优,#00E400,宁波市,#00E400,优,13,12,#00E400,92,2026-06-08 19:00:00
95,良,330182,109,29.4769,优,--,33,13,116,优,#00E400,#00E400,8,建德监测大楼,#FFFF00,35,优,优,优,330100,#00E400,119.2711,#00E400,17,优,0.6,优,#00E400,#00E400,330182T_2,优,#00E400,杭州市,#00E400,优,24,22,#00E400,96,2026-06-08 19:00:00
96,良,330127,109,29.5995,优,--,26,8,114,优,#00E400,#00E400,8,淳安环保大楼,#FFFF00,35,优,优,优,330100,#00E400,119.0481,#00E400,9,优,0.5,优,#00E400,#00E400,330127001,优,#00E400,杭州市,#00E400,优,13,18,#00E400,96,2026-06-08 19:00:00
97,良,330683,110,29.5901,优,--,28,13,116,优,#00E400,#00E400,5,马寅初初中,#FFFF00,35,优,优,优,330600,#00E400,120.8249,#00E400,9,优,0.5,优,#00E400,#00E400,330683001,优,#00E400,绍兴市,#00E400,优,16,17,#00E400,96,2026-06-08 19:00:00
98,良,330922,109,30.7269,优,--,19,4,111,优,#00E400,#00E400,7,嵊泗菜园,#FFFF00,35,优,优,优,330900,#00E400,122.4464,#00E400,8,优,0.4,优,#00E400,#00E400,330922001,优,#00E400,舟山市,#00E400,优,11,11,#00E400,96,2026-06-08 19:00:00
99,优,331082,110,28.873,优,--,17,16,99,优,#00E400,#00E400,4,临海环保大楼,#00E400,35,优,优,优,331000,#00E400,121.1769,#00E400,11,优,0.5,优,#00E400,#00E400,331082001,优,#00E400,台州市,#00E400,优,19,11,#00E400,96,2026-06-08 19:00:00
100,良,330122,115,29.8058,优,--,32,13,124,优,#00E400,#00E400,5,桐庐江北,#FFFF00,36,优,优,优,330100,#00E400,119.669,#00E400,11,优,0.3,优,#00E400,#00E400,330122002,优,#00E400,杭州市,#00E400,优,15,20,#00E400,101,2026-06-08 19:00:00
101,良,330127,114,29.605,优,--,30,10,120,优,#00E400,#00E400,12,老年活动中心,#FFFF00,36,优,优,优,330100,#00E400,119.0372,#00E400,9,优,0.5,优,#00E400,#00E400,330127T_4,优,#00E400,杭州市,#00E400,优,18,17,#00E400,101,2026-06-08 19:00:00
102,良,331022,115,29.1028,优,--,19,13,107,优,#00E400,#00E400,5,心湖站,#FFFF00,36,优,优,优,331000,#00E400,121.3918,#00E400,6,优,0.4,优,#00E400,#00E400,331022002,优,#00E400,台州市,#00E400,优,11,12,#00E400,101,2026-06-08 19:00:00
103,优,331124,76,28.4505,优,--,20,29,90,优,#00E400,#00E400,4,松阳监测楼,#00E400,36,优,优,优,331100,#00E400,119.4799,#00E400,25,优,0.5,优,#00E400,#00E400,331124001,优,#00E400,丽水市,#00E400,优,20,17,#00E400,101,2026-06-08 19:00:00
104,良,330182,117,29.4638,优,--,36,9,120,优,#00E400,#00E400,5,第二中学,#FFFF00,37,优,优,优,330100,#00E400,119.2821,#00E400,15,优,0.5,优,#00E400,#00E400,330182002,优,#00E400,杭州市,#00E400,优,24,23,#00E400,105,2026-06-08 19:00:00
105,良,330683,116,29.5663,优,--,19,11,116,优,#00E400,#00E400,3,丽湖小区,#FFFF00,37,优,优,优,330600,#00E400,120.8173,#00E400,11,优,0.4,优,#00E400,#00E400,330683002,优,#00E400,绍兴市,#00E400,优,15,16,#00E400,105,2026-06-08 19:00:00
106,良,330225,120,29.2003,优,--,20,15,114,优,#00E400,#00E400,7,石浦新港小学,#FFFF00,38,优,优,优,330200,#00E400,121.934,#00E400,8,优,0.6,优,#00E400,#00E400,330225002,优,#00E400,宁波市,#00E400,优,17,13,#00E400,107,2026-06-08 19:00:00
107,优,330822,99,28.9012,优,--,36,17,97,优,#00E400,#00E400,5,图书馆大楼,#00E400,38,优,优,优,330800,#00E400,118.5062,#00E400,24,优,0.4,优,#00E400,#00E400,330822002,优,#00E400,衢州市,#00E400,优,38,22,#00E400,107,2026-06-08 19:00:00
108,良,330881,120,28.7465,优,--,31,10,116,优,#00E400,#00E400,4,江山环保大楼,#FFFF00,38,优,优,优,330800,#00E400,118.6301,#00E400,17,优,0.4,优,#00E400,#00E400,330881001,优,#00E400,衢州市,#00E400,优,29,21,#00E400,107,2026-06-08 19:00:00
109,良,330825,120,29.0392,优,--,34,11,112,优,#00E400,#00E400,6,建设大楼,#FFFF00,38,优,优,优,330800,#00E400,119.1675,#00E400,22,优,0.4,优,#00E400,#00E400,330825001,优,#00E400,衢州市,#00E400,优,32,22,#00E400,107,2026-06-08 19:00:00
110,良,330825,112,29.0464,优,--,46,12,107,优,#00E400,#00E400,5,龙游二高,#FFFF00,41,优,优,优,330800,#00E400,119.204,#00E400,17,优,0.4,优,#00E400,#00E400,330825002,优,#00E400,衢州市,#00E400,优,41,22,#00E400,111,2026-06-08 19:00:00
111,优,330822,98,28.901,优,--,34,16,97,优,#00E400,#00E400,5,常山环保大楼,#00E400,42,优,优,优,330800,#00E400,118.5196,#00E400,23,优,0.5,优,#00E400,#00E400,330822001,优,#00E400,衢州市,#00E400,优,42,19,#00E400,112,2026-06-08 19:00:00
112,优,330781,79,29.216166,优,--,29,30,100,优,#00E400,#00E400,7,兰溪监测站,#00E400,46,优,优,优,330700,#00E400,119.459992,#00E400,26,优,0.7,优,#00E400,#00E400,330781001,优,#00E400,金华市,#00E400,优,46,19,#00E400,113,2026-06-08 19:00:00
113,优,330781,79,29.229931,优,--,31,24,93,优,#00E400,#00E400,7,兰溪八中,#00E400,49,优,优,优,330700,#00E400,119.475172,#00E400,34,优,0.5,优,#00E400,#00E400,330781002,优,#00E400,金华市,#00E400,优,47,20,#00E400,114,2026-06-08 19:00:00
114,--,330523,--,30.5974,--,--,--,--,--,--,--,--,--,安吉城东,--,--,--,--,--,330500,--,119.6953,--,--,--,--,--,--,--,330523002,--,--,湖州市,--,--,--,--,--,115,2026-06-08 19:00:00
115,优,330624,51,29.5036,优,--,28,--,75,优,#00E400,#00E400,2,钟楼站,#00E400,--,--,--,优,330600,#00E400,120.8938,--,18,优,0.5,优,#00E400,#00E400,330624001,优,--,绍兴市,#00E400,优,32,16,#00E400,115,2026-06-08 19:00:00
116,优,330783,90,29.30093,--,--,39,21,80,优,#FFFF00,#00E400,6,广厦学院,#00E400,--,优,--,优,330700,#00E400,120.24157,#00E400,15,良,--,优,--,#00E400,330783001,优,--,金华市,#00E400,优,54,22,#00E400,115,2026-06-08 19:00:00
117,优,330782,58,29.2637,优,--,37,--,78,优,#00E400,#00E400,5,儿童公园,#00E400,--,--,--,优,330700,#00E400,120.0321,--,22,优,0.5,优,#00E400,#00E400,330782004,优,--,金华市,#00E400,优,43,21,#00E400,115,2026-06-08 19:00:00
