,O3H8_level,regioncode,O3,latitude,CO_level,SYWRW,PM10H24,NO2,O3H8,O3_level,PM10_color,PM25_color,SO2,sitename,O3H8_color,AQI,NO2_level,AQI_level,PM10H24_level,districtcode,SO2_color,longitude,NO2_color,PM25,PM10_level,CO,PM25_level,CO_color,PM25H24_color,sitecode,PM25H24_level,AQI_color,districtname,O3_color,SO2_level,PM10,PM25H24,PM10H24_color,sort,time
0,优,331181,18,28.076,优,--,14,6,34,优,#00E400,#00E400,9,粮食大楼,#00E400,10,优,优,优,331100,#00E400,119.1217,#00E400,5,优,0.5,优,#00E400,#00E400,331181002,优,#00E400,丽水市,#00E400,优,10,8,#00E400,1,2026-06-18 06:00:00
1,优,330329,33,27.5438,优,--,10,7,41,优,#00E400,#00E400,7,泰顺实验中学,#00E400,11,优,优,优,330300,#00E400,119.716111,#00E400,5,优,0.3,优,#00E400,#00E400,330329002,优,#00E400,温州市,#00E400,优,11,6,#00E400,2,2026-06-18 06:00:00
2,优,330727,35,29.051486,优,--,18,14,14,优,#00E400,#00E400,9,国税大楼,#00E400,11,优,优,优,330700,#00E400,120.438346,#00E400,3,优,0.5,优,#00E400,#00E400,330727002,优,#00E400,金华市,#00E400,优,8,10,#00E400,2,2026-06-18 06:00:00
3,优,331126,19,27.629585,优,--,10,6,26,优,#00E400,#00E400,4,庆元监测楼,#00E400,11,优,优,优,331100,#00E400,119.054809,#00E400,3,优,0.5,优,#00E400,#00E400,331126001,优,#00E400,丽水市,#00E400,优,11,5,#00E400,2,2026-06-18 06:00:00
4,优,330327,34,27.503889,优,--,12,9,39,优,#00E400,#00E400,9,灵溪,#00E400,12,优,优,优,330300,#00E400,120.395278,#00E400,5,优,0.6,优,#00E400,#00E400,330327001,优,#00E400,温州市,#00E400,优,12,7,#00E400,5,2026-06-18 06:00:00
5,优,330327,38,27.522222,优,--,13,12,41,优,#00E400,#00E400,9,苍南中学,#00E400,12,优,优,优,330300,#00E400,120.416111,#00E400,6,优,0.7,优,#00E400,#00E400,330327004,优,#00E400,温州市,#00E400,优,9,8,#00E400,5,2026-06-18 06:00:00
6,优,331123,11,28.5991,优,--,16,5,15,优,#00E400,#00E400,5,遂昌民政局,#00E400,12,优,优,优,331100,#00E400,119.2622,#00E400,2,优,0.5,优,#00E400,#00E400,331123001,优,#00E400,丽水市,#00E400,优,12,8,#00E400,5,2026-06-18 06:00:00
7,优,330723,40,28.896108,优,--,33,10,40,优,#00E400,#00E400,9,武义县政府,#00E400,13,优,优,优,330700,#00E400,119.811352,#00E400,6,优,0.6,优,#00E400,#00E400,330723001,优,#00E400,金华市,#00E400,优,13,22,#00E400,8,2026-06-18 06:00:00
8,优,330727,24,29.039869,优,--,20,12,11,优,#00E400,#00E400,6,南园初中,#00E400,13,优,优,优,330700,#00E400,120.440622,#00E400,5,优,0.5,优,#00E400,#00E400,330727003,优,#00E400,金华市,#00E400,优,13,13,#00E400,8,2026-06-18 06:00:00
9,优,330822,39,28.901,优,--,20,20,61,优,#00E400,#00E400,5,常山环保大楼,#00E400,13,优,优,优,330800,#00E400,118.5196,#00E400,2,优,0.6,优,#00E400,#00E400,330822001,优,#00E400,衢州市,#00E400,优,8,10,#00E400,8,2026-06-18 06:00:00
10,优,330922,41,30.7269,优,--,16,7,55,优,#00E400,#00E400,7,嵊泗菜园,#00E400,13,优,优,优,330900,#00E400,122.4464,#00E400,6,优,0.3,优,#00E400,#00E400,330922001,优,#00E400,舟山市,#00E400,优,9,12,#00E400,8,2026-06-18 06:00:00
11,优,331081,39,28.37558,优,--,12,10,45,优,#00E400,#00E400,7,温岭环监站,#00E400,13,优,优,优,331000,#00E400,121.36579,#00E400,7,优,0.5,优,#00E400,#00E400,331081001,优,#00E400,台州市,#00E400,优,13,8,#00E400,8,2026-06-18 06:00:00
12,优,331081,29,28.39136,优,--,11,11,36,优,#00E400,#00E400,5,之江高级中学,#00E400,13,优,优,优,331000,#00E400,121.37696,#00E400,9,优,0.5,优,#00E400,#00E400,331081002,优,#00E400,台州市,#00E400,优,13,7,#00E400,8,2026-06-18 06:00:00
13,优,331123,4,28.5839,优,--,16,7,12,优,#00E400,#00E400,7,遂昌中学,#00E400,13,优,优,优,331100,#00E400,119.2656,#00E400,2,优,0.6,优,#00E400,#00E400,331123002,优,#00E400,丽水市,#00E400,优,13,9,#00E400,8,2026-06-18 06:00:00
14,优,331181,13,28.08007,优,--,13,7,32,优,#00E400,#00E400,8,龙泉环保大楼,#00E400,13,优,优,优,331100,#00E400,119.1328,#00E400,7,优,0.4,优,#00E400,#00E400,331181001,优,#00E400,丽水市,#00E400,优,13,7,#00E400,8,2026-06-18 06:00:00
15,--,330381,5,27.791645,优,--,17,20,--,优,#00E400,#00E400,5,花园桥,--,14,优,优,优,330300,#00E400,120.62372,#00E400,7,优,0.6,优,#00E400,#00E400,330381001,优,#00E400,温州市,#00E400,优,14,9,#00E400,16,2026-06-18 06:00:00
16,优,330383,43,27.5617,优,--,14,15,48,优,#00E400,#00E400,7,龙港实验中学,#00E400,14,优,优,优,330300,#00E400,120.5355,#00E400,7,优,0.5,优,#00E400,#00E400,330303101,优,#00E400,温州市,#00E400,优,14,8,#00E400,16,2026-06-18 06:00:00
17,优,330803,47,28.9844,优,--,31,2,57,优,#00E400,#00E400,6,衢州三中（市）,#00E400,15,优,优,优,330800,#00E400,118.9628,#00E400,5,优,0.4,优,#00E400,#00E400,330803704,优,#00E400,衢州市,#00E400,优,5,20,#00E400,18,2026-06-18 06:00:00
18,优,330329,46,27.557,优,--,15,11,50,优,#00E400,#00E400,6,罗阳,#00E400,15,优,优,优,330300,#00E400,119.7084,#00E400,8,优,0.4,优,#00E400,#00E400,330329001,优,#00E400,温州市,#00E400,优,14,7,#00E400,18,2026-06-18 06:00:00
19,优,330383,28,27.5812,优,--,16,16,40,优,#00E400,#00E400,7,龙港,#00E400,15,优,优,优,330300,#00E400,120.5489,#00E400,8,优,0.6,优,#00E400,#00E400,330327002,优,#00E400,温州市,#00E400,优,15,10,#00E400,18,2026-06-18 06:00:00
20,优,330825,31,29.0464,优,--,33,7,44,优,#00E400,#00E400,5,龙游二高,#00E400,15,优,优,优,330800,#00E400,119.204,#00E400,6,优,0.4,优,#00E400,#00E400,330825002,优,#00E400,衢州市,#00E400,优,15,20,#00E400,18,2026-06-18 06:00:00
21,优,331126,19,27.6211,优,--,12,5,34,优,#00E400,#00E400,5,庆元气象局,#00E400,15,优,优,优,331100,#00E400,119.0788,#00E400,4,优,0.5,优,#00E400,#00E400,331126002,优,#00E400,丽水市,#00E400,优,15,7,#00E400,18,2026-06-18 06:00:00
22,优,330723,24,28.9178,优,--,33,17,32,优,#00E400,#00E400,8,武义北岭幼儿园,#00E400,15,优,优,优,330700,#00E400,119.8022,#00E400,8,优,0.7,优,#00E400,#00E400,330723003,优,#00E400,金华市,#00E400,优,15,20,#00E400,18,2026-06-18 06:00:00
23,优,330127,20,29.605,优,--,19,5,26,优,#00E400,#00E400,9,老年活动中心,#00E400,16,优,优,优,330100,#00E400,119.0372,#00E400,9,优,0.6,优,#00E400,#00E400,330127T_4,优,#00E400,杭州市,#00E400,优,16,12,#00E400,24,2026-06-18 06:00:00
24,优,330781,49,29.229931,优,--,23,8,32,优,#00E400,#00E400,8,兰溪八中,#00E400,16,优,优,优,330700,#00E400,119.475172,#00E400,7,优,0.6,优,#00E400,#00E400,330781002,优,#00E400,金华市,#00E400,优,9,16,#00E400,24,2026-06-18 06:00:00
25,优,330822,49,28.9012,优,--,22,12,68,优,#00E400,#00E400,4,图书馆大楼,#00E400,16,优,优,优,330800,#00E400,118.5062,#00E400,2,优,0.4,优,#00E400,#00E400,330822002,优,#00E400,衢州市,#00E400,优,14,11,#00E400,24,2026-06-18 06:00:00
26,优,331122,49,28.6628,优,--,25,16,48,优,#00E400,#00E400,7,信访大楼,#00E400,16,优,优,优,331100,#00E400,120.0856,#00E400,7,优,0.6,优,#00E400,#00E400,331122002,优,#00E400,丽水市,#00E400,优,14,12,#00E400,24,2026-06-18 06:00:00
27,优,330781,52,29.216166,优,--,26,6,33,优,#00E400,#00E400,7,兰溪监测站,#00E400,17,优,优,优,330700,#00E400,119.459992,#00E400,7,优,0.7,优,#00E400,#00E400,330781001,优,#00E400,金华市,#00E400,优,7,16,#00E400,28,2026-06-18 06:00:00
28,优,330881,27,28.7465,优,--,26,4,41,优,#00E400,#00E400,4,江山环保大楼,#00E400,17,优,优,优,330800,#00E400,118.6301,#00E400,11,优,0.7,优,#00E400,#00E400,330881001,优,#00E400,衢州市,#00E400,优,17,16,#00E400,28,2026-06-18 06:00:00
29,优,330305,39,27.8342,优,--,11,9,50,优,#00E400,#00E400,8,洞头气象局,#00E400,18,优,优,优,330300,#00E400,121.1502,#00E400,4,优,0.5,优,#00E400,#00E400,330305001,优,#00E400,温州市,#00E400,优,18,5,#00E400,30,2026-06-18 06:00:00
30,优,330326,20,27.6653,优,--,15,20,32,优,#00E400,#00E400,8,平阳县政府,#00E400,18,优,优,优,330300,#00E400,120.5611,#00E400,10,优,0.6,优,#00E400,#00E400,330326002,优,#00E400,温州市,#00E400,优,18,9,#00E400,30,2026-06-18 06:00:00
31,优,330127,11,29.5995,优,--,21,6,19,优,#00E400,#00E400,8,淳安环保大楼,#00E400,19,优,优,优,330100,#00E400,119.0481,#00E400,13,优,0.5,优,#00E400,#00E400,330127001,优,#00E400,杭州市,#00E400,优,18,13,#00E400,32,2026-06-18 06:00:00
32,优,330326,18,27.6593,优,--,15,18,24,优,#00E400,#00E400,9,平阳监测站,#00E400,19,优,优,优,330300,#00E400,120.5705,#00E400,13,优,0.5,优,#00E400,#00E400,330326001,优,#00E400,温州市,#00E400,优,17,9,#00E400,32,2026-06-18 06:00:00
33,优,330825,60,29.0392,优,--,27,11,68,优,#00E400,#00E400,5,建设大楼,#00E400,19,优,优,优,330800,#00E400,119.1675,#00E400,6,优,0.5,优,#00E400,#00E400,330825001,优,#00E400,衢州市,#00E400,优,12,18,#00E400,32,2026-06-18 06:00:00
34,优,330225,50,29.2003,优,--,13,7,59,优,#00E400,#00E400,9,石浦新港小学,#00E400,20,优,优,优,330200,#00E400,121.934,#00E400,10,优,0.5,优,#00E400,#00E400,330225002,优,#00E400,宁波市,#00E400,优,20,8,#00E400,35,2026-06-18 06:00:00
35,优,330824,13,29.1478,优,--,18,9,20,优,#00E400,#00E400,7,开化监测大楼,#00E400,20,优,优,优,330800,#00E400,118.4108,#00E400,11,优,0.5,优,#00E400,#00E400,330824002,优,#00E400,衢州市,#00E400,优,20,11,#00E400,35,2026-06-18 06:00:00
36,优,331122,61,28.6574,优,--,22,26,61,优,#00E400,#00E400,6,缙云中学,#00E400,20,优,优,优,331100,#00E400,120.0696,#00E400,7,优,0.6,优,#00E400,#00E400,331122001,优,#00E400,丽水市,#00E400,优,13,13,#00E400,35,2026-06-18 06:00:00
37,优,331124,27,28.4516,优,--,16,21,31,优,#00E400,#00E400,5,和平水厂,#00E400,20,优,优,优,331100,#00E400,119.4699,#00E400,7,优,0.5,优,#00E400,#00E400,331124002,优,#00E400,丽水市,#00E400,优,20,7,#00E400,35,2026-06-18 06:00:00
38,优,331125,5,28.1173,优,--,16,19,8,优,#00E400,#00E400,5,云和监测楼,#00E400,20,优,优,优,331100,#00E400,119.5626,#00E400,9,优,0.5,优,#00E400,#00E400,331125001,优,#00E400,丽水市,#00E400,优,20,9,#00E400,35,2026-06-18 06:00:00
39,优,331083,45,28.2221,优,--,20,14,56,优,#00E400,#00E400,7,楚门中心小学,#00E400,22,优,优,优,331000,#00E400,121.2846,#00E400,11,优,0.6,优,#00E400,#00E400,331021002,优,#00E400,台州市,#00E400,优,22,8,#00E400,40,2026-06-18 06:00:00
40,优,331023,13,29.1342,优,--,22,18,28,优,#00E400,#00E400,6,天台实验中学,#00E400,22,优,优,优,331000,#00E400,121.0349,#00E400,14,优,0.7,优,#00E400,#00E400,331023002,优,#00E400,台州市,#00E400,优,22,13,#00E400,40,2026-06-18 06:00:00
41,优,331121,29,28.1341,优,--,22,7,36,优,#00E400,#00E400,9,塔山小学,#00E400,22,优,优,优,331100,#00E400,120.2936,#00E400,7,优,0.5,优,#00E400,#00E400,331121001,优,#00E400,丽水市,#00E400,优,22,11,#00E400,40,2026-06-18 06:00:00
42,优,331124,22,28.4505,优,--,13,26,24,优,#00E400,#00E400,4,松阳监测楼,#00E400,22,优,优,优,331100,#00E400,119.4799,#00E400,9,优,0.6,优,#00E400,#00E400,331124001,优,#00E400,丽水市,#00E400,优,22,8,#00E400,40,2026-06-18 06:00:00
43,优,330182,29,29.4638,优,--,26,29,25,优,#00E400,#00E400,4,第二中学,#00E400,23,优,优,优,330100,#00E400,119.2821,#00E400,16,优,0.6,优,#00E400,#00E400,330182002,优,#00E400,杭州市,#00E400,优,23,15,#00E400,44,2026-06-18 06:00:00
44,优,330382,19,28.1209,优,--,22,13,29,优,#00E400,#00E400,4,乐成,#00E400,23,优,优,优,330300,#00E400,120.9659,#00E400,13,优,0.5,优,#00E400,#00E400,330382001,优,#00E400,温州市,#00E400,优,23,10,#00E400,44,2026-06-18 06:00:00
45,优,331023,9,29.1504,优,--,23,18,17,优,#00E400,#00E400,6,育青中学,#00E400,23,优,优,优,331000,#00E400,121.0091,#00E400,13,优,0.7,优,#00E400,#00E400,331023001,优,#00E400,台州市,#00E400,优,23,12,#00E400,44,2026-06-18 06:00:00
46,优,331082,33,28.873,优,--,20,21,41,优,#00E400,#00E400,5,临海环保大楼,#00E400,23,优,优,优,331000,#00E400,121.1769,#00E400,12,优,0.5,优,#00E400,#00E400,331082001,优,#00E400,台州市,#00E400,优,23,11,#00E400,44,2026-06-18 06:00:00
47,优,330324,9,28.044335,优,--,22,37,21,优,#00E400,#00E400,8,瓯北,#00E400,24,优,优,优,330300,#00E400,120.654963,#00E400,12,优,0.6,优,#00E400,#00E400,330324002,优,#00E400,温州市,#00E400,优,24,11,#00E400,48,2026-06-18 06:00:00
48,优,330328,6,27.7838,优,--,18,7,6,优,#00E400,#00E400,7,大峃,#00E400,24,优,优,优,330300,#00E400,120.085,#00E400,7,优,0.4,优,#00E400,#00E400,330328001,优,#00E400,温州市,#00E400,优,24,8,#00E400,48,2026-06-18 06:00:00
49,优,330824,19,29.1343,优,--,21,8,36,优,#00E400,#00E400,6,开化气象局,#00E400,24,优,优,优,330800,#00E400,118.402,#00E400,5,优,0.4,优,#00E400,#00E400,330824001,优,#00E400,衢州市,#00E400,优,24,6,#00E400,48,2026-06-18 06:00:00
50,优,331024,16,28.7403,优,--,16,16,16,优,#00E400,#00E400,6,新生中学,#00E400,24,优,优,优,331000,#00E400,120.4728,#00E400,9,优,0.6,优,#00E400,#00E400,331024002,优,#00E400,台州市,#00E400,优,24,9,#00E400,48,2026-06-18 06:00:00
51,优,330881,42,28.7282,优,--,24,10,62,优,#00E400,#00E400,5,人民医院,#00E400,25,优,优,优,330800,#00E400,118.6227,#00E400,17,优,0.6,优,#00E400,#00E400,330881002,优,#00E400,衢州市,#00E400,优,18,19,#00E400,52,2026-06-18 06:00:00
52,优,331121,2,28.1094,优,--,21,9,10,优,#00E400,#00E400,5,青田中学,#00E400,25,优,优,优,331100,#00E400,120.3161,#00E400,9,优,0.5,优,#00E400,#00E400,331121002,优,#00E400,丽水市,#00E400,优,25,10,#00E400,52,2026-06-18 06:00:00
53,优,330683,11,29.5901,优,--,24,37,42,优,#00E400,#00E400,5,马寅初初中,#00E400,26,优,优,优,330600,#00E400,120.8249,#00E400,18,优,0.6,优,#00E400,#00E400,330683001,优,#00E400,绍兴市,#00E400,优,24,16,#00E400,54,2026-06-18 06:00:00
54,优,331024,30,28.8589,优,--,19,20,30,优,#00E400,#00E400,8,仙居环监站,#00E400,26,优,优,优,331000,#00E400,120.7248,#00E400,11,优,0.6,优,#00E400,#00E400,331024001,优,#00E400,台州市,#00E400,优,26,11,#00E400,54,2026-06-18 06:00:00
55,优,330182,23,29.4769,优,--,24,16,18,优,#00E400,#00E400,7,建德监测大楼,#00E400,27,优,优,优,330100,#00E400,119.2711,#00E400,16,优,0.6,优,#00E400,#00E400,330182T_2,优,#00E400,杭州市,#00E400,优,27,15,#00E400,56,2026-06-18 06:00:00
56,优,330324,14,28.158269,优,--,29,18,22,优,#00E400,#00E400,6,上塘,#00E400,27,优,优,优,330300,#00E400,120.694244,#00E400,8,优,0.7,优,#00E400,#00E400,330324001,优,#00E400,温州市,#00E400,优,27,12,#00E400,56,2026-06-18 06:00:00
57,优,330328,6,27.804722,优,--,19,6,15,优,#00E400,#00E400,8,文成中学,#00E400,27,优,优,优,330300,#00E400,120.077222,#00E400,6,优,0.4,优,#00E400,#00E400,330328002,优,#00E400,温州市,#00E400,优,27,8,#00E400,56,2026-06-18 06:00:00
58,优,330921,35,30.2669,优,--,21,22,37,优,#00E400,#00E400,5,岱山环保大楼,#00E400,27,优,优,优,330900,#00E400,122.2199,#00E400,14,优,0.5,优,#00E400,#00E400,330921001,优,#00E400,舟山市,#00E400,优,27,13,#00E400,56,2026-06-18 06:00:00
59,优,330921,32,30.2517,优,--,26,19,51,优,#00E400,#00E400,9,岱山高亭,#00E400,27,优,优,优,330900,#00E400,122.1958,#00E400,17,优,0.6,优,#00E400,#00E400,330921002,优,#00E400,舟山市,#00E400,优,27,21,#00E400,56,2026-06-18 06:00:00
60,优,331127,8,27.9772,优,--,17,9,10,优,#00E400,#00E400,4,景宁县政府,#00E400,27,优,优,优,331100,#00E400,119.6311,#00E400,4,优,0.5,优,#00E400,#00E400,331127002,优,#00E400,丽水市,#00E400,优,27,4,#00E400,56,2026-06-18 06:00:00
61,优,330683,22,29.5663,优,--,25,26,35,优,#00E400,#00E400,3,丽湖小区,#00E400,28,优,优,优,330600,#00E400,120.8173,#00E400,17,优,0.6,优,#00E400,#00E400,330683002,优,#00E400,绍兴市,#00E400,优,28,16,#00E400,62,2026-06-18 06:00:00
62,优,330624,5,29.4938,优,--,22,24,9,优,#00E400,#00E400,4,城东站,#00E400,28,优,优,优,330600,#00E400,120.9109,#00E400,18,优,0.6,优,#00E400,#00E400,330624002,优,#00E400,绍兴市,#00E400,优,28,14,#00E400,62,2026-06-18 06:00:00
63,优,330783,14,29.30093,优,--,33,29,24,优,#00E400,#00E400,6,广厦学院,#00E400,29,优,优,优,330700,#00E400,120.24157,#00E400,17,优,0.8,优,#00E400,#00E400,330783001,优,#00E400,金华市,#00E400,优,29,17,#00E400,64,2026-06-18 06:00:00
64,优,330226,12,29.2878,优,--,21,17,24,优,#00E400,#00E400,5,宁海城南站,#00E400,30,优,优,优,330200,#00E400,121.4201,#00E400,15,优,0.4,优,#00E400,#00E400,330226002,优,#00E400,宁波市,#00E400,优,30,12,#00E400,65,2026-06-18 06:00:00
65,优,330424,93,30.5299,优,--,26,21,100,优,#00E400,#00E400,5,海盐商贸学校,#00E400,30,优,优,优,330400,#00E400,120.9293,#00E400,17,优,0.5,优,#00E400,#00E400,330424002,优,#00E400,嘉兴市,#00E400,优,19,24,#00E400,65,2026-06-18 06:00:00
66,优,330424,100,30.5042,优,--,28,13,90,优,#00E400,#00E400,6,高级中学,#00E400,32,优,优,优,330400,#00E400,120.9413,#00E400,18,优,0.4,优,#00E400,#00E400,330424001,优,#00E400,嘉兴市,#00E400,优,22,23,#00E400,67,2026-06-18 06:00:00
67,优,330783,20,29.27739,优,--,32,23,32,优,#00E400,#00E400,8,东阳环保大楼,#00E400,33,优,优,优,330700,#00E400,120.23692,#00E400,23,优,0.7,优,#00E400,#00E400,330783002,优,#00E400,金华市,#00E400,优,33,20,#00E400,68,2026-06-18 06:00:00
68,优,331082,16,28.84326,优,--,27,19,27,优,#00E400,#00E400,3,巾山实验小学,#00E400,33,优,优,优,331000,#00E400,121.136,#00E400,17,优,0.4,优,#00E400,#00E400,331082002,优,#00E400,台州市,#00E400,优,33,14,#00E400,68,2026-06-18 06:00:00
69,优,330226,15,29.3125,优,--,19,16,29,优,#00E400,#00E400,5,宁海水利局,#00E400,34,优,优,优,330200,#00E400,121.4306,#00E400,17,优,0.5,优,#00E400,#00E400,330226001,优,#00E400,宁波市,#00E400,优,34,14,#00E400,70,2026-06-18 06:00:00
70,优,330225,23,29.4767,优,--,19,13,42,优,#00E400,#00E400,8,文峰小学,#00E400,34,优,优,优,330200,#00E400,121.8864,#00E400,15,优,0.5,优,#00E400,#00E400,330225001,优,#00E400,宁波市,#00E400,优,34,10,#00E400,70,2026-06-18 06:00:00
71,优,331022,9,29.1028,优,--,24,22,22,优,#00E400,#00E400,5,心湖站,#00E400,34,优,优,优,331000,#00E400,121.3918,#00E400,19,优,0.5,优,#00E400,#00E400,331022002,优,#00E400,台州市,#00E400,优,34,15,#00E400,70,2026-06-18 06:00:00
72,优,330624,7,29.5036,优,--,23,23,16,优,#00E400,#00E400,4,钟楼站,#00E400,35,优,优,优,330600,#00E400,120.8938,#00E400,20,优,0.5,优,#00E400,#00E400,330624001,优,#00E400,绍兴市,#00E400,优,35,14,#00E400,73,2026-06-18 06:00:00
73,优,330522,38,31.0143,优,--,20,21,65,优,#00E400,#00E400,4,职教中心,#00E400,36,优,优,优,330500,#00E400,119.8935,#00E400,25,优,0.6,优,#00E400,#00E400,330522001,优,#00E400,湖州市,#00E400,优,34,15,#00E400,74,2026-06-18 06:00:00
74,优,330782,26,29.305096,优,--,30,22,44,优,#00E400,#00E400,5,江东,#00E400,36,优,优,优,330700,#00E400,120.090442,#00E400,22,优,0.7,优,#00E400,#00E400,330782002,优,#00E400,金华市,#00E400,优,36,19,#00E400,74,2026-06-18 06:00:00
75,优,330382,32,28.0297,优,--,22,24,45,优,#00E400,#00E400,5,柳市,#00E400,38,优,优,优,330300,#00E400,120.891,#00E400,13,优,0.5,优,#00E400,#00E400,330382002,优,#00E400,温州市,#00E400,优,38,8,#00E400,76,2026-06-18 06:00:00
76,优,331125,5,28.1062,优,--,45,5,6,优,#00E400,#00E400,6,云和三中,#00E400,38,优,优,优,331100,#00E400,119.5728,#00E400,5,优,0.4,优,#00E400,#00E400,331125002,优,#00E400,丽水市,#00E400,优,38,8,#00E400,76,2026-06-18 06:00:00
77,优,330521,16,30.548493,优,--,44,21,31,优,#00E400,#00E400,8,春晖小学,#00E400,39,优,优,优,330500,#00E400,119.9505,#00E400,27,优,0.6,优,#00E400,#00E400,330521003,优,#00E400,湖州市,#00E400,优,38,32,#00E400,78,2026-06-18 06:00:00
78,优,330784,5,28.8854,优,--,32,20,16,优,#00E400,#00E400,7,永康一中,#00E400,40,优,优,优,330700,#00E400,120.0439,#00E400,19,优,0.8,优,#00E400,#00E400,330784001,优,#00E400,金华市,#00E400,优,40,17,#00E400,79,2026-06-18 06:00:00
79,优,330213,36,29.6506,优,--,37,21,61,优,#00E400,#00E400,5,奉化教育局,#00E400,42,优,优,优,330200,#00E400,121.4042,#00E400,29,优,0.7,优,#00E400,#00E400,330283005,优,#00E400,宁波市,#00E400,优,38,24,#00E400,80,2026-06-18 06:00:00
80,良,330483,89,30.6488,优,--,42,18,105,优,#00E400,#00E400,6,茅盾小学,#FFFF00,42,优,优,优,330400,#00E400,120.5498,#00E400,28,优,0.4,优,#00E400,#00E400,330483001,优,#00E400,嘉兴市,#00E400,优,42,25,#00E400,80,2026-06-18 06:00:00
81,优,330782,30,29.2637,优,--,50,22,36,优,#00E400,#00E400,5,儿童公园,#00E400,42,优,优,优,330700,#00E400,120.0321,#00E400,22,优,0.6,优,#00E400,#00E400,330782004,优,#00E400,金华市,#00E400,优,42,24,#00E400,80,2026-06-18 06:00:00
82,优,330481,62,30.5137,优,--,39,31,93,优,#00E400,#00E400,9,硖石街道,#00E400,43,优,优,优,330400,#00E400,120.7082,#00E400,30,优,0.5,优,#00E400,#00E400,330481002,优,#00E400,嘉兴市,#00E400,优,35,27,#00E400,83,2026-06-18 06:00:00
83,优,330782,23,29.3686,优,--,43,36,56,优,#00E400,#00E400,8,第五中学,#00E400,43,优,优,优,330700,#00E400,120.1345,#00E400,22,优,0.7,优,#00E400,#00E400,330782003,优,#00E400,金华市,#00E400,优,43,22,#00E400,83,2026-06-18 06:00:00
84,优,330483,72,30.7369,优,--,35,22,99,优,#00E400,#00E400,4,植材小学,#00E400,43,优,优,优,330400,#00E400,120.4902,#00E400,30,优,0.9,优,#00E400,#00E400,330483509,优,#00E400,嘉兴市,#00E400,优,39,29,#00E400,83,2026-06-18 06:00:00
85,优,330681,10,29.6818,优,--,50,23,64,优,#00E400,#00E400,6,杨树畈,#00E400,45,优,优,优,330600,#00E400,120.2359,#00E400,31,优,0.4,优,#00E400,#FFFF00,330681001,良,#00E400,绍兴市,#00E400,优,36,36,#00E400,86,2026-06-18 06:00:00
86,优,330726,47,29.465746,优,--,39,9,45,优,#00E400,#00E400,4,浦江实验中学,#00E400,45,优,优,优,330700,#00E400,119.875227,#00E400,27,优,0.7,优,#00E400,#00E400,330726001,优,#00E400,金华市,#00E400,优,45,24,#00E400,86,2026-06-18 06:00:00
87,优,330213,22,29.693,优,--,50,27,46,优,#00E400,#00E400,4,溪口政府大楼,#00E400,46,优,优,优,330200,#00E400,121.2774,#00E400,31,优,0.5,优,#00E400,#00E400,330283T_1,优,#00E400,宁波市,#00E400,优,46,34,#00E400,88,2026-06-18 06:00:00
88,良,330481,81,30.5261,优,--,43,20,108,优,#00E400,#00E400,6,海宁监测大楼,#FFFF00,46,优,优,优,330400,#00E400,120.6739,#00E400,32,优,0.3,优,#00E400,#00E400,330481001,优,#00E400,嘉兴市,#00E400,优,45,29,#00E400,88,2026-06-18 06:00:00
89,优,330282,55,30.1786,优,--,47,19,91,优,#00E400,#00E400,6,慈溪实验小学,#00E400,47,优,优,优,330200,#00E400,121.2525,#00E400,22,优,0.5,优,#00E400,#00E400,330282002,优,#00E400,宁波市,#00E400,优,47,24,#00E400,90,2026-06-18 06:00:00
90,--,330784,3,28.90016,优,--,39,27,--,优,#00E400,#00E400,8,西城供电所,--,47,优,优,优,330700,#00E400,120.01452,#00E400,30,优,0.8,优,#00E400,#00E400,330784002,优,#00E400,金华市,#00E400,优,47,22,#00E400,90,2026-06-18 06:00:00
91,优,330421,64,30.8307,优,--,37,22,95,优,#00E400,#00E400,9,气象观测台,#00E400,48,优,优,优,330400,#00E400,120.9356,#00E400,33,优,0.6,优,#00E400,#00E400,330421002,优,#00E400,嘉兴市,#00E400,优,48,25,#00E400,92,2026-06-18 06:00:00
92,优,330521,23,30.5231,优,--,44,20,46,优,#00E400,#00E400,8,地信科创园,#00E400,48,优,优,优,330500,#00E400,119.9781,#00E400,33,优,0.6,优,#00E400,#00E400,330521001,优,#00E400,湖州市,#00E400,优,43,34,#00E400,92,2026-06-18 06:00:00
93,优,330281,33,30.0358,优,--,35,33,70,优,#00E400,#00E400,6,姚江小学,#00E400,49,优,优,优,330200,#00E400,121.1221,#00E400,34,优,0.7,优,#00E400,#00E400,330281002,优,#00E400,宁波市,#00E400,优,41,28,#00E400,94,2026-06-18 06:00:00
94,优,330482,62,30.6937,优,--,36,16,86,优,#00E400,#00E400,9,平湖幼儿园,#00E400,49,优,优,优,330400,#00E400,121.0259,#00E400,34,优,0.5,优,#00E400,#00E400,330482001,优,#00E400,嘉兴市,#00E400,优,44,26,#00E400,94,2026-06-18 06:00:00
95,优,330281,45,30.0497,优,--,35,25,81,优,#00E400,#00E400,6,龙山公园,#00E400,50,优,优,优,330200,#00E400,121.1475,#00E400,35,优,0.7,优,#00E400,#00E400,330281001,优,#00E400,宁波市,#00E400,优,45,26,#00E400,96,2026-06-18 06:00:00
96,优,331022,26,29.11779,优,PM₁₀,--,27,32,优,#FFFF00,#00E400,6,三门环监楼,#00E400,51,优,良,--,331000,#00E400,121.382189,#00E400,29,良,1.0,优,#00E400,--,331022001,--,#FFFF00,台州市,#00E400,优,51,--,--,97,2026-06-18 06:00:00
97,优,330523,29,30.6422,优,PM₂.₅,41,19,58,优,#00E400,#FFFF00,8,安吉实验小学,#00E400,52,优,良,优,330500,#00E400,119.6768,#00E400,36,优,0.7,良,#00E400,#00E400,330523001,优,#FFFF00,湖州市,#00E400,优,41,31,#00E400,98,2026-06-18 06:00:00
98,优,330522,40,31.0263,优,PM₂.₅,19,15,56,优,#00E400,#FFFF00,5,龙山新区,#00E400,54,优,良,优,330500,#00E400,119.9046,#00E400,37,优,0.5,良,#00E400,#00E400,330522002,优,#FFFF00,湖州市,#00E400,优,46,16,#00E400,99,2026-06-18 06:00:00
99,优,330282,46,30.1636,优,PM₁₀,53,28,79,优,#FFFF00,#00E400,8,慈溪环保大楼,#00E400,55,优,良,良,330200,#00E400,121.2677,#00E400,22,良,0.7,优,#00E400,#00E400,330282001,优,#FFFF00,宁波市,#00E400,优,57,24,#FFFF00,100,2026-06-18 06:00:00
100,优,330726,43,29.439787,优,PM₂.₅,45,16,41,优,#FFFF00,#FFFF00,4,浦江中学,#00E400,56,优,良,优,330700,#00E400,119.924638,#00E400,38,良,0.6,良,#00E400,#00E400,330726002,优,#FFFF00,金华市,#00E400,优,56,31,#00E400,101,2026-06-18 06:00:00
101,优,330782,40,29.335473,优,PM₂.₅,43,22,56,优,#FFFF00,#FFFF00,4,北苑,#00E400,56,优,良,优,330700,#00E400,120.078609,#00E400,38,良,0.7,良,#00E400,#00E400,330782001,优,#FFFF00,金华市,#00E400,优,55,28,#00E400,101,2026-06-18 06:00:00
102,良,330481,75,30.5524,优,PM₁₀,46,19,104,优,#FFFF00,#FFFF00,6,胜利社区,#FFFF00,59,优,良,优,330400,#00E400,120.6713,#00E400,36,良,0.6,良,#00E400,#00E400,330481003,优,#FFFF00,嘉兴市,#00E400,优,62,26,#00E400,103,2026-06-18 06:00:00
103,优,330122,32,29.8058,优,PM₁₀,44,26,44,优,#FFFF00,#FFFF00,4,桐庐江北,#00E400,60,优,良,优,330100,#00E400,119.669,#00E400,36,良,0.8,良,#00E400,#00E400,330122002,优,#FFFF00,杭州市,#00E400,优,64,24,#00E400,104,2026-06-18 06:00:00
104,优,330482,59,30.7292,优,PM₂.₅,32,16,90,优,#00E400,#FFFF00,7,陆家桥村,#00E400,60,优,良,优,330400,#00E400,120.9953,#00E400,40,优,0.7,良,#00E400,#00E400,330482002,优,#FFFF00,嘉兴市,#00E400,优,41,29,#00E400,104,2026-06-18 06:00:00
105,优,330212,24,29.7736,优,PM₂.₅,41,22,38,优,#FFFF00,#FFFF00,4,钱湖水厂,#00E400,64,优,良,优,330200,#00E400,121.6330,#00E400,42,良,0.8,良,#00E400,#00E400,2013302120001,优,#FFFF00,宁波市,#00E400,优,65,23,#00E400,106,2026-06-18 06:00:00
106,优,330681,37,29.726389,优,PM₂.₅,52,16,68,优,#FFFF00,#FFFF00,6,青少年宫,#00E400,68,优,良,良,330600,#00E400,120.199722,#00E400,44,良,0.7,良,#00E400,#FFFF00,330681002,良,#FFFF00,绍兴市,#00E400,优,56,43,#FFFF00,107,2026-06-18 06:00:00
107,优,330681,38,29.7257,优,PM₂.₅,50,29,80,优,#FFFF00,#FFFF00,7,城新小学,#00E400,72,优,良,优,330600,#00E400,120.272,#00E400,46,良,0.5,良,#00E400,#00E400,330681505,优,#FFFF00,绍兴市,#00E400,优,57,35,#00E400,108,2026-06-18 06:00:00
108,优,330122,42,29.7955,优,PM₂.₅,44,22,50,优,#FFFF00,#FFFF00,5,桐庐江南,#00E400,72,优,良,优,330100,#00E400,119.6874,#00E400,46,良,0.5,良,#00E400,#00E400,330122001,优,#FFFF00,杭州市,#00E400,优,70,28,#00E400,108,2026-06-18 06:00:00
109,优,330483,82,30.625,优,PM₁₀,59,18,96,优,#FFFF00,#FFFF00,6,振东新六中站,#00E400,73,优,良,良,330400,#00E400,120.5613,#00E400,36,良,0.6,良,#00E400,#00E400,330483002,优,#FFFF00,嘉兴市,#00E400,优,81,29,#FFFF00,110,2026-06-18 06:00:00
110,优,330110,28,30.2635,优,PM₂.₅,59,33,56,优,#FFFF00,#FFFF00,7,海辰小学,#00E400,76,优,良,良,330100,#00E400,119.9842,#00E400,48,良,0.8,良,#00E400,#FFFF00,2013301100001,良,#FFFF00,杭州市,#00E400,优,70,39,#FFFF00,111,2026-06-18 06:00:00
111,优,330213,45,29.6774,优,PM₂.₅,58,24,72,优,#FFFF00,#FFFF00,5,大桥市场,#00E400,94,优,良,良,330200,#00E400,121.4237,#00E400,57,良,0.8,良,#00E400,#FFFF00,330213001,良,#FFFF00,宁波市,#00E400,优,67,43,#FFFF00,112,2026-06-18 06:00:00
112,良,330421,72,30.836,优,PM₂.₅,56,28,102,优,#FFFF00,#FF7E00,6,嘉善监测大楼,#FFFF00,112,优,轻度污染,良,330400,#00E400,120.9226,#00E400,73,良,0.5,轻度污染,#00E400,#FFFF00,330421001,良,#FF7E00,嘉兴市,#00E400,优,99,37,#FFFF00,113,2026-06-18 06:00:00
113,优,331127,10,28.002222,优,--,17,9,12,优,#00E400,--,5,红星小学,#00E400,--,优,--,优,331100,#00E400,119.636389,#00E400,--,优,0.4,--,#00E400,#00E400,331127003,优,--,丽水市,#00E400,优,24,5,#00E400,114,2026-06-18 06:00:00
114,优,330381,15,27.782284,优,--,49,10,23,优,#00E400,--,8,安阳新区,#00E400,--,优,--,优,330300,#00E400,120.650915,#00E400,--,优,0.5,--,#00E400,--,330381002,--,--,温州市,#00E400,优,4,--,#00E400,114,2026-06-18 06:00:00
115,--,330523,--,30.5974,--,--,--,--,--,--,--,--,--,安吉城东,--,--,--,--,--,330500,--,119.6953,--,--,--,--,--,--,--,330523002,--,--,湖州市,--,--,--,--,--,114,2026-06-18 06:00:00
116,优,331083,31,28.12715,优,--,12,5,38,优,#00E400,#00E400,--,玉环环监站,#00E400,--,优,--,优,331000,--,121.2339,#00E400,8,优,0.6,优,#00E400,#00E400,331021001,优,--,台州市,#00E400,--,14,6,#00E400,114,2026-06-18 06:00:00
117,--,330483,--,30.6355,--,--,--,--,--,--,--,--,--,文化中心,--,--,--,--,--,330400,--,120.5795,--,--,--,--,--,--,--,330483003,--,--,嘉兴市,--,--,--,--,--,114,2026-06-18 06:00:00
