timepoint,stationcode,longitude,latitude,area,positionname,primarypollutant,aqi,pm10,pm10_24h,pm2_5,pm2_5_24h,o3,o3_24h,o3_8h,o3_8h_24h,no2,no2_24h,so2,so2_24h,co,co_24h
2026-03-17T1600,3477A,113.1656,35.2536,焦作市,中站许衡医院,细颗粒物(PM2.5),132,113,97,95,72,63,63,71,71,29,22,8,8,0.9,0.8
2026-03-17T1600,3981A,113.2456,35.18,焦作市,原李万街道办,细颗粒物(PM2.5),142,113,117,106,87,71,71,57,57,16,19,10,9,0.7,0.8
2026-03-17T1600,4264A,113.234,35.219,焦作市,新安路1731号,细颗粒物(PM2.5),140,121,109,103,84,73,73,72,72,24,23,8,8,0.7,0.7
2026-03-17T1600,4295A,113.2722,35.2121,焦作市,人民路3066号,NA,NA,NA,111,NA,89,74,74,66,66,26,22,NA,7,0.7,0.7
2026-03-17T1600,1708A,116.3701,23.5345,揭阳市,新兴,,38,38,42,13,21,114,114,96,96,10,19,9,10,0.5,0.6
2026-03-17T1600,1709A,116.3261,23.5442,揭阳市,西马,,37,33,45,12,21,116,116,98,98,8,17,5,8,0.3,0.4
2026-03-17T1600,1710A,116.361,23.5627,揭阳市,东兴,,39,39,45,13,23,119,119,103,103,4,12,5,8,/,/
2026-03-17T1600,1711A,116.4151,23.5295,揭阳市,渔湖,颗粒物(PM10),61,65,43,15,22,141,141,118,118,13,17,6,6,/,/
2026-03-17T1600,3320A,116.4028,23.5699,揭阳市,曲溪,NA,NA,30,44,11,22,NA,NA,114,114,11,17,6,10,0.6,0.7
2026-03-17T1600,1944A,102.1691,38.5166,金昌市,天庆家园,NA,NA,97,83,15,22,103,103,98,94,NA,3,6,4,0.5,0.5
2026-03-17T1600,4022A,102.1648,38.5369,金昌市,金川区人防中心,颗粒物(PM10),84,97,87,12,24,99,99,94,94,2,3,6,6,0.4,0.5
2026-03-17T1600,4239A,102.193042,38.531887,金昌市,长春路96号,颗粒物(PM10),72,80,80,13,22,94,94,91,90,3,3,5,5,0.4,0.3
2026-03-17T1600,1262A,119.6478,29.0773,金华市,十五中,,41,38,62,18,37,131,131,108,108,13,21,5,5,0.5,0.1
2026-03-17T1600,1263A,119.6859,29.1032,金华市,监测站,,41,35,63,21,36,129,129,97,97,22,37,5,4,0.5,0.5
2026-03-17T1600,3659A,119.656,29.1132,金华市,气象局,,40,36,59,18,36,128,128,92,92,22,36,4,4,0.3,0.4
2026-03-17T1600,1767A,121.1114,41.0879,锦州市,南山,细颗粒物(PM2.5),135,NA,84,98,78,100,100,90,90,30,57,13,15,0.9,0.8
2026-03-17T1600,1768A,121.060361,40.842794,锦州市,开发区,细颗粒物(PM2.5),137,126,112,100,69,84,84,72,72,36,70,11,17,1.1,0.9
2026-03-17T1600,1769A,121.1836,41.1118,锦州市,百股街道,细颗粒物(PM2.5),140,NA,85,104,84,105,105,94,94,28,50,10,12,1.0,1
2026-03-17T1600,1770A,121.1176,41.1224,锦州市,天安街道,细颗粒物(PM2.5),139,106,89,102,81,104,104,90,90,30,56,12,14,1.0,0.9
2026-03-17T1600,1771A,121.1303,41.1385,锦州市,北湖公园,细颗粒物(PM2.5),137,100,82,100,78,112,112,96,96,27,51,12,14,0.8,0.8
2026-03-17T1600,2160A,112.8496,35.5051,晋城市,自来水公司,颗粒物(PM10),65,70,90,42,46,61,61,67,67,24,17,3,4,0.7,0.5
2026-03-17T1600,2162A,112.8509,35.4886,晋城市,市环保局,颗粒物(PM10),67,73,82,40,52,68,68,70,70,17,14,4,4,0.8,0.6
2026-03-17T1600,3620A,112.8258,35.4804,晋城市,泽州一中,细颗粒物(PM2.5),120,NA,81,81,51,72,72,72,69,19,15,3,4,0.9,0.7
2026-03-17T1600,4078A,112.8246,35.5152,晋城市,前书院路,颗粒物(PM10),61,65,89,40,50,63,63,60,59,24,18,4,4,0.8,0.6
2026-03-17T1600,4079A,112.8864,35.4773,晋城市,祥云街666号,细颗粒物(PM2.5),64,58,76,42,55,74,74,67,67,21,18,4,4,0.6,0.5
2026-03-17T1600,2174A,112.6992,37.6984,晋中市,榆次区政府,颗粒物(PM10),53,53,105,28,67,100,100,78,78,9,26,7,11,0.3,0.8
2026-03-17T1600,2865A,112.7195,37.683,晋中市,榆次三中,颗粒物(PM10),60,63,109,14,56,102,102,72,72,7,26,8,11,0.1,0.6
2026-03-17T1600,4080A,112.7375,37.7215,晋中市,广安街188号,颗粒物(PM10),58,60,116,16,59,105,105,72,72,7,28,10,12,0.1,0.6
2026-03-17T1600,4200A,112.7478,37.6954,晋中市,迎宾街26号,细颗粒物(PM2.5),70,63,104,45,64,99,99,73,73,12,24,8,11,0.4,0.8
2026-03-17T1600,2439A,112.2012,31.048,荆门市,竹园小学,,35,31,57,24,36,60,60,50,50,16,20,1,1,0.6,0.6
2026-03-17T1600,2440A,112.1968,30.9892,荆门市,掇刀,,42,NA,57,29,41,76,76,66,62,12,15,6,7,0.8,0.7
2026-03-17T1600,3012A,112.1849,31.0361,荆门市,西山林语,,29,29,52,19,32,65,65,57,56,12,15,3,3,0.8,0.8
2026-03-17T1600,3547A,112.1631,31.0134,荆门市,龙泉中学南校,,29,24,57,20,44,76,76,61,60,14,14,3,3,0.7,0.8
2026-03-17T1600,4124A,112.2213,31.0654,荆门市,新台西路6号,NA,NA,39,50,30,39,60,60,48,48,NA,18,4,5,0.7,0.6
2026-03-17T1600,1844A,112.2493,30.3198,荆州市,市图书馆,,23,16,32,16,30,41,41,40,38,22,20,4,5,1.0,0.9
2026-03-17T1600,1845A,112.2009,30.3543,荆州市,市委党校,,26,26,43,15,40,42,42,36,36,23,25,6,6,0.8,0.8
2026-03-17T1600,3194A,112.2749,30.3124,荆州市,管委会,,22,16,32,15,33,40,40,38,38,16,15,8,8,1.0,1
2026-03-17T1600,4268A,112.1722,30.3366,荆州市,学苑路85号,,26,26,51,8,37,56,56,50,50,11,13,1,2,1.0,1
2026-03-17T1600,2343A,117.2114,29.2931,景德镇市,老干部活动中心,细颗粒物(PM2.5),82,56,34,51,34,92,92,67,67,14,12,14,7,0.9,0.8
2026-03-17T1600,2344A,117.1893,29.2789,景德镇市,兽医站,细颗粒物(PM2.5),62,63,40,41,31,97,97,71,71,17,14,4,4,0.7,0.7
2026-03-17T1600,2346A,117.246,29.2958,景德镇市,陶研所,细颗粒物(PM2.5),104,NA,30,64,31,89,89,72,72,34,20,14,5,1.1,0.9
2026-03-17T1600,4289A,117.154766,29.256967,景德镇市,青少年活动中心,细颗粒物(PM2.5),90,58,33,55,35,86,86,66,66,20,15,27,8,/,/
2026-03-17T1600,1803A,115.9873,29.6816,九江市,十里,,38,38,14,16,9,8,8,25,8,40,31,8,7,1.2,1.1
2026-03-17T1600,1804A,115.9583,29.7047,九江市,茅山头,,25,25,13,12,9,13,13,26,10,35,26,4,4,0.8,0.8
2026-03-17T1600,1805A,115.9877,29.7295,九江市,西园,,27,27,14,14,7,18,18,27,15,40,34,4,3,1.0,0.9
2026-03-17T1600,1808A,115.9112,29.6038,九江市,综合工业园,,35,35,13,21,8,7,7,18,12,37,35,8,7,1.0,0.9
2026-03-17T1600,3190A,116.0254,29.6995,九江市,外国语学校,,32,32,12,13,9,4,4,22,6,39,27,2,2,1.1,1
2026-03-17T1600,4253A,116.010205,29.659402,九江市,莲花大道8号,,35,35,15,21,8,8,8,27,12,56,32,4,4,0.9,0.7
2026-03-17T1600,4240A,98.495752,39.733935,酒泉市,玉门东路5号,,39,39,69,14,25,98,98,82,82,3,14,5,6,0.2,0.3
2026-03-17T1600,4241A,98.5099,39.7506,酒泉市,北大街108号,,46,46,68,14,28,98,98,88,88,4,13,5,7,0.4,0.4
2026-03-17T1600,2698A,76.0071,39.466,喀什地区,巡警大队,颗粒物(PM10),166,281,332,82,120,70,70,64,64,7,12,2,3,0.2,0.4
2026-03-17T1600,2699A,75.9756,39.4693,喀什地区,吾办,颗粒物(PM10),170,290,329,81,120,66,66,62,62,6,9,8,4,0.3,0.4
2026-03-17T1600,4027A,75.9485,39.4688,喀什地区,老干局,颗粒物(PM10),174,298,347,71,110,71,71,64,64,4,9,2,2,0.4,0.5
2026-03-17T1600,1824A,114.3389,34.778,开封市,肿瘤医院,细颗粒物(PM2.5),127,NA,103,89,110,80,80,66,66,26,30,7,7,0.8,1.2
2026-03-17T1600,1826A,114.2884,34.7966,开封市,世纪星幼儿园,细颗粒物(PM2.5),125,NA,94,87,100,79,79,72,72,23,26,8,9,0.8,1
2026-03-17T1600,3147A,114.3434,34.8101,开封市,龙亭公园,细颗粒物(PM2.5),120,NA,105,82,95,82,82,74,74,17,21,8,8,0.8,1
2026-03-17T1600,3210A,114.3645,34.7955,开封市,汴京公园,细颗粒物(PM2.5),135,NA,103,98,114,83,83,74,74,21,31,4,4,0.7,0.9
2026-03-17T1600,3473A,114.2485,34.8306,开封市,技师学院,细颗粒物(PM2.5),122,NA,86,84,102,80,80,76,76,20,22,6,6,1.0,1.1
2026-03-17T1600,3592A,114.4518,34.7503,开封市,祥符区生态环境局,细颗粒物(PM2.5),124,90,126,86,109,87,87,67,67,32,44,5,5,0.6,0.7
2026-03-17T1600,1951A,84.886,45.6029,克拉玛依市,长征新村,,30,21,47,3,16,95,95,87,87,6,15,4,6,0.3,0.4
2026-03-17T1600,1952A,84.8894,45.5827,克拉玛依市,南林小区,,30,22,47,3,13,96,96,89,89,1,2,4,5,0.1,0.2
2026-03-17T1600,1954A,84.896,44.3328,克拉玛依市,独山子区,颗粒物(PM10),106,134,83,56,28,102,102,76,76,17,22,7,5,0.9,0.8
2026-03-17T1600,1955A,85.6888,46.0909,克拉玛依市,乌尔禾区商贸楼,,41,41,37,15,16,96,96,78,78,7,13,9,8,0.5,0.5
2026-03-17T1600,3612A,85.1045,45.6895,克拉玛依市,白碱滩区新站,,30,15,38,3,19,96,96,92,92,3,7,10,10,0.4,0.4
2026-03-17T1600,2697A,76.1457,39.7143,克孜勒苏柯尔克孜自治州,市人民政府,颗粒物(PM10),144,233,323,66,102,79,79,73,73,4,10,3,3,0.1,0.1
2026-03-17T1600,3665A,76.1654,39.7157,克孜勒苏柯尔克孜自治州,克州文化中心,颗粒物(PM10),145,236,345,72,113,79,79,76,76,4,7,4,4,0.2,0.3
2026-03-17T1600,1450A,102.8203,24.889,昆明市,呈贡新区,,45,45,34,29,26,117,117,108,108,15,13,4,5,0.5,0.5
2026-03-17T1600,1452A,102.7253,25.0904,昆明市,龙泉镇,,42,29,39,29,27,109,109,94,94,8,20,3,4,0.5,0.5
2026-03-17T1600,1453A,102.7267,25.0378,昆明市,东风东路,,48,42,38,33,28,117,117,106,106,11,15,3,3,0.4,0.7
2026-03-17T1600,1454A,102.6744,25.0671,昆明市,金鼎山,,45,45,42,29,26,113,113,102,102,12,16,2,4,0.6,0.6
2026-03-17T1600,1455A,102.6643,25.0401,昆明市,碧鸡广场,细颗粒物(PM2.5),54,40,41,37,28,116,116,98,98,8,19,5,6,0.4,0.4
2026-03-17T1600,3179A,102.7491,25.012,昆明市,官渡区博物馆,,44,44,41,24,25,113,113,100,100,12,15,3,4,0.4,0.6
2026-03-17T1600,3375A,102.8016,24.8336,昆明市,青年创业园,细颗粒物(PM2.5),52,41,37,36,27,122,122,109,109,3,8,4,5,0.4,0.5
2026-03-17T1600,3550A,102.8,24.9787,昆明市,昆明学院,,38,38,40,23,23,117,117,105,105,10,10,3,4,0.5,0.6
2026-03-17T1600,3551A,102.5969,24.6738,昆明市,晋宁区生态环境分局,,46,39,37,32,28,122,122,111,111,5,8,1,2,0.4,0.5
2026-03-17T1600,3552A,102.6673,24.9861,昆明市,云天化总部,,43,39,37,30,23,111,111,98,98,14,14,8,8,0.4,0.4
2026-03-17T1600,1456A,91.132,29.6515,拉萨市,八廓街,,48,15,28,3,8,152,152,127,127,5,7,6,5,0.2,0.4
2026-03-17T1600,1457A,91.1221,29.6748,拉萨市,市环保局,,44,13,31,6,9,139,139,118,118,7,7,4,4,0.4,0.4
2026-03-17T1600,1458A,91.0874,29.6476,拉萨市,区监测站,NA,NA,NA,24,NA,8,141,141,119,119,NA,8,4,4,0.1,0.4
2026-03-17T1600,1459A,91.1774,29.6541,拉萨市,西藏大学,,46,11,27,3,10,146,146,122,122,7,10,6,6,0.4,0.5
2026-03-17T1600,1460A,90.9798,29.6586,拉萨市,区辐射站,,49,23,37,7,11,155,155,127,127,9,12,5,4,0.4,0.4
2026-03-17T1600,1461A,91.0831,29.6292,拉萨市,拉萨火车站,,46,13,25,3,9,146,146,124,124,5,6,4,4,0.4,0.4
2026-03-17T1600,2520A,109.2203,23.7252,来宾市,来宾技工学校,,47,47,54,22,29,88,88,81,81,5,9,12,10,0.6,0.6
2026-03-17T1600,3535A,109.1781,23.7293,来宾市,兴宾区政府,,41,41,56,20,30,91,91,83,83,8,12,10,9,0.5,0.5
2026-03-17T1600,4002A,109.2312,23.7428,来宾市,中南小学,,47,47,51,22,30,95,95,86,86,5,13,8,8,0.5,0.6
2026-03-17T1600,1479A,103.8309,36.0467,兰州市,铁路设计院,NA,NA,NA,NA,NA,NA,NA,NA,NA,NA,NA,NA,NA,NA,NA,NA
2026-03-17T1600,3241A,103.7439,36.0841,兰州市,百合公园,颗粒物(PM10),68,75,87,33,43,84,84,77,77,7,10,2,4,0.5,0.5
2026-03-17T1600,3242A,103.9613,35.9985,兰州市,和平,颗粒物(PM10),75,84,94,31,37,99,99,94,94,5,9,9,11,0.4,0.5
2026-03-17T1600,4236A,103.629272,36.093822,兰州市,庄浪东路808号,颗粒物(PM10),78,88,94,40,44,89,89,85,81,4,10,5,7,0.4,0.4
2026-03-17T1600,4237A,103.7251,36.104344,兰州市,安宁西路88号,颗粒物(PM10),78,89,107,31,42,95,95,89,89,6,9,6,6,0.3,0.3
2026-03-17T1600,4238A,103.846982,36.067567,兰州市,北滨河东路1号,颗粒物(PM10),63,68,88,30,42,96,96,86,86,13,17,6,7,0.5,0.6
2026-03-17T1600,1067A,116.6712,39.5109,廊坊市,药材公司,细颗粒物(PM2.5),144,122,124,108,104,100,100,74,74,17,38,2,4,0.7,0.8
2026-03-17T1600,1068A,116.7215,39.5592,廊坊市,开发区,细颗粒物(PM2.5),150,140,124,114,101,107,107,71,71,16,39,4,5,0.6,0.7
2026-03-17T1600,1070A,116.7246,39.5273,廊坊市,北华航天学院,细颗粒物(PM2.5),155,141,128,118,102,108,108,74,74,16,37,3,5,0.6,0.7
2026-03-17T1600,2919A,116.7022,39.5454,廊坊市,河北工业大学,细颗粒物(PM2.5),146,147,130,110,98,104,104,68,68,14,34,4,5,0.7,0.7
2026-03-17T1600,2536A,103.7629,29.5844,乐山市,牛耳桥,,24,24,40,15,24,51,51,40,32,18,17,5,6,0.6,0.6
2026-03-17T1600,2537A,103.7501,29.6002,乐山市,市第三水厂,,23,23,36,12,20,51,51,43,40,18,17,3,3,0.5,0.7
2026-03-17T1600,2538A,103.7571,29.5664,乐山市,市监测站,,23,23,36,13,21,53,53,42,35,12,13,4,4,0.6,0.6
2026-03-17T1600,3361A,103.7313,29.563,乐山市,理工大学,,23,23,37,15,22,54,54,50,33,12,11,6,6,0.6,0.6
2026-03-17T1600,2599A,100.2497,26.8802,丽江市,丽江古城,,31,20,22,9,10,98,98,99,99,8,11,12,12,0.1,0.1
2026-03-17T1600,2600A,100.2203,26.8906,丽江市,市中心,,32,10,12,10,11,102,102,103,102,10,11,7,8,0.3,0.3
2026-03-17T1600,1267A,119.9141,28.4513,丽水市,监测站大楼,,35,34,30,13,15,111,111,100,100,8,11,5,4,0.4,0.4
2026-03-17T1600,1268A,119.93,28.4589,丽水市,莲都小学,,36,35,32,14,16,114,114,100,100,5,9,/,/,/,/
2026-03-17T1600,1269A,119.8794,28.4232,丽水市,余庄前,,35,32,29,14,14,111,111,91,91,9,15,4,4,0.3,0.3
2026-03-17T1600,1173A,119.1759,34.5885,连云港市,市环境监测站,NA,NA,48,48,31,37,106,106,100,100,19,19,NA,9,0.5,0.6
2026-03-17T1600,3000A,119.3577,34.6971,连云港市,德源药业,颗粒物(PM10),56,58,55,31,33,112,112,108,108,17,28,6,6,0.5,0.5
2026-03-17T1600,3007A,119.178,34.8442,连云港市,新城一中,细颗粒物(PM2.5),62,56,57,41,42,113,113,107,107,23,35,7,8,0.4,0.4
2026-03-17T1600,3008A,119.3607,34.7519,连云港市,胡沟管理处,颗粒物(PM10),55,56,48,31,28,92,92,92,92,37,38,9,9,0.6,0.6
2026-03-17T1600,3009A,119.1478,34.5913,连云港市,矿山设计院,细颗粒物(PM2.5),52,51,52,36,34,112,112,105,105,24,24,13,8,0.7,0.8
2026-03-17T1600,3434A,119.2414,34.6539,连云港市,工贸学校,,49,49,45,34,34,118,118,113,113,17,15,11,11,0.7,0.6
2026-03-17T1600,3664A,119.4171,34.734,连云港市,连云街道,,44,44,40,28,27,120,120,111,111,14,23,4,7,0.4,0.5
2026-03-17T1600,2573A,102.2629,27.8981,凉山彝族自治州,西昌市政府,,33,29,27,16,17,104,104,99,99,4,7,9,12,0.5,0.7
2026-03-17T1600,2574A,102.2686,27.885,凉山彝族自治州,凉山州政府,,32,29,28,17,18,100,100,95,95,4,7,3,13,0.3,0.7
2026-03-17T1600,4229A,102.2342,27.8859,凉山彝族自治州,凯乐南路30号,,34,28,30,16,17,107,107,103,103,6,9,9,12,0.6,0.8
2026-03-17T1600,2212A,123.1978,41.2036,辽阳市,宏伟区,细颗粒物(PM2.5),115,91,136,76,102,146,146,132,132,20,27,14,13,0.8,0.9
2026-03-17T1600,2213A,123.1684,41.2497,辽阳市,新华园,细颗粒物(PM2.5),111,104,167,72,140,144,144,125,125,28,44,17,16,0.9,1.1
2026-03-17T1600,2214A,123.2355,41.2663,辽阳市,滨河路,细颗粒物(PM2.5),110,103,144,71,124,139,139,125,125,25,36,13,12,0.8,1
2026-03-17T1600,4083A,123.153,41.2874,辽阳市,铁西路150号,细颗粒物(PM2.5),116,129,174,77,133,132,132,114,114,24,41,17,20,1.1,1.4
2026-03-17T1600,2227A,125.1359,42.8845,辽源市,环保局,NA,NA,NA,160,51,130,132,132,103,103,10,40,7,9,0.6,1.3
2026-03-17T1600,4085A,125.0998,42.9134,辽源市,安宁大街333号,颗粒物(PM10),98,116,162,57,136,132,132,108,108,15,39,8,9,0.8,1.2
2026-03-17T1600,1625A,115.9789,36.4372,聊城市,区政府,细颗粒物(PM2.5),130,111,131,92,110,122,122,96,96,16,24,10,10,0.8,0.9
2026-03-17T1600,3200A,115.9772,36.4986,聊城市,监控中心,细颗粒物(PM2.5),131,114,131,94,110,137,137,110,110,16,23,10,10,0.9,1
2026-03-17T1600,3513A,116.0443,36.436,聊城市,九州社区,细颗粒物(PM2.5),124,105,127,86,112,144,144,114,114,18,28,3,2,0.8,1
2026-03-17T1600,4018A,116.0564,36.4609,聊城市,星美广场,细颗粒物(PM2.5),129,114,142,91,115,132,132,103,103,6,18,5,5,0.8,0.9
2026-03-17T1600,4113A,116.0091,36.4495,聊城市,利民路,细颗粒物(PM2.5),123,105,137,85,109,139,139,110,110,17,24,8,8,0.7,1
2026-03-17T1600,2632A,94.3683,29.6373,林芝市,林芝监测站,,36,6,4,3,4,113,113,90,90,2,3,5,5,0.5,0.5
2026-03-17T1600,2633A,94.3616,29.6634,林芝市,林芝人民医院,,39,10,6,3,6,123,123,91,91,3,4,8,7,0.3,0.5
2026-03-17T1600,2603A,100.0779,23.8981,临沧市,市环保局,,46,46,46,15,37,109,109,71,71,9,10,7,6,0.5,0.6
2026-03-17T1600,2604A,100.0894,23.882,临沧市,市气象局,,50,41,47,35,38,119,119,78,78,7,10,7,7,0.6,0.6
2026-03-17T1600,1733A,111.5552,36.0791,临汾市,临钢医院,细颗粒物(PM2.5),103,109,108,63,60,64,64,58,58,23,23,8,8,1.0,1
2026-03-17T1600,1734A,111.4984,36.0734,临汾市,技工学校,细颗粒物(PM2.5),84,68,104,52,69,69,69,58,58,18,22,6,8,0.8,1.1
2026-03-17T1600,1736A,111.5017,36.0857,临汾市,市委,NA,NA,NA,114,NA,61,74,74,60,60,14,22,NA,3,NA,1.1
2026-03-17T1600,3018A,111.5048,36.1015,临汾市,唐尧大酒店,颗粒物(PM10),75,85,114,44,57,73,73,57,57,16,24,7,9,0.8,1.1
2026-03-17T1600,4244A,111.4879,36.053,临汾市,启星学校,细颗粒物(PM2.5),105,96,103,65,63,59,59,53,53,28,31,5,5,1.0,1.1
2026-03-17T1600,4271A,103.2464,35.6123,临夏回族自治州,滨河东路1号,颗粒物(PM10),60,64,96,20,37,104,104,84,84,6,14,6,7,0.3,0.4
2026-03-17T1600,4310A,103.207136,35.599807,临夏回族自治州,新华街21号,颗粒物(PM10),69,76,98,18,40,83,83,78,78,2,6,7,6,0.0,0.6
2026-03-17T1600,1618A,118.3429,35.0532,临沂市,沂河小区,颗粒物(PM10),60,63,79,37,58,110,110,98,98,17,23,12,10,0.4,0.5
2026-03-17T1600,1619A,118.2962,35.0568,临沂市,鲁南制药厂,颗粒物(PM10),56,58,73,34,58,114,114,103,103,23,28,12,12,0.5,0.5
2026-03-17T1600,1620A,118.2793,34.9976,临沂市,新光毛纺厂,,49,36,73,34,63,105,105,100,100,20,32,10,9,0.5,0.6
2026-03-17T1600,1621A,118.3955,35.0889,临沂市,河东保险公司,,46,46,72,31,51,115,115,103,103,29,43,10,9,0.3,0.4
2026-03-17T1600,3370A,118.3563,35.0215,临沂市,十里堡居委,细颗粒物(PM2.5),58,51,68,39,57,112,112,102,102,24,31,11,10,0.5,0.6
2026-03-17T1600,3496A,118.359,35.1067,临沂市,南坊新区,,48,48,67,33,52,118,118,103,103,25,33,10,9,0.5,0.5
2026-03-17T1600,3860A,118.3915,35.0297,临沂市,皇山花园小区,,48,48,71,33,57,113,113,105,105,22,35,12,11,0.4,0.6
2026-03-17T1600,1870A,109.4854,24.3898,柳州市,柳东小学,,42,42,50,24,29,95,95,87,87,7,11,4,6,0.5,0.5
2026-03-17T1600,1871A,109.4109,24.3304,柳州市,环保监测站,,43,43,58,23,33,80,80,76,76,14,20,4,7,0.8,0.8
2026-03-17T1600,1872A,109.3886,24.3408,柳州市,河西水厂,颗粒物(PM10),60,64,77,23,40,88,88,81,81,14,22,8,11,0.6,0.7
2026-03-17T1600,1873A,109.4263,24.2951,柳州市,市四中,颗粒物(PM10),51,51,59,28,37,82,82,77,77,17,21,7,9,0.3,0.3
2026-03-17T1600,1874A,109.396,24.3658,柳州市,市九中,颗粒物(PM10),54,55,77,23,42,77,77,68,68,13,22,8,11,0.7,0.8
2026-03-17T1600,1875A,109.4912,24.3164,柳州市,古亭山,颗粒物(PM10),52,52,60,28,31,93,93,86,86,9,15,7,8,0.6,0.6
2026-03-17T1600,3402A,109.5422,24.3994,柳州市,市二中,颗粒物(PM10),55,57,69,27,26,91,91,82,82,9,15,8,9,0.5,0.5
2026-03-17T1600,2307A,116.5078,31.7369,六安市,监测大楼,,17,10,41,7,33,22,22,29,23,34,24,6,5,0.8,0.7
2026-03-17T1600,2308A,116.4738,31.7642,六安市,皖西学院,,15,NA,44,8,33,24,24,35,24,30,21,4,4,0.7,0.6
2026-03-17T1600,2309A,116.4997,31.7904,六安市,朝阳厂,,22,NA,48,15,44,24,24,33,23,36,27,5,5,0.8,0.6
2026-03-17T1600,2310A,116.5566,31.7885,六安市,开发区,,16,NA,38,11,39,26,26,34,25,23,15,4,4,0.7,0.5
2026-03-17T1600,2577A,104.8293,26.592,六盘水市,黄土坡,,35,35,28,22,19,101,101,78,78,12,16,7,7,0.3,0.5
2026-03-17T1600,2579A,104.8481,26.5898,六盘水市,民中,,38,37,30,26,22,101,101,75,75,7,13,5,5,0.5,0.7
2026-03-17T1600,2580A,104.9541,26.5506,六盘水市,双水,,35,31,25,24,16,102,102,77,77,8,10,5,4,0.1,0.2
2026-03-17T1600,4151A,104.8899,26.5685,六盘水市,钟山大道中段564号,,40,40,28,22,18,108,108,83,83,6,10,8,9,0.5,0.7
2026-03-17T1600,2336A,117.022,25.1031,龙岩市,龙岩市监测站,,31,26,32,8,22,98,98,90,90,3,15,5,14,0.4,0.5
2026-03-17T1600,2337A,117.0257,25.0662,龙岩市,闽西职业技术学院,,30,22,35,7,19,94,94,85,85,3,9,4,6,0.3,0.4
2026-03-17T1600,2338A,117.0195,25.0306,龙岩市,龙岩学院,,50,50,33,7,19,94,94,85,85,3,7,2,4,/,/
2026-03-17T1600,2885A,104.9344,33.3827,陇南市,滨江中学,,42,42,40,26,13,85,85,43,43,7,14,6,6,0.6,0.8
2026-03-17T1600,3247A,104.9551,33.3709,陇南市,市总工会,,48,48,32,26,11,88,88,45,45,5,11,5,5,0.5,0.7
2026-03-17T1600,2488A,111.9984,27.7346,娄底市,市监测站,颗粒物(PM10),59,62,19,29,13,49,49,36,36,19,13,11,6,1.2,0.9
2026-03-17T1600,2491A,111.9888,27.7035,娄底市,市政府,细颗粒物(PM2.5),84,84,21,52,13,33,33,31,27,28,13,11,5,1.6,0.7
2026-03-17T1600,4127A,111.9812,27.7591,娄底市,涟钢职大,颗粒物(PM10),52,52,16,27,10,45,45,36,36,20,13,7,3,0.9,0.6
2026-03-17T1600,4128A,112.0303,27.7457,娄底市,娄底体校,,40,40,17,21,9,44,44,34,34,12,6,3,2,0.8,0.5
2026-03-17T1600,1894A,105.4427,28.9063,泸州市,小市上码头,,26,22,33,18,27,67,67,42,42,13,20,6,6,0.6,0.6
2026-03-17T1600,1895A,105.4241,28.8573,泸州市,兰田宪桥,,23,23,38,14,24,59,59,38,38,15,18,5,6,0.6,0.7
2026-03-17T1600,1896A,105.4378,28.8833,泸州市,市环监站,NA,NA,NA,38,NA,19,NA,NA,62,NA,NA,22,NA,3,NA,0.4
2026-03-17T1600,4272A,105.3689,28.7783,泸州市,纳溪中医医院,,32,32,38,16,28,61,61,39,39,12,16,6,7,0.6,0.6
2026-03-17T1600,2183A,111.1447,37.5212,吕梁市,环保局,颗粒物(PM10),61,65,115,19,44,96,96,60,60,8,35,6,7,0.2,0.5
2026-03-17T1600,2185A,111.1285,37.5338,吕梁市,自来水公司,NA,NA,NA,135,20,49,96,96,2,NA,9,29,5,6,0.3,0.5
2026-03-17T1600,2867A,111.1225,37.5093,吕梁市,马茂庄小学,颗粒物(PM10),66,72,130,17,39,94,94,56,56,8,32,4,6,0.2,0.5
2026-03-17T1600,1812A,112.3934,34.6517,洛阳市,市委党校,细颗粒物(PM2.5),117,NA,78,78,78,80,80,68,54,21,23,7,8,0.9,0.9
2026-03-17T1600,1815A,112.494,34.6883,洛阳市,河南林校,细颗粒物(PM2.5),122,84,81,84,78,76,76,64,60,28,25,10,10,1.0,0.8
2026-03-17T1600,1816A,112.3843,34.623,洛阳市,开发区管委会,细颗粒物(PM2.5),111,81,94,72,76,89,89,64,63,16,22,8,10,0.6,0.7
2026-03-17T1600,1817A,112.4263,34.6249,洛阳市,市委新办公区,细颗粒物(PM2.5),117,94,91,78,79,84,84,69,60,23,24,8,8,0.8,0.7
2026-03-17T1600,3340A,112.6005,34.6323,洛阳市,伊滨,细颗粒物(PM2.5),136,112,94,99,75,77,77,52,52,24,29,6,6,0.8,0.7
2026-03-17T1600,3341A,112.495,34.6338,洛阳市,中移产业园,细颗粒物(PM2.5),129,NA,80,91,75,83,83,61,54,22,25,9,8,0.8,0.6
2026-03-17T1600,3593A,112.5736,34.8993,洛阳市,吉利监测站,细颗粒物(PM2.5),138,NA,82,101,84,66,66,54,54,31,39,7,8,0.9,0.7
2026-03-17T1600,3635A,112.3678,34.6623,洛阳市,河科大西苑校区,细颗粒物(PM2.5),113,74,77,74,73,88,88,71,61,20,23,7,9,0.8,0.8
2026-03-17T1600,3636A,112.4387,34.678,洛阳市,英才小学,细颗粒物(PM2.5),114,94,90,75,75,79,79,75,60,26,25,9,9,0.9,0.8
2026-03-17T1600,4214A,112.460027,34.694929,洛阳市,春都路1号院,细颗粒物(PM2.5),126,NA,80,88,76,73,73,59,54,22,24,8,9,1.0,0.9
2026-03-17T1600,2399A,114.051,33.5721,漯河市,三五一五工厂,NA,NA,NA,117,50,101,58,58,61,61,15,24,NA,4,0.5,0.7
2026-03-17T1600,2400A,114.0055,33.5698,漯河市,漯河大学,,50,NA,97,35,98,64,64,68,67,13,20,5,6,0.5,0.7
2026-03-17T1600,2401A,114.0134,33.5826,漯河市,市水利局,,39,31,96,27,96,60,60,64,64,15,22,5,5,0.6,0.7
2026-03-17T1600,2402A,114.0261,33.5697,漯河市,市广电局,细颗粒物(PM2.5),52,NA,93,36,96,55,55,58,58,14,21,4,5,0.6,0.6
2026-03-17T1600,3478A,113.9691,33.568,漯河市,市图书馆,,46,NA,115,32,96,59,59,62,62,16,19,4,5,0.6,0.8
2026-03-17T1600,4250A,114.089259,33.588274,漯河市,韶山路11号,,38,31,113,26,92,55,55,55,55,13,27,6,7,0.6,0.8
2026-03-17T1600,1798A,118.5084,31.6838,马鞍山市,湖东路四小,,24,24,37,14,36,49,49,48,48,30,25,6,6,0.6,0.7
2026-03-17T1600,1799A,118.5019,31.6449,马鞍山市,开发区,,19,NA,33,13,31,48,48,46,46,35,29,5,4,0.6,0.6
2026-03-17T1600,3633A,118.4914,31.681,马鞍山市,雨山,,16,9,32,8,25,50,50,48,48,30,24,4,4,0.7,0.7
2026-03-17T1600,4191A,118.527362,31.722269,马鞍山市,慈湖高新区,,21,21,49,14,39,50,50,49,49,33,26,5,5,0.6,0.6
2026-03-17T1600,1686A,111.0285,21.469,茂名市,电白南海,,36,36,41,11,15,75,75,78,76,9,11,5,6,0.7,0.7
2026-03-17T1600,1687A,110.9294,21.6533,茂名市,茂石化七小,NA,NA,NA,38,8,17,NA,NA,71,71,NA,13,6,9,0.3,0.4
2026-03-17T1600,1688A,110.9108,21.6688,茂名市,健康路,,27,27,33,10,16,80,80,80,80,9,13,4,6,0.5,0.5
2026-03-17T1600,1689A,110.8592,21.6826,茂名市,高岭,,46,46,47,12,17,71,71,85,78,15,13,3,6,/,/
2026-03-17T1600,3450A,111.0101,21.5165,茂名市,电白水东,,27,27,36,10,18,68,68,76,72,8,12,3,4,/,/
2026-03-17T1600,2540A,103.8414,30.0871,眉山市,气象局,NA,NA,18,36,11,14,NA,NA,38,38,NA,13,8,6,0.6,0.6
2026-03-17T1600,3148A,103.829,30.0563,眉山市,区人社局,,27,27,35,12,18,47,47,38,38,17,18,9,7,0.7,0.7
2026-03-17T1600,4148A,103.8836,30.0695,眉山市,眉职院,,26,26,28,11,13,49,49,39,39,19,16,7,5,0.8,0.7
2026-03-17T1600,1690A,116.1248,24.3307,梅州市,梅江月梅,,29,29,36,12,22,90,90,84,84,10,20,/,/,/,/
2026-03-17T1600,1691A,116.0798,24.2719,梅州市,梅县新城,,29,28,41,11,25,91,91,81,81,10,23,8,8,0.5,0.6
2026-03-17T1600,3315A,116.1234,24.2994,梅州市,梅龙,NA,NA,27,38,11,23,90,90,86,86,7,18,NA,7,0.6,0.7
2026-03-17T1600,1878A,104.7775,31.4741,绵阳市,富乐山,,20,6,11,3,7,63,63,44,44,10,10,6,6,0.7,0.8
2026-03-17T1600,1880A,104.6698,31.4668,绵阳市,高新区自来水公司,,20,6,12,3,7,63,63,44,44,9,12,7,7,0.6,0.6
2026-03-17T1600,3491A,104.6899,31.5324,绵阳市,西科大附属小学,,20,6,16,3,10,63,63,40,40,19,21,7,7,0.6,0.7
2026-03-17T1600,3492A,104.5647,31.5343,绵阳市,安州区旅游局,,20,6,14,3,8,61,61,46,46,10,10,6,6,0.5,0.5
2026-03-17T1600,4146A,104.7092,31.4972,绵阳市,科技城新区公安局,,19,6,13,3,8,59,59,40,40,8,10,9,9,0.7,0.7
2026-03-17T1600,4226A,104.765114,31.453094,绵阳市,绵阳市气象局,,19,9,11,3,7,59,59,40,40,10,14,8,7,0.5,0.8
2026-03-17T1600,1784A,129.61,44.561,牡丹江市,环保大楼,细颗粒物(PM2.5),186,201,100,140,84,171,171,126,126,28,33,10,6,0.9,0.8
2026-03-17T1600,1787A,129.6364,44.6075,牡丹江市,机车工厂,细颗粒物(PM2.5),175,174,98,132,67,162,162,113,113,27,31,8,5,0.9,0.7
2026-03-17T1600,1788A,129.6386,44.5462,牡丹江市,第一中学,细颗粒物(PM2.5),150,135,58,115,52,145,145,113,113,24,28,9,6,0.6,0.5
2026-03-17T1600,4287A,129.5992,44.5964,牡丹江市,东晓云街98号,细颗粒物(PM2.5),202,204,105,152,82,172,172,115,115,24,25,10,8,1.0,0.8
2026-03-17T1600,2531A,105.0703,29.61,内江市,市监测站,,18,14,21,8,14,55,55,42,42,10,10,7,7,0.6,0.6
2026-03-17T1600,2533A,105.0657,29.5807,内江市,内江二中,,29,29,34,8,15,57,57,44,44,17,16,8,7,0.4,0.4
2026-03-17T1600,2534A,105.0407,29.5828,内江市,内江日报社,,23,23,20,7,15,60,60,47,47,10,12,11,11,0.4,0.4
2026-03-17T1600,4147A,105.0433,29.6105,内江市,玉峰路西段888号,,27,27,21,8,17,62,62,49,49,13,12,8,8,0.4,0.4
2026-03-17T1600,2628A,92.0653,31.4846,那曲市,那曲监测站,,38,17,30,8,18,120,120,104,104,6,8,6,6,0.5,0.6
2026-03-17T1600,4243A,92.0515,31.4787,那曲市,那曲市委宣传部,,40,14,27,3,12,126,126,110,110,3,5,6,6,0.4,0.4
2026-03-17T1600,1291A,115.8887,28.7006,南昌市,省林业公司,,44,44,16,30,15,75,75,54,54,20,22,3,3,1.1,1.1
2026-03-17T1600,1292A,115.813,28.7443,南昌市,林科所,细颗粒物(PM2.5),58,46,16,39,19,74,74,56,56,27,22,7,7,1.0,1.1
2026-03-17T1600,1294A,115.8518,28.687,南昌市,建工学校,颗粒物(PM10),55,57,27,37,18,70,70,52,52,29,27,8,8,0.8,0.8
2026-03-17T1600,1295A,115.8926,28.6425,南昌市,象湖,细颗粒物(PM2.5),56,40,18,38,20,70,70,56,56,25,18,7,7,0.9,0.9
2026-03-17T1600,3046A,115.9084,28.6062,南昌市,机电学校,颗粒物(PM10),59,62,34,38,22,76,76,55,55,20,20,5,5,0.7,0.7
2026-03-17T1600,3690A,115.9718,28.7032,南昌市,外国语学校,细颗粒物(PM2.5),62,56,24,41,21,69,69,40,40,31,26,7,7,1.0,0.8
2026-03-17T1600,4106A,115.7923,28.6873,南昌市,工业二路,颗粒物(PM10),60,64,33,38,20,78,78,59,59,23,23,4,4,0.8,0.8
2026-03-17T1600,4192A,115.931587,28.686774,南昌市,南京东路235号,颗粒物(PM10),52,52,28,31,17,82,82,53,53,17,16,5,5,0.8,0.7
2026-03-17T1600,1906A,106.0791,30.8022,南充市,南充市委,,20,11,13,6,9,61,61,40,40,10,17,6,6,0.6,0.6
2026-03-17T1600,1907A,106.1038,30.8215,南充市,南充炼油厂,,22,22,21,3,9,62,62,41,41,8,14,4,4,0.5,0.5
2026-03-17T1600,4227A,106.108336,30.788436,南充市,梨树横街98号,,22,9,14,6,10,68,68,44,44,10,16,5,5,0.3,0.4
2026-03-17T1600,4304A,106.1172,30.843,南充市,清泉寺北路188号,,22,22,16,3,9,68,68,47,47,6,9,5,5,0.4,0.4
2026-03-17T1600,4305A,106.067,30.7616,南充市,同庆路1号,,20,11,7,6,8,62,62,41,41,12,15,6,6,0.6,0.6
2026-03-17T1600,1151A,118.8033,32.1085,南京市,迈皋桥,,21,21,61,13,51,62,62,64,64,30,23,5,5,0.3,0.4
2026-03-17T1600,1152A,118.7487,32.057,南京市,草场门,NA,NA,19,50,NA,42,59,59,59,59,40,38,8,8,0.7,0.8
2026-03-17T1600,1154A,118.770105,32.004342,南京市,中华门,,15,14,52,3,37,47,47,51,51,27,17,4,4,0.8,0.7
2026-03-17T1600,1155A,118.8059,32.0329,南京市,瑞金路,,16,14,62,6,46,48,48,49,49,32,21,4,4,1.0,1
2026-03-17T1600,1156A,118.7946,32.0774,南京市,玄武湖,,19,NA,56,13,49,50,50,53,53,34,25,6,7,1.0,1
2026-03-17T1600,1157A,118.6415,32.0964,南京市,浦口,,20,NA,62,11,50,40,40,40,40,40,33,4,4,0.7,0.7
2026-03-17T1600,1158A,118.730129,32.000956,南京市,奥体中心,,18,14,55,7,40,56,56,56,56,35,27,11,11,0.5,0.5
2026-03-17T1600,1159A,118.9072,32.1047,南京市,仙林大学城,NA,NA,24,61,8,46,56,56,58,58,NA,27,6,6,NA,0.8
2026-03-17T1600,3422A,118.8443,31.919,南京市,江宁彩虹桥,,25,10,52,8,38,54,54,58,58,49,37,5,4,0.8,0.9
2026-03-17T1600,3427A,118.8497,32.3599,南京市,六合雄州,,46,34,58,32,55,46,46,56,50,33,22,4,4,0.8,0.7
2026-03-17T1600,4086A,118.7641,32.0841,南京市,新模范马路66号,,21,17,60,6,47,51,51,52,52,41,31,3,4,1.0,1
2026-03-17T1600,4249A,118.8707617,31.34017673,南京市,汶溪路181号,,25,NA,26,17,26,66,66,62,62,22,29,4,6,0.5,0.5
2026-03-17T1600,4312A,119.019,31.6512,南京市,中山西路1号,NA,NA,NA,34,1,24,55,55,51,51,20,20,4,4,0.4,0.5
2026-03-17T1600,1401A,108.3098,22.788,南宁市,二十一中,,35,35,33,17,22,72,72,61,60,8,11,4,5,0.5,0.6
2026-03-17T1600,1402A,108.3135,22.8529,南宁市,北湖,,29,27,35,20,22,78,78,68,66,9,12,4,4,0.5,0.6
2026-03-17T1600,1403A,108.3205,22.8222,南宁市,市监测站,,40,40,34,17,19,81,81,71,68,10,12,7,8,0.5,0.5
2026-03-17T1600,1404A,108.3828,22.8038,南宁市,大自然花园,,31,31,37,16,16,83,83,74,72,8,10,5,6,0.4,0.4
2026-03-17T1600,1406A,108.2397,22.8462,南宁市,区农职院,,31,31,37,17,18,74,74,69,65,12,12,5,6,0.3,0.4
2026-03-17T1600,1407A,108.3285,22.7356,南宁市,英华嘉园,NA,NA,44,44,16,21,74,74,62,62,12,16,4,6,NA,0.6
2026-03-17T1600,3401A,108.4829,22.762,南宁市,红星社区,,29,29,36,16,22,86,86,73,73,7,12,4,5,0.5,0.5
2026-03-17T1600,4132A,108.2927,23.1477,南宁市,起凤路9号,,37,37,42,22,24,75,75,72,67,7,10,3,3,0.4,0.3
2026-03-17T1600,4221A,108.2177,22.7774,南宁市,乐贤路16号,,34,34,37,14,17,70,70,65,65,8,15,4,5,0.5,0.5
2026-03-17T1600,2332A,118.1682,26.6371,南平市,南平市监测站,NA,NA,25,27,13,17,113,113,97,97,NA,15,4,4,0.4,0.5
2026-03-17T1600,2334A,118.1757,26.6276,南平市,南平七中,,38,38,27,13,15,114,114,98,98,5,13,3,3,0.3,0.4
2026-03-17T1600,1168A,120.9056,31.9669,南通市,狼山街道,,26,22,45,17,37,83,83,88,81,14,15,3,4,0.4,0.6
2026-03-17T1600,1170A,120.8635,32.0231,南通市,城中,,28,25,53,18,39,87,87,96,84,15,16,3,3,0.6,0.7
2026-03-17T1600,1171A,120.9376,31.9301,南通市,星湖花园,,32,22,48,22,41,77,77,86,78,18,14,3,3,0.5,0.6
2026-03-17T1600,1172A,120.8053,32.046,南通市,紫琅学院,,26,19,48,18,36,82,82,96,82,21,19,4,4,0.6,0.7
2026-03-17T1600,3291A,121.0631,32.0644,南通市,通州监测站,,38,31,47,26,36,88,88,95,91,14,12,3,3,0.4,0.5
2026-03-17T1600,3432A,120.9348,31.9874,南通市,环境教育馆,,27,27,46,17,35,80,80,86,78,22,22,3,3,0.4,0.5
2026-03-17T1600,4091A,120.8692,31.9885,南通市,洪江路,,28,19,48,19,37,82,82,87,79,15,15,3,3,0.7,0.7
2026-03-17T1600,2404A,112.5338,33.0086,南阳市,瓦房庄,,45,45,73,26,65,73,73,62,62,12,14,4,4,0.8,0.8
2026-03-17T1600,2405A,112.5002,32.9734,南阳市,汉画馆,细颗粒物(PM2.5),86,NA,79,53,78,76,76,66,66,14,16,4,4,0.9,0.9
2026-03-17T1600,2406A,112.5778,33.0144,南阳市,气象站,NA,NA,54,86,32,65,72,72,61,61,15,17,NA,4,NA,0.7
2026-03-17T1600,2407A,112.548,32.9687,南阳市,理工学院,细颗粒物(PM2.5),58,47,77,39,73,72,72,60,60,10,14,4,5,0.7,0.7
2026-03-17T1600,4008A,112.5233,32.9921,南阳市,卧龙区政府,细颗粒物(PM2.5),64,45,86,42,74,72,72,62,62,12,14,5,5,0.7,0.7
2026-03-17T1600,1234A,121.8352,29.9111,宁波市,区环保大楼,,33,25,40,14,24,105,105,77,77,18,31,6,6,0.5,0.4
2026-03-17T1600,1235A,121.5595,29.8208,宁波市,万里学院,,30,30,31,18,21,96,96,82,82,11,13,4,4,0.5,0.5
2026-03-17T1600,1236A,121.713,29.9564,宁波市,龙赛医院,,31,28,38,17,22,97,97,83,83,15,20,4,4,0.4,0.4
2026-03-17T1600,1240A,121.5855,29.8635,宁波市,太古小学,,33,33,36,20,21,100,100,85,85,18,20,3,3,0.5,0.4
2026-03-17T1600,1241A,121.5239,29.8673,宁波市,市环境监测中心,,36,36,36,21,22,87,87,77,77,19,19,5,5,0.5,0.5
2026-03-17T1600,2871A,121.6156,29.9015,宁波市,万里国际学校,NA,NA,40,37,24,22,101,101,92,92,NA,14,4,4,0.5,0.5
2026-03-17T1600,3710A,121.5593,29.8976,宁波市,白沙活动中心,,31,28,29,20,21,99,99,85,85,14,14,4,4,0.4,0.3
2026-03-17T1600,4095A,121.8962,29.7529,宁波市,中科路88号,,37,22,29,14,20,116,116,103,103,16,16,6,6,0.6,0.5
2026-03-17T1600,2341A,119.5387,26.6611,宁德市,宁德市监测站,,46,46,31,15,16,128,128,95,95,11,15,6,6,0.5,0.6
2026-03-17T1600,3209A,119.5231,26.6562,宁德市,宁德一中,,40,32,30,16,19,127,127,93,93,10,13,7,7,0.5,0.5
2026-03-17T1600,2618A,98.859,25.8541,怒江傈僳族自治州,州监测站,,26,14,31,13,22,82,82,49,49,7,10,7,7,0.6,0.7
2026-03-17T1600,2619A,98.8607,25.8168,怒江傈僳族自治州,泸水一中,,23,NA,19,15,23,71,71,43,43,15,6,5,5,0.5,0.5
2026-03-17T1600,1888A,101.6891,26.571,攀枝花市,弄弄坪,,40,40,43,16,23,112,112,94,94,11,18,14,12,1.0,0.8
2026-03-17T1600,1889A,101.577,26.5914,攀枝花市,河门口,,40,40,46,23,26,122,122,95,95,6,17,6,18,0.5,0.9
2026-03-17T1600,1891A,101.7365,26.4986,攀枝花市,仁和,,34,25,30,19,23,107,107,100,100,6,9,8,9,0.5,0.5
2026-03-17T1600,2835A,101.7222,26.567,攀枝花市,四十中小,NA,NA,NA,36,NA,22,108,108,92,92,7,16,4,10,0.7,0.8
2026-03-17T1600,1604A,122.0303,41.1489,盘锦市,开发区,细颗粒物(PM2.5),107,73,108,67,116,126,126,104,104,20,27,8,9,0.6,0.8
2026-03-17T1600,1605A,122.0486,41.0883,盘锦市,兴隆台,细颗粒物(PM2.5),106,73,109,66,122,121,121,101,101,21,44,9,9,0.5,0.8
2026-03-17T1600,1606A,121.8297,41.1026,盘锦市,新生街道,细颗粒物(PM2.5),119,NA,78,80,91,120,120,97,97,28,44,10,9,0.7,0.7
2026-03-17T1600,1832A,113.3257,33.7423,平顶山市,新华旅馆,细颗粒物(PM2.5),120,99,121,81,102,86,86,59,59,14,22,NA,6,0.7,0.8
2026-03-17T1600,1833A,113.2917,33.737,平顶山市,规划设计院,细颗粒物(PM2.5),112,97,132,73,102,90,90,63,63,16,21,5,5,0.6,0.7
2026-03-17T1600,1834A,113.182,33.7738,平顶山市,平顶山工学院,细颗粒物(PM2.5),106,78,113,66,95,91,91,57,57,15,22,3,4,0.3,0.5
2026-03-17T1600,3594A,112.8736,33.9068,平顶山市,石龙区,细颗粒物(PM2.5),96,65,106,58,92,95,95,54,54,16,32,6,6,0.7,0.7
2026-03-17T1600,4116A,113.284,33.7139,平顶山市,姚电大道23号,细颗粒物(PM2.5),110,90,125,71,102,92,92,67,67,18,22,5,5,0.7,0.8
2026-03-17T1600,2656A,106.6633,35.5338,平凉市,聚贤嘉苑,颗粒物(PM10),68,74,84,19,36,100,100,89,89,7,19,6,6,0.5,0.7
2026-03-17T1600,2657A,106.7021,35.5307,平凉市,博物馆,颗粒物(PM10),68,75,80,19,38,98,98,87,87,6,16,8,8,0.4,0.7
2026-03-17T1600,2348A,113.8384,27.6436,萍乡市,中医院,细颗粒物(PM2.5),103,83,57,63,37,51,51,42,42,22,23,8,8,1.4,1.1
2026-03-17T1600,2350A,113.8677,27.6438,萍乡市,市环保局,细颗粒物(PM2.5),106,NA,46,66,39,70,70,44,44,11,19,3,3,1.5,1.2
2026-03-17T1600,2351A,113.8663,27.6202,萍乡市,安源区政府,细颗粒物(PM2.5),110,NA,47,70,37,60,60,36,36,16,21,7,7,1.3,0.8
2026-03-17T1600,4107A,113.8686,27.6668,萍乡市,联洪村委会,NA,NA,72,52,60,36,NA,NA,37,37,NA,25,4,5,NA,0.8
2026-03-17T1600,2319A,119.0142,25.4324,莆田市,荔城区仓后路,,41,39,38,21,20,131,131,106,106,13,18,/,/,/,/
2026-03-17T1600,2320A,119.0016,25.4553,莆田市,莆田市监测站,,50,50,30,19,18,137,137,114,114,12,11,5,3,0.3,0.4
2026-03-17T1600,2321A,119.112,25.4561,莆田市,涵江区六中,,39,32,39,22,20,124,124,106,106,9,22,/,/,0.3,0.6
2026-03-17T1600,2322A,119.1014,25.3215,莆田市,秀屿区政府,,41,36,34,22,18,129,129,110,110,7,13,4,4,0.3,0.4
2026-03-17T1600,2392A,115.0312,35.7636,濮阳市,环保局,细颗粒物(PM2.5),124,95,106,86,102,97,97,86,86,16,21,NA,6,0.8,0.9
2026-03-17T1600,3021A,115,35.7667,濮阳市,濮水河管理处,细颗粒物(PM2.5),130,111,127,92,108,104,104,93,93,15,19,7,7,0.7,0.7
2026-03-17T1600,4118A,115.0552,35.7816,濮阳市,中原东路68号,细颗粒物(PM2.5),138,118,132,101,101,103,103,89,89,15,18,6,6,0.8,0.9
2026-03-17T1600,4216A,115.0923632,35.76857718,濮阳市,任丘路479号,细颗粒物(PM2.5),130,110,129,92,101,113,113,91,91,24,25,6,6,0.8,1
2026-03-17T1600,2601A,100.9801,22.7634,普洱市,市环保局,颗粒物(PM10),56,58,53,31,28,112,112,74,74,6,9,6,6,0.6,0.7
2026-03-17T1600,2602A,100.9763,22.8237,普洱市,普洱第二中学,颗粒物(PM10),65,71,51,36,32,118,118,80,80,8,11,4,3,0.6,0.7
2026-03-17T1600,3345A,131.0413,45.7795,七台河市,中波台,NA,NA,86,85,NA,51,128,128,101,101,16,23,16,17,0.5,0.6
2026-03-17T1600,3637A,131.0136,45.7688,七台河市,人民广场,细颗粒物(PM2.5),118,NA,70,79,42,132,132,102,102,15,24,15,15,0.6,0.6
2026-03-17T1600,3684A,130.8639,45.8144,七台河市,新建矿广场,细颗粒物(PM2.5),115,95,78,76,53,126,126,102,102,18,22,5,10,0.3,0.3
2026-03-17T1600,1779A,123.9307,47.3641,齐齐哈尔市,安居小区,细颗粒物(PM2.5),183,195,88,138,59,137,137,119,119,25,21,10,7,0.8,0.6
2026-03-17T1600,1780A,123.9497,47.3389,齐齐哈尔市,中心广场,细颗粒物(PM2.5),192,253,97,144,64,130,130,116,116,24,18,14,11,0.8,0.5
2026-03-17T1600,1781A,123.9483,47.3229,齐齐哈尔市,农牧车辆厂,细颗粒物(PM2.5),190,212,87,143,57,130,130,111,111,21,17,12,9,0.6,0.4
2026-03-17T1600,1783A,123.9442,47.2994,齐齐哈尔市,市环境监测站,细颗粒物(PM2.5),183,215,79,138,49,133,133,111,111,24,17,9,6,1.1,0.8
2026-03-17T1600,3662A,123.6341,47.2079,齐齐哈尔市,富区青少年活动中心,颗粒物(PM10),265,395,121,191,76,142,142,124,124,33,14,19,6,1.8,0.7
2026-03-17T1600,2591A,107.9765,26.5724,黔东南苗族侗族自治州,市环境监测站,NA,NA,26,17,14,9,21,21,33,20,NA,8,2,2,NA,0.7
2026-03-17T1600,2881A,107.8909,26.531,黔东南苗族侗族自治州,凯里学院,,24,24,12,14,7,30,30,35,26,12,14,3,4,0.9,0.9
2026-03-17T1600,2593A,107.5223,26.2371,黔南布依族苗族自治州,小围寨,,26,24,8,18,7,28,28,32,32,10,7,8,6,0.9,0.8
2026-03-17T1600,3538A,107.5175,26.2977,黔南布依族苗族自治州,沙坝,,31,31,16,19,7,26,26,29,28,8,7,4,4,0.8,0.8
2026-03-17T1600,2589A,104.9022,25.0943,黔西南布依族苗族自治州,场坝街,,40,NA,30,24,25,128,128,117,117,5,5,3,3,0.5,0.5
2026-03-17T1600,2590A,104.8812,25.0994,黔西南布依族苗族自治州,坪东大道,,41,NA,30,18,25,130,130,105,105,6,11,5,5,0.4,0.5
2026-03-17T1600,2502A,108.6238,21.9667,钦州市,市环保站,,48,48,43,10,14,86,86,80,80,12,12,7,5,0.4,0.5
2026-03-17T1600,2503A,108.655,21.9481,钦州市,沙埠小学,,46,46,40,18,16,91,91,82,82,4,12,5,5,0.3,0.3
2026-03-17T1600,2504A,108.5989,21.7435,钦州市,港区一小,,42,42,47,16,18,87,87,82,80,8,12,4,4,0.4,0.5
2026-03-17T1600,3404A,108.5959,21.9634,钦州市,北职校,,43,43,37,16,17,93,93,85,85,10,11,8,6,0.5,0.5
2026-03-17T1600,1046A,119.5247,39.9346,秦皇岛市,建设大厦,细颗粒物(PM2.5),160,151,81,122,55,108,108,106,106,14,43,10,11,0.9,0.8
2026-03-17T1600,3132A,119.5979,39.938,秦皇岛市,文明里,细颗粒物(PM2.5),172,154,74,130,48,84,84,75,75,44,46,15,13,1.0,0.7
2026-03-17T1600,4066A,119.7458,39.9952,秦皇岛市,南园路157号,细颗粒物(PM2.5),170,145,77,129,51,87,87,69,69,47,58,13,12,0.9,0.7
2026-03-17T1600,4067A,119.5131,39.8858,秦皇岛市,翠岛大街1号,细颗粒物(PM2.5),168,146,78,127,56,101,101,81,81,28,38,14,12,1.0,0.8
2026-03-17T1600,4198A,119.509013,39.825305,秦皇岛市,北戴河轮滑馆,细颗粒物(PM2.5),162,142,66,123,42,84,84,70,70,46,32,11,9,0.9,0.7
2026-03-17T1600,1310A,120.404,36.0625,青岛市,市南区东部子站,细颗粒物(PM2.5),58,48,45,39,35,115,115,98,98,9,16,9,9,0.5,0.5
2026-03-17T1600,1311A,120.362344,36.10282,青岛市,四方区子站,,49,48,43,34,37,121,121,107,107,16,20,6,5,0.7,0.6
2026-03-17T1600,1312A,120.294373,36.054183,青岛市,市南区西部子站,细颗粒物(PM2.5),54,46,38,37,33,114,114,101,101,12,20,4,3,0.8,0.7
2026-03-17T1600,1313A,120.4581,36.0858,青岛市,崂山区子站,,48,48,44,33,34,121,121,102,102,13,17,8,7,0.5,0.5
2026-03-17T1600,1315A,120.3945,36.3083,青岛市,城阳区子站,颗粒物(PM10),53,53,50,30,32,124,124,101,101,19,29,6,6,0.6,0.7
2026-03-17T1600,3642A,120.3454,36.0735,青岛市,市北区南部,NA,NA,40,41,NA,29,118,118,106,106,NA,18,2,2,0.6,0.6
2026-03-17T1600,3643A,120.3897,36.18,青岛市,李沧区北部,,41,41,47,28,32,127,127,108,108,15,29,9,8,0.5,0.6
2026-03-17T1600,4110A,120.5222,36.4089,青岛市,盟旺路653号,,40,34,53,25,36,128,128,118,118,8,14,2,3,0.6,0.7
2026-03-17T1600,4290A,120.196923,35.954556,青岛市,珠江路669号,细颗粒物(PM2.5),62,48,46,41,35,123,123,107,107,17,36,5,5,0.5,0.5
2026-03-17T1600,4291A,120.0424,35.8656,青岛市,黄岛区人民政府广场,,42,41,47,29,36,115,115,101,101,11,25,8,8,0.6,0.6
2026-03-17T1600,1703A,113.0218,23.7086,清远市,凤城街办,,44,34,47,18,25,140,140,88,88,17,32,/,/,/,/
2026-03-17T1600,3025A,113.0479,23.6343,清远市,技师学院,,45,34,51,16,23,143,143,88,88,15,37,5,6,0.3,0.4
2026-03-17T1600,3318A,112.9898,23.7403,清远市,清新太和,臭氧1小时(O3_1h),54,43,49,25,26,163,163,103,103,19,30,7,8,0.3,0.4
2026-03-17T1600,3455A,113.076,23.72,清远市,清城东城,,47,38,52,17,26,149,149,90,90,15,29,/,/,/,/
2026-03-17T1600,2661A,107.6325,35.7357,庆阳市,庆阳五中,颗粒物(PM10),56,58,62,18,29,92,92,76,76,8,12,6,5,0.2,0.4
2026-03-17T1600,2662A,107.6361,35.7067,庆阳市,市环保局,颗粒物(PM10),55,56,63,10,29,95,95,80,80,10,15,6,6,0.3,0.5
2026-03-17T1600,1916A,103.7897,25.5036,曲靖市,环境监测站,NA,NA,36,41,22,26,127,127,116,116,7,9,6,7,NA,0.1
2026-03-17T1600,1917A,103.8013,25.5357,曲靖市,烟厂办公区,,37,37,39,14,22,118,118,105,105,6,7,3,4,0.4,0.5
2026-03-17T1600,3376A,103.7926,25.4651,曲靖市,南苑二区,,36,32,37,19,24,115,115,105,105,11,11,4,4,0.3,0.4
2026-03-17T1600,3377A,103.7442,25.5259,曲靖市,曲靖师范学院,,39,31,43,18,30,122,122,113,113,6,9,2,3,0.3,0.4
2026-03-17T1600,1264A,118.8694,28.94,衢州市,环保大楼,,50,50,65,32,41,136,136,101,101,23,21,/,/,/,/
2026-03-17T1600,1266A,118.8622,28.9809,衢州市,衢州学院,,46,45,58,32,41,136,136,105,105,20,24,5,5,0.5,0.5
2026-03-17T1600,4097A,118.9646,28.9832,衢州市,衢州三中,,49,49,64,30,43,134,134,103,103,20,23,7,7,0.7,0.7
2026-03-17T1600,1611A,118.5818,24.9116,泉州市,涂山街,,35,35,47,18,24,105,105,90,90,10,19,4,4,0.5,0.5
2026-03-17T1600,1612A,118.597,24.8976,泉州市,津头埔,,36,36,45,17,24,112,112,96,96,9,17,4,4,0.5,0.5
2026-03-17T1600,1613A,118.6669,24.9422,泉州市,万安,,40,40,43,17,22,98,98,89,89,10,21,3,4,0.5,0.5
2026-03-17T1600,4105A,118.6355,24.9148,泉州市,霞新路6号,,31,31,39,15,20,91,91,90,90,7,21,/,/,0.4,0.4
2026-03-17T1600,2626A,88.8873,29.2723,日喀则市,日喀则监测站,,44,NA,20,12,9,139,139,118,118,4,4,6,8,0.3,0.4
2026-03-17T1600,3726A,88.8775,29.2425,日喀则市,林业技术推广中心,,45,45,33,7,6,137,137,120,120,3,4,4,4,0.3,0.3
2026-03-17T1600,1659A,119.4711,35.421,日照市,监测站,颗粒物(PM10),53,53,50,36,31,130,130,100,100,16,42,7,8,0.6,0.7
2026-03-17T1600,1660A,119.523,35.4216,日照市,市政府广场,细颗粒物(PM2.5),58,51,44,39,29,133,133,113,113,16,32,6,6,0.5,0.5
2026-03-17T1600,1661A,119.5511,35.4113,日照市,港务局,颗粒物(PM10),56,58,48,36,30,130,130,106,106,17,32,4,4,0.7,0.6
2026-03-17T1600,3507A,119.5326,35.4627,日照市,职业技术学院,NA,NA,48,41,38,29,128,128,113,113,18,26,7,7,NA,0.7
2026-03-17T1600,3604A,119.3267,35.1043,日照市,岚山环保分局,颗粒物(PM10),62,66,53,38,30,127,127,108,108,18,23,10,10,0.7,0.7
2026-03-17T1600,1835A,111.1922,34.7752,三门峡市,市政府,细颗粒物(PM2.5),84,NA,50,52,50,71,71,72,66,21,19,7,8,0.6,0.6
2026-03-17T1600,1836A,111.1588,34.794,三门峡市,开发区,细颗粒物(PM2.5),100,74,72,60,58,78,78,69,69,9,14,9,11,0.5,0.7
2026-03-17T1600,3039A,111.1911,34.7829,三门峡市,三门峡市第一小学,细颗粒物(PM2.5),84,NA,55,52,52,76,76,69,68,16,15,10,11,0.6,0.6
2026-03-17T1600,3598A,111.1031,34.719,三门峡市,富达温泉假日酒店,细颗粒物(PM2.5),107,NA,61,67,56,72,72,61,61,22,22,12,12,0.6,0.6
2026-03-17T1600,2324A,117.621,26.2626,三明市,三钢,,36,24,36,13,27,114,114,101,101,11,24,17,8,0.8,0.7
2026-03-17T1600,2325A,117.6352,26.2714,三明市,三明二中,,37,16,33,12,21,118,118,119,119,7,18,8,8,0.6,0.6
2026-03-17T1600,2326A,117.6028,26.2377,三明市,三元区政府,,38,32,39,16,31,119,119,104,104,6,24,5,7,0.4,0.7
2026-03-17T1600,1877A,109.4962,18.2682,三亚市,河西子站,,33,33,28,13,12,77,77,82,79,3,4,4,4,0.4,0.4
2026-03-17T1600,3540A,109.7348,18.3443,三亚市,君悦子站,,35,35,34,12,13,75,75,72,72,3,6,4,4,0.3,0.4
2026-03-17T1600,4135A,109.1714,18.3739,三亚市,城东小学站,,38,38,30,8,15,76,76,83,83,4,8,/,/,/,/
2026-03-17T1600,2624A,91.7592,29.234,山南市,山南监测站,,41,20,16,3,4,129,129,101,101,2,3,2,3,0.1,0.2
2026-03-17T1600,2625A,91.7701,29.2436,山南市,山南人民医院,,42,32,26,3,5,132,132,108,108,3,3,5,5,0.3,0.3
2026-03-17T1600,1674A,116.6795,23.3666,汕头市,金平子站,,43,43,29,16,14,115,115,108,108,13,10,5,5,0.5,0.5
2026-03-17T1600,1675A,116.7248,23.3632,汕头市,龙湖子站,,36,36,29,15,15,108,108,104,104,10,13,5,5,/,/
2026-03-17T1600,1676A,116.7257,23.2774,汕头市,濠江子站,,32,31,30,11,15,100,100,100,100,9,12,7,7,/,/
2026-03-17T1600,1677A,116.7518,23.4712,汕头市,澄海子站,颗粒物(PM10),57,59,34,17,15,118,118,103,103,13,11,8,8,0.7,0.6
2026-03-17T1600,1678A,116.6088,23.2539,汕头市,潮阳子站,,36,31,28,14,15,115,115,108,108,4,8,6,6,0.5,0.5
2026-03-17T1600,3444A,116.4539,23.2684,汕头市,潮南峡山,,39,36,34,18,17,123,123,112,112,4,6,6,6,0.6,0.6
2026-03-17T1600,3624A,116.4069,23.2533,汕头市,潮南子站,,45,45,41,21,20,110,110,99,99,8,9,6,7,/,/
2026-03-17T1600,1693A,115.3653,22.7751,汕尾市,市环保局,,39,39,32,12,19,96,96,95,95,14,11,7,6,0.6,0.5
2026-03-17T1600,1695A,115.362,22.7926,汕尾市,新城中学,,40,40,34,11,20,99,99,96,96,11,10,8,7,0.5,0.4
2026-03-17T1600,2645A,109.9155,33.8714,商洛市,监测站,,20,7,18,6,15,62,62,68,68,13,17,4,6,0.7,0.7
2026-03-17T1600,3045A,109.9647,33.8486,商洛市,商州区中学,,19,17,23,7,15,59,59,62,62,18,20,4,5,0.7,0.7
2026-03-17T1600,2408A,115.6701,34.4283,商丘市,环境监测站,细颗粒物(PM2.5),133,NA,117,96,109,43,43,45,45,21,28,2,2,0.7,0.8
2026-03-17T1600,2409A,115.6458,34.4047,商丘市,粮食局,细颗粒物(PM2.5),123,NA,103,85,106,48,48,50,50,26,33,1,1,0.6,0.7
2026-03-17T1600,3171A,115.6069,34.4465,商丘市,梁园区档案局,细颗粒物(PM2.5),128,NA,93,90,96,44,44,54,54,26,33,2,2,0.6,0.7
2026-03-17T1600,4119A,115.6701,34.3767,商丘市,北海东路185号,细颗粒物(PM2.5),126,96,114,88,99,46,46,52,52,22,32,3,3,0.5,0.6
2026-03-17T1600,4120A,115.6172,34.3704,商丘市,中山大街3号,细颗粒物(PM2.5),122,99,122,84,96,52,52,60,60,20,34,NA,4,0.4,0.5
2026-03-17T1600,1141A,121.401,31.2382,上海市,普陀,细颗粒物(PM2.5),62,46,51,41,45,89,89,84,83,28,28,5,5,0.6,0.6
2026-03-17T1600,1142A,121.4774,31.2043,上海市,十五厂,NA,NA,48,57,40,47,90,90,86,86,28,27,8,8,NA,0.4
2026-03-17T1600,1143A,121.4673,31.3011,上海市,虹口,细颗粒物(PM2.5),56,50,60,38,45,84,84,86,81,28,26,4,5,0.4,0.4
2026-03-17T1600,1147A,121.4253,31.226,上海市,静安监测站,,49,40,44,34,38,93,93,87,87,29,29,7,7,0.5,0.6
2026-03-17T1600,1148A,121.7029,31.1905,上海市,浦东川沙,,48,36,71,33,55,94,94,86,86,27,24,5,5,0.8,0.9
2026-03-17T1600,1149A,121.5339,31.229,上海市,浦东新区监测站,,49,42,54,34,41,88,88,82,81,25,24,5,5,0.6,0.7
2026-03-17T1600,1150A,121.5776,31.2038,上海市,浦东张江,细颗粒物(PM2.5),54,43,50,37,44,94,94,88,87,25,26,6,6,0.1,0.3
2026-03-17T1600,3265A,121.4242,31.3303,上海市,宝山庙行,细颗粒物(PM2.5),52,51,61,36,42,79,79,78,78,32,32,4,4,0.4,0.5
2026-03-17T1600,3266A,121.8789,31.4662,上海市,崇明上实东滩,,35,26,41,24,39,105,105,112,106,16,14,7,7,0.3,0.4
2026-03-17T1600,3268A,121.316,31.2839,上海市,嘉定南翔,细颗粒物(PM2.5),54,41,43,37,35,87,87,77,77,21,25,4,4,0.4,0.5
2026-03-17T1600,3269A,121.3357,30.7455,上海市,金山新城,,40,31,41,28,35,103,103,93,93,15,17,3,4,0.8,0.8
2026-03-17T1600,3270A,121.4996,31.0741,上海市,闵行浦江,细颗粒物(PM2.5),62,42,54,41,50,95,95,84,84,24,24,6,6,0.3,0.3
2026-03-17T1600,3271A,121.2886,31.1663,上海市,青浦徐泾,细颗粒物(PM2.5),56,44,50,38,41,88,88,80,80,29,27,4,4,0.5,0.6
2026-03-17T1600,3272A,121.2193,31.0382,上海市,松江图书馆,,49,42,50,34,44,93,93,82,82,25,26,6,6,0.5,0.5
2026-03-17T1600,3273A,121.3904,31.206,上海市,长宁仙霞,细颗粒物(PM2.5),62,45,50,41,44,90,90,82,80,26,27,8,8,0.3,0.4
2026-03-17T1600,3274A,121.7964,31.0507,上海市,浦东惠南,,49,NA,42,34,47,104,104,98,98,15,22,5,6,0.5,0.5
2026-03-17T1600,3544A,121.4891,30.925,上海市,奉贤南桥新城,NA,NA,36,50,30,39,101,101,93,93,20,19,NA,3,0.6,0.6
2026-03-17T1600,4183A,121.417401,31.16637,上海市,冠生园路458号,细颗粒物(PM2.5),62,47,54,41,51,84,84,74,74,26,29,6,6,0.6,0.6
2026-03-17T1600,4205A,121.541914,31.268301,上海市,宁武路151号,细颗粒物(PM2.5),62,48,57,41,45,68,68,84,71,46,36,6,6,0.8,0.9
2026-03-17T1600,2382A,117.9758,28.4439,上饶市,市监测站,,44,44,62,13,36,132,132,112,112,18,23,6,8,/,/
2026-03-17T1600,2383A,117.9521,28.4637,上饶市,凤凰光学,NA,NA,NA,65,NA,39,115,115,97,97,NA,24,NA,11,4.9,0.9
2026-03-17T1600,3685A,117.897,28.4316,上饶市,双创科技城,颗粒物(PM10),60,64,67,14,43,140,140,129,129,11,23,6,15,0.7,0.9
2026-03-17T1600,4211A,118.190438,28.444845,上饶市,裕丰大道,,44,44,69,18,41,139,139,113,113,12,23,13,16,0.8,0.9
2026-03-17T1600,1669A,113.5821,24.7733,韶关市,市八中,,42,29,41,18,28,132,132,101,101,13,28,10,24,0.3,0.4
2026-03-17T1600,1671A,113.5916,24.7973,韶关市,园林处,,41,28,44,17,31,131,131,100,100,12,33,10,22,/,/
2026-03-17T1600,1673A,113.5971,24.6864,韶关市,曲江监测站,,45,32,39,22,24,141,141,103,103,13,22,6,9,0.4,0.6
2026-03-17T1600,2809A,113.6668,24.7756,韶关市,大学路288号,,46,46,41,18,24,140,140,101,101,11,16,9,14,/,/
2026-03-17T1600,3622A,113.5556,24.8082,韶关市,碧湖山庄,颗粒物(PM10),70,77,68,19,26,121,121,96,96,13,22,8,10,0.5,0.5
2026-03-17T1600,2464A,111.5277,27.2442,邵阳市,市化工厂,,39,33,25,27,21,50,50,36,36,9,11,9,7,0.9,0.9
2026-03-17T1600,2466A,111.4327,27.2276,邵阳市,市环保局,,45,40,25,31,22,48,48,39,39,15,12,5,4,1.1,1
2026-03-17T1600,4218A,111.446,27.2472,邵阳市,北塔二期4-26地块,细颗粒物(PM2.5),68,NA,24,44,18,46,46,38,38,16,12,5,4,1.1,1
2026-03-17T1600,4219A,111.4739,27.2282,邵阳市,邵水西路287号,,40,36,24,28,19,51,51,40,40,14,13,7,6,1.0,1
2026-03-17T1600,1247A,120.6053,29.9927,绍兴市,城东开发委,,29,23,41,20,31,82,82,62,62,21,29,8,9,0.4,0.4
2026-03-17T1600,2921A,120.5482,30.0003,绍兴市,树下王站,NA,NA,30,50,NA,35,87,87,63,63,16,26,6,7,NA,0.3
2026-03-17T1600,3408A,120.5685,29.936,绍兴市,绍兴中专,,29,29,49,20,32,92,92,63,63,17,24,8,8,0.5,0.6
2026-03-17T1600,3409A,120.4905,30.086,绍兴市,柯桥区政府,,50,NA,45,35,37,92,92,75,75,23,27,6,6,0.7,0.5
2026-03-17T1600,3410A,120.8751,30.0249,绍兴市,重华小学,,30,27,44,21,33,72,72,61,61,19,24,7,8,0.4,0.4
2026-03-17T1600,3411A,120.837,30.0137,绍兴市,上虞中学,,35,28,51,24,33,78,78,66,66,20,26,7,8,0.4,0.5
2026-03-17T1600,3560A,120.4715,30.0414,绍兴市,柯桥妇保,,32,31,48,22,29,82,82,61,61,18,23,5,6,0.5,0.5
2026-03-17T1600,3658A,120.6156,30.0762,绍兴市,袍江中学,,43,41,52,30,34,87,87,69,69,24,27,8,8,0.6,0.6
2026-03-17T1600,1356A,114.0948,22.5506,深圳市,通心岭子站,,30,30,31,16,15,76,76,89,89,14,11,5,5,0.4,0.3
2026-03-17T1600,1357A,114.1153,22.5713,深圳市,洪湖,,33,33,36,15,16,90,90,87,87,15,15,5,5,0.3,0.3
2026-03-17T1600,1358A,113.9823,22.5398,深圳市,华侨城,,40,40,35,19,16,72,72,80,80,19,12,/,/,/,/
2026-03-17T1600,1359A,113.9181,22.517,深圳市,南海子站,,35,35,34,16,13,70,70,87,83,15,8,2,6,0.5,0.4
2026-03-17T1600,1360A,114.2345,22.565,深圳市,盐田,,28,26,35,12,16,89,89,82,82,17,23,6,7,0.3,0.3
2026-03-17T1600,1363A,114.4911,22.5381,深圳市,南澳,,35,28,30,12,13,112,112,101,101,6,7,/,/,/,/
2026-03-17T1600,1364A,114.41,22.6346,深圳市,葵涌,,28,26,29,12,14,87,87,86,86,7,10,8,8,0.5,0.5
2026-03-17T1600,1365A,114.2967,22.5978,深圳市,梅沙,,35,35,33,15,14,107,107,101,101,9,8,/,/,/,/
2026-03-17T1600,1366A,114.0563,22.7353,深圳市,观澜,,30,30,44,9,18,72,72,78,78,20,26,5,5,0.3,0.3
2026-03-17T1600,3305A,114.0614,22.556,深圳市,莲花,,30,30,33,16,17,69,69,82,82,14,11,/,/,/,/
2026-03-17T1600,3306A,114.0144,22.6163,深圳市,民治,,32,32,36,13,16,70,70,77,77,11,11,/,/,/,/
2026-03-17T1600,3307A,114.1756,22.6421,深圳市,横岗,NA,NA,27,37,12,16,86,86,87,87,NA,16,/,/,/,/
2026-03-17T1600,3447A,114.344,22.7115,深圳市,坪山,,25,24,32,13,15,79,79,89,89,8,13,4,4,0.5,0.5
2026-03-17T1600,3623A,113.8952,22.586,深圳市,西乡,,40,40,39,19,15,66,66,75,75,22,19,7,7,0.5,0.4
2026-03-17T1600,4220A,114.214113,22.713717,深圳市,黄阁路,,26,26,31,10,13,77,77,87,87,16,13,8,8,0.5,0.5
2026-03-17T1600,1099A,123.5058,41.7084,沈阳市,浑南东路,细颗粒物(PM2.5),127,131,186,89,164,147,147,122,122,25,74,18,19,0.8,1.5
2026-03-17T1600,1100A,123.4238,41.6992,沈阳市,新秀街,细颗粒物(PM2.5),129,147,175,91,137,148,148,128,128,27,77,14,20,0.8,1.4
2026-03-17T1600,1102A,123.5903,41.8412,沈阳市,东陵路,细颗粒物(PM2.5),120,145,144,81,102,146,146,123,123,18,53,11,15,0.8,1.5
2026-03-17T1600,1103A,123.4267,41.8466,沈阳市,陵东街,细颗粒物(PM2.5),118,138,142,79,117,154,154,131,131,16,71,12,19,0.6,1.5
2026-03-17T1600,1104A,123.4116,41.7654,沈阳市,文化路,细颗粒物(PM2.5),123,132,178,85,130,147,147,132,132,21,71,9,16,NA,1.4
2026-03-17T1600,1105A,123.4673,41.787,沈阳市,小河沿,细颗粒物(PM2.5),120,134,160,82,125,152,152,128,128,19,68,9,15,0.9,1.5
2026-03-17T1600,1106A,123.4019,41.7978,沈阳市,太原街,细颗粒物(PM2.5),114,149,185,75,126,171,171,145,145,NA,72,15,23,0.7,1.3
2026-03-17T1600,1108A,123.3778,41.9233,沈阳市,京沈街,颗粒物(PM10),130,198,175,89,135,153,153,136,136,21,64,12,23,0.7,1.3
2026-03-17T1600,2897A,123.2429,41.7341,沈阳市,沈辽西路,细颗粒物(PM2.5),132,139,198,95,163,129,129,109,109,28,68,13,22,0.7,1.4
2026-03-17T1600,2900A,123.5951,41.9085,沈阳市,裕农路,细颗粒物(PM2.5),114,128,125,75,102,153,153,135,135,22,47,12,19,0.7,1.4
2026-03-17T1600,2429A,110.78,32.6494,十堰市,滨河新村,,33,NA,36,23,32,85,85,72,72,15,17,/,/,0.9,0.9
2026-03-17T1600,2430A,110.7305,32.6408,十堰市,刘家沟,NA,NA,23,37,NA,34,91,91,74,74,8,15,/,/,/,/
2026-03-17T1600,2431A,110.8843,32.5712,十堰市,铁二处,,32,NA,40,22,40,85,85,62,62,16,20,6,5,0.8,0.8
2026-03-17T1600,3545A,110.8053,32.8401,十堰市,郧阳区金沙路,,25,24,38,8,26,80,80,71,71,5,10,5,6,0.9,0.9
2026-03-17T1600,2709A,86.0391,44.298,石河子市,艾青诗歌馆,细颗粒物(PM2.5),104,95,87,64,41,107,107,68,68,16,26,14,10,0.9,0.8
2026-03-17T1600,3442A,86.047,44.2331,石河子市,南区管委会,细颗粒物(PM2.5),115,100,87,76,31,104,104,87,87,27,23,10,6,0.7,0.5
2026-03-17T1600,4051A,86.0791,44.3018,石河子市,世纪广场,细颗粒物(PM2.5),92,94,85,56,42,99,99,65,62,21,28,12,8,1.0,0.7
2026-03-17T1600,4167A,86.0126,44.2349,石河子市,城南景苑小区,细颗粒物(PM2.5),137,174,81,100,35,112,112,88,88,20,17,14,7,0.9,0.5
2026-03-17T1600,1030A,114.5919,38.0328,石家庄市,高新区,细颗粒物(PM2.5),143,138,95,107,63,99,99,80,80,NA,28,9,7,1.1,0.7
2026-03-17T1600,1032A,114.4556,38.0136,石家庄市,西南高教,细颗粒物(PM2.5),147,160,100,111,62,95,95,67,67,24,27,6,3,1.3,0.6
2026-03-17T1600,1033A,114.533,38.0177,石家庄市,世纪公园,NA,NA,NA,95,NA,62,91,91,67,67,16,20,5,3,1.2,0.6
2026-03-17T1600,1034A,114.5105,38.0489,石家庄市,人民会堂,细颗粒物(PM2.5),163,160,100,124,69,85,85,64,64,17,21,3,3,1.2,0.6
2026-03-17T1600,3456A,114.2887,38.0905,石家庄市,鹿泉一中,细颗粒物(PM2.5),143,154,84,107,50,95,95,68,68,23,22,10,4,1.3,0.6
2026-03-17T1600,4024A,114.6491,37.9014,石家庄市,栾城区星河路,细颗粒物(PM2.5),145,NA,90,109,82,102,102,69,69,18,29,7,5,0.7,0.6
2026-03-17T1600,4059A,114.4563,38.0365,石家庄市,裕华西路63号,细颗粒物(PM2.5),172,147,82,130,64,90,90,65,65,27,30,8,3,1.4,0.7
2026-03-17T1600,4060A,114.5586,38.0581,石家庄市,和平路363号,细颗粒物(PM2.5),185,NA,86,139,64,99,99,79,79,22,29,5,4,1.2,0.7
2026-03-17T1600,4061A,114.8347,38.0213,石家庄市,廉州西路160号,细颗粒物(PM2.5),153,125,117,117,107,102,102,68,68,2,12,1,1,0.5,0.5
2026-03-17T1600,4062A,114.4498,38.0729,石家庄市,北城路41号,细颗粒物(PM2.5),152,164,88,116,52,100,100,76,76,28,31,8,3,1.4,0.6
2026-03-17T1600,4314A,114.0494,38.059,石家庄市,矿区区委大楼,细颗粒物(PM2.5),108,118,94,68,43,79,79,59,59,29,35,13,14,0.7,0.7
2026-03-17T1600,1948A,106.3668,39.0145,石嘴山市,大武口朝阳西街,颗粒物(PM10),88,102,75,10,21,88,88,92,87,4,8,6,7,0.0,0.1
2026-03-17T1600,1949A,106.7713,39.2278,石嘴山市,惠农南大街,颗粒物(PM10),124,180,108,24,28,93,93,92,92,5,17,9,15,0.3,0.4
2026-03-17T1600,1950A,106.7074,39.1332,石嘴山市,红果子镇惠新街,颗粒物(PM10),114,155,102,16,31,91,91,86,84,6,21,8,27,0.2,0.3
2026-03-17T1600,3520A,106.3495,38.9837,石嘴山市,妇女儿童医院,颗粒物(PM10),69,76,78,18,21,89,89,94,88,3,7,4,7,0.2,0.3
2026-03-17T1600,3521A,106.7495,39.2068,石嘴山市,石大公路,颗粒物(PM10),120,170,111,26,31,87,87,92,NA,4,12,4,8,0.4,0.5
2026-03-17T1600,2248A,131.1509,46.6936,双鸭山市,双合村,,30,18,54,14,29,93,93,85,85,4,28,8,12,0.7,1.3
2026-03-17T1600,2249A,131.1651,46.6191,双鸭山市,南小市,NA,NA,9,23,7,16,96,96,85,85,5,16,4,5,NA,0.2
2026-03-17T1600,2250A,131.1526,46.6554,双鸭山市,环保局,,32,11,42,3,19,100,100,87,87,3,29,4,5,0.3,0.5
2026-03-17T1600,2166A,112.4399,39.3521,朔州市,平朔,颗粒物(PM10),124,181,142,35,45,82,82,73,73,11,19,7,8,0.2,0.4
2026-03-17T1600,2167A,112.4574,39.362,朔州市,朔唯,颗粒物(PM10),127,189,162,42,52,84,84,75,75,8,27,7,11,/,/
2026-03-17T1600,2168A,112.426,39.3199,朔州市,区政府,颗粒物(PM10),126,186,129,38,40,82,82,75,75,11,16,4,5,0.2,0.4
2026-03-17T1600,2169A,112.4075,39.3277,朔州市,市环保局,颗粒物(PM10),126,187,141,49,46,72,72,68,68,16,18,4,4,/,/
2026-03-17T1600,2170A,112.4273,39.3682,朔州市,市二中,颗粒物(PM10),127,189,142,40,40,93,93,84,84,3,8,8,7,/,/
2026-03-17T1600,3571A,112.2938,39.5296,朔州市,一水厂,颗粒物(PM10),145,237,141,28,34,86,86,77,77,7,27,4,4,0.4,0.4
2026-03-17T1600,2226A,124.3744,43.1842,四平市,境园,细颗粒物(PM2.5),165,241,260,125,217,161,161,141,141,24,58,10,12,0.8,1.4
2026-03-17T1600,3486A,124.4029,43.1411,四平市,植物园,细颗粒物(PM2.5),193,284,257,145,211,161,161,143,143,29,54,13,13,0.7,1.1
2026-03-17T1600,3713A,124.3286,43.1726,四平市,世纪城,细颗粒物(PM2.5),166,235,256,126,217,156,156,135,135,22,57,14,17,0.6,1.1
2026-03-17T1600,2233A,124.8007,45.1213,松原市,江南,颗粒物(PM10),180,310,216,128,156,155,155,139,139,19,38,2,2,0.6,0.9
2026-03-17T1600,2234A,124.7967,45.1721,松原市,江北,细颗粒物(PM2.5),162,266,202,123,146,155,155,142,142,20,42,4,6,0.7,0.9
2026-03-17T1600,1163A,120.5974,31.3247,苏州市,轧钢厂,细颗粒物(PM2.5),76,62,64,48,50,80,80,67,67,30,36,3,3,0.8,0.9
2026-03-17T1600,1164A,120.6329,31.2741,苏州市,吴中区,细颗粒物(PM2.5),70,50,55,45,49,77,77,65,65,29,34,6,6,0.5,0.5
2026-03-17T1600,1165A,120.5566,31.3049,苏州市,苏州新区,细颗粒物(PM2.5),82,52,66,51,53,82,82,70,70,30,36,7,7,0.6,0.7
2026-03-17T1600,1166A,120.668709,31.312523,苏州市,苏州工业园区,细颗粒物(PM2.5),58,49,54,39,40,77,77,67,67,30,34,6,6,0.7,0.8
2026-03-17T1600,1167A,120.6408,31.3707,苏州市,相城区,细颗粒物(PM2.5),62,45,57,41,48,72,72,59,59,35,39,5,6,0.7,0.7
2026-03-17T1600,3289A,120.7431,31.3188,苏州市,方洲路,细颗粒物(PM2.5),66,NA,57,43,50,73,73,66,66,35,36,6,6,0.7,0.7
2026-03-17T1600,3290A,120.4979,31.2777,苏州市,木渎中学,细颗粒物(PM2.5),62,46,54,41,47,80,80,71,71,24,29,6,6,0.8,0.8
2026-03-17T1600,3425A,120.642,31.1733,苏州市,越秀幼儿园,细颗粒物(PM2.5),86,NA,45,53,48,87,87,81,81,22,25,4,4,0.7,0.7
2026-03-17T1600,3431A,120.6502,31.4117,苏州市,高铁新城,细颗粒物(PM2.5),76,55,68,48,59,53,53,58,56,43,28,4,5,0.8,0.8
2026-03-17T1600,4090A,120.4282,31.3228,苏州市,学森路9号,细颗粒物(PM2.5),70,NA,50,45,44,78,78,80,80,26,30,5,5,0.7,0.7
2026-03-17T1600,1220A,118.2924,33.933,宿迁市,宿迁学院,细颗粒物(PM2.5),68,56,81,44,68,72,72,73,73,20,25,5,4,0.3,0.4
2026-03-17T1600,1221A,118.2321,33.9572,宿迁市,宿迁中学,细颗粒物(PM2.5),72,57,78,46,67,70,70,72,72,21,21,3,3,0.4,0.5
2026-03-17T1600,2996A,118.2781,33.9658,宿迁市,市供电局,细颗粒物(PM2.5),80,54,75,50,69,73,73,73,73,18,21,4,4,0.4,0.5
2026-03-17T1600,3191A,118.3243,33.95,宿迁市,宿豫区政府,细颗粒物(PM2.5),68,50,74,44,67,70,70,70,70,15,19,6,6,0.4,0.5
2026-03-17T1600,4094A,118.352,33.7886,宿迁市,春华路,细颗粒物(PM2.5),64,54,77,42,64,69,69,67,67,18,22,4,4,0.3,0.4
2026-03-17T1600,3187A,116.9508,33.666,宿州市,远航博物馆,细颗粒物(PM2.5),72,62,83,46,65,60,60,60,53,20,23,2,2,0.3,0.5
2026-03-17T1600,3463A,116.9708,33.5911,宿州市,社会福利中心,细颗粒物(PM2.5),80,64,78,50,68,59,59,58,55,18,18,4,5,0.3,0.4
2026-03-17T1600,3701A,116.9647,33.6252,宿州市,皖北煤电集团,细颗粒物(PM2.5),66,60,81,43,62,62,62,65,56,19,19,3,4,0.5,0.6
2026-03-17T1600,4103A,116.9929,33.6412,宿州市,中兴路,细颗粒物(PM2.5),72,60,87,46,66,60,60,55,52,16,16,3,3,0.5,0.6
2026-03-17T1600,2266A,126.9783,46.6365,绥化市,人和东街,细颗粒物(PM2.5),110,72,29,70,22,128,128,104,104,14,12,6,5,0.6,0.4
2026-03-17T1600,2267A,126.964,46.6527,绥化市,党政办公中心,NA,NA,NA,36,NA,20,127,127,106,106,15,18,6,4,0.5,0.4
2026-03-17T1600,2451A,113.3587,31.7275,随州市,市委党校,,22,15,66,15,55,48,48,42,38,13,19,2,2,0.2,0.3
2026-03-17T1600,2452A,113.3745,31.6926,随州市,市林业局,,17,17,66,8,52,53,53,52,47,10,14,3,3,0.8,0.8
2026-03-17T1600,2453A,113.3984,31.7309,随州市,市立交桥水厂,,20,20,75,12,56,46,46,42,42,21,21,2,2,0.7,0.7
2026-03-17T1600,2528A,105.5581,30.5231,遂宁市,市监测站,,20,8,16,3,6,63,63,46,46,14,17,5,5,0.8,0.7
2026-03-17T1600,2530A,105.5917,30.4727,遂宁市,美宁食品公司,,21,9,13,3,9,66,66,45,45,10,14,4,6,0.8,0.7
2026-03-17T1600,4303A,105.5911,30.5368,遂宁市,环岛商务中心9号楼,,19,8,17,3,9,60,60,42,42,10,14,4,4,0.6,0.6
2026-03-17T1600,2706A,82.9993,46.7432,塔城地区,东门外小游园,颗粒物(PM10),63,67,39,14,8,93,93,89,89,6,6,4,3,0.4,0.3
2026-03-17T1600,4165A,82.9716,46.7464,塔城地区,文化广场,,36,36,28,11,10,91,91,88,88,7,6,3,3,0.9,0.8
2026-03-17T1600,1255A,121.2727,28.6461,台州市,黄岩环保大楼,颗粒物(PM10),62,66,47,26,24,78,78,75,75,24,18,/,/,/,/
2026-03-17T1600,1256A,121.4188,28.6545,台州市,台州环保大楼,颗粒物(PM10),55,56,42,22,22,86,86,86,78,22,19,/,/,0.5,0.4
2026-03-17T1600,1257A,121.3768,28.5772,台州市,路桥田洋王,颗粒物(PM10),60,64,42,29,23,91,91,93,82,20,16,4,4,0.5,0.4
2026-03-17T1600,3564A,121.25678,28.66823971,台州市,台州科技职业学院,颗粒物(PM10),59,62,39,30,22,64,64,75,66,36,21,7,6,0.5,0.5
2026-03-17T1600,1081A,112.5138,37.8916,太原市,尖草坪,,39,39,106,21,62,100,100,59,59,8,35,3,9,0.2,0.9
2026-03-17T1600,1084A,112.4691,37.7125,太原市,晋源,颗粒物(PM10),80,92,118,17,63,103,103,68,68,5,28,2,7,0.3,0.8
2026-03-17T1600,1085A,112.5595,37.7391,太原市,小店,,33,28,106,16,51,104,104,75,75,4,25,4,9,0.2,0.8
2026-03-17T1600,1087A,112.5705,37.8199,太原市,坞城,颗粒物(PM10),51,51,109,12,54,102,102,64,64,8,27,5,10,0.4,0.9
2026-03-17T1600,1088A,112.5495,37.9853,太原市,南寨,颗粒物(PM10),53,54,109,15,60,101,101,64,64,4,30,5,8,0.3,0.9
2026-03-17T1600,3618A,112.4702,37.7821,太原市,金胜,,34,32,118,20,66,106,106,72,72,8,26,3,7,0.2,0.8
2026-03-17T1600,4010A,112.5608,37.8807,太原市,育英中学,,43,43,115,16,54,102,102,61,61,8,28,6,11,0.4,1
2026-03-17T1600,4074A,112.449,37.8509,太原市,西矿街336号,颗粒物(PM10),56,58,127,15,59,106,106,71,71,5,25,3,6,0.3,0.8
2026-03-17T1600,4075A,112.4792,37.9393,太原市,迎宾北路9号,,34,34,125,17,70,104,104,61,61,6,33,6,9,0.4,1
2026-03-17T1600,4076A,112.551,37.8575,太原市,迎泽大街248号,颗粒物(PM10),53,54,124,18,56,89,89,55,55,8,26,2,8,0.3,0.9
2026-03-17T1600,1656A,117.1436,36.1938,泰安市,监测站,细颗粒物(PM2.5),94,75,122,57,96,123,123,97,97,24,43,3,4,0.6,0.8
2026-03-17T1600,1657A,117.0905,36.2002,泰安市,人口学校,细颗粒物(PM2.5),102,92,127,62,100,122,122,98,98,17,26,7,7,0.5,0.7
2026-03-17T1600,1658A,117.0992,36.1757,泰安市,电力学校,细颗粒物(PM2.5),96,68,132,58,109,124,124,95,95,13,46,5,7,0.3,0.8
2026-03-17T1600,3502A,117.1812,36.2273,泰安市,国网新校,细颗粒物(PM2.5),107,73,97,67,90,134,134,103,103,19,25,7,6,0.5,0.7
2026-03-17T1600,3503A,117.0315,36.2017,泰安市,交通技校,细颗粒物(PM2.5),101,63,112,61,114,127,127,100,100,24,55,4,5,0.5,0.7
2026-03-17T1600,3504A,117.083,36.13,泰安市,山东第一医科大学,细颗粒物(PM2.5),70,56,128,45,111,120,120,93,93,7,34,3,5,0.2,0.5
2026-03-17T1600,1206A,119.9042,32.488,泰州市,公园路,细颗粒物(PM2.5),60,NA,48,40,47,71,71,83,81,20,15,5,6,0.6,0.5
2026-03-17T1600,1207A,119.9189,32.4626,泰州市,莲花,细颗粒物(PM2.5),58,44,49,39,39,73,73,86,84,20,15,7,8,0.6,0.5
2026-03-17T1600,1209A,119.8877,32.4636,泰州市,留学生创业园,NA,NA,53,56,44,46,70,70,82,81,NA,16,8,9,0.5,0.6
2026-03-17T1600,2997A,119.8767,32.3291,泰州市,王营,,44,44,62,27,37,72,72,83,82,16,14,9,9,0.5,0.6
2026-03-17T1600,3295A,120.1226,32.515,泰州市,姜堰区政府广场,,43,36,56,30,51,84,84,87,87,14,13,13,9,0.5,0.5
2026-03-17T1600,3435A,119.9186,32.4322,泰州市,周山河街区,细颗粒物(PM2.5),52,NA,57,36,43,70,70,80,78,12,11,8,8,0.7,0.7
2026-03-17T1600,1040A,118.1707,39.6505,唐山市,十二中,细颗粒物(PM2.5),120,115,109,82,63,116,116,90,90,31,35,6,9,0.8,1.1
2026-03-17T1600,1041A,118.1868,39.6219,唐山市,小山,细颗粒物(PM2.5),145,126,112,109,76,119,119,87,87,35,35,11,10,0.8,1
2026-03-17T1600,3457A,118.4357,39.277,唐山市,冀东油田职工医院,细颗粒物(PM2.5),150,127,113,115,90,126,126,88,88,27,43,6,6,0.8,0.7
2026-03-17T1600,3575A,118.0927,39.5807,唐山市,正泰大街热力站,细颗粒物(PM2.5),149,143,115,113,73,110,110,82,82,36,28,7,6,0.8,1
2026-03-17T1600,3576A,118.1561,39.8322,唐山市,丰润区政府,细颗粒物(PM2.5),124,108,119,86,69,120,120,88,88,12,20,6,8,0.7,1.1
2026-03-17T1600,3577A,118.436906,39.73802,唐山市,金山小学,细颗粒物(PM2.5),120,101,102,82,61,124,124,95,95,24,25,6,11,0.7,1.1
2026-03-17T1600,3578A,118.2449,39.6693,唐山市,政府服务中心,细颗粒物(PM2.5),128,NA,98,90,66,109,109,80,80,34,41,12,20,0.8,1
2026-03-17T1600,3692A,118.2043,39.6703,唐山市,消防缸窑路中队,细颗粒物(PM2.5),117,116,114,78,59,128,128,98,98,14,29,11,18,0.9,1.1
2026-03-17T1600,3693A,118.1432,39.6203,唐山市,路南电大,细颗粒物(PM2.5),139,128,116,102,75,104,104,78,78,32,23,10,7,0.9,1
2026-03-17T1600,4065A,118.1267,39.6579,唐山市,光明北路515号,细颗粒物(PM2.5),135,136,121,98,75,118,118,86,86,26,34,6,8,0.6,0.8
2026-03-17T1600,4197A,118.130859,39.636026,唐山市,友谊北路34号,细颗粒物(PM2.5),137,124,112,100,82,115,115,83,83,26,26,8,11,0.8,1.1
2026-03-17T1600,1015A,117.1446,39.1659,天津市,勤俭道,细颗粒物(PM2.5),141,128,133,105,104,114,114,86,86,16,31,6,9,0.9,1.1
2026-03-17T1600,1018A,117.2016,39.0928,天津市,前进道,细颗粒物(PM2.5),141,130,137,105,109,124,124,93,93,18,34,7,10,0.8,0.9
2026-03-17T1600,1019A,117.1837,39.2134,天津市,淮河道,细颗粒物(PM2.5),138,132,136,101,99,119,119,95,95,16,34,7,10,0.8,0.9
2026-03-17T1600,1021A,117.308261,39.088386,天津市,跃进路,细颗粒物(PM2.5),145,139,150,109,113,123,123,91,91,18,46,5,9,0.6,1
2026-03-17T1600,1023A,117.707,39.0344,天津市,第四大街,细颗粒物(PM2.5),202,197,137,152,95,90,90,18,NA,57,82,6,5,1.0,0.8
2026-03-17T1600,1024A,117.4573,38.8395,天津市,永明路,细颗粒物(PM2.5),159,125,138,121,114,128,128,94,94,17,44,6,6,0.8,0.8
2026-03-17T1600,1026A,117.7641,39.1588,天津市,汉北路,细颗粒物(PM2.5),216,204,136,166,103,98,98,74,74,44,53,9,8,0.7,0.6
2026-03-17T1600,2858A,117.7917,39.2473,天津市,河西一经路,细颗粒物(PM2.5),209,198,136,159,98,112,112,78,78,39,44,9,10,1.0,0.8
2026-03-17T1600,2859A,117.3747,38.9845,天津市,津沽路,细颗粒物(PM2.5),142,128,140,106,111,120,120,88,88,20,41,7,9,0.8,0.9
2026-03-17T1600,2860A,117.159,39.0844,天津市,宾水西道,细颗粒物(PM2.5),144,127,132,108,112,113,113,83,83,16,31,7,7,0.8,0.9
2026-03-17T1600,2922A,117.194,39.1069,天津市,大理道,细颗粒物(PM2.5),135,124,130,98,102,128,128,97,97,15,32,7,10,0.8,0.9
2026-03-17T1600,3020A,117.2096,39.1698,天津市,中山北路,细颗粒物(PM2.5),139,126,133,102,103,96,96,76,76,17,34,7,9,0.7,0.9
2026-03-17T1600,3051A,117.385,39.1483,天津市,西四道,细颗粒物(PM2.5),138,135,142,101,97,111,111,85,85,22,53,6,8,0.7,1.3
2026-03-17T1600,3325A,117.0362,39.3827,天津市,雍阳西道,细颗粒物(PM2.5),144,144,144,108,98,116,116,83,83,17,50,8,10,0.8,1
2026-03-17T1600,3326A,117.0291,39.0612,天津市,辛老路,细颗粒物(PM2.5),148,135,159,112,126,118,118,86,86,15,45,7,9,0.6,0.7
2026-03-17T1600,3327A,116.9638,38.9374,天津市,地纬路,细颗粒物(PM2.5),137,120,135,100,109,117,117,84,84,16,42,10,10,0.5,0.6
2026-03-17T1600,3460A,117.4065,40.0583,天津市,北环路,细颗粒物(PM2.5),132,131,111,95,73,100,100,84,84,25,30,7,9,0.8,1
2026-03-17T1600,3461A,117.3041,39.7167,天津市,建设路,细颗粒物(PM2.5),170,166,133,129,90,105,105,76,76,34,42,8,11,0.9,1.1
2026-03-17T1600,3462A,117.8201,39.3519,天津市,滨水东路,细颗粒物(PM2.5),178,166,124,134,86,105,105,62,62,36,53,8,9,0.8,0.9
2026-03-17T1600,4196A,117.24369,39.102911,天津市,光华路,细颗粒物(PM2.5),140,130,138,103,106,117,117,86,86,18,37,4,6,0.6,0.6
2026-03-17T1600,2650A,105.72058,34.57859,天水市,公园小学,NA,NA,58,48,17,22,98,98,78,78,NA,19,14,10,0.4,0.6
2026-03-17T1600,2651A,105.89428,34.55353,天水市,麦积国土局,颗粒物(PM10),51,51,48,18,24,99,99,79,79,14,21,12,11,0.3,0.5
2026-03-17T1600,2217A,123.865,42.292,铁岭市,水上乐园,细颗粒物(PM2.5),130,162,181,92,144,146,146,126,126,27,35,14,15,0.7,1
2026-03-17T1600,2219A,123.7158,42.2218,铁岭市,金沙江路北,细颗粒物(PM2.5),139,190,222,102,210,144,144,129,129,24,51,7,8,0.7,1.4
2026-03-17T1600,4084A,123.835,42.2853,铁岭市,新华街20号,细颗粒物(PM2.5),126,181,214,88,159,156,156,139,139,29,36,14,16,0.7,1.1
2026-03-17T1600,2229A,125.9359,41.7174,通化市,光明,NA,NA,NA,77,25,49,120,120,97,97,8,25,10,12,0.5,0.9
2026-03-17T1600,2230A,125.9446,41.7323,通化市,铁路,颗粒物(PM10),54,55,73,23,51,113,113,99,99,11,31,7,12,0.4,0.7
2026-03-17T1600,2191A,122.253,43.6801,通辽市,艺术职业学校,颗粒物(PM10),98,116,121,56,74,126,126,107,107,15,23,7,15,0.6,0.7
2026-03-17T1600,3706A,122.2584,43.6333,通辽市,老干部活动中心,颗粒物(PM10),86,100,115,48,79,132,132,112,112,14,20,7,14,0.7,0.8
2026-03-17T1600,3708A,122.2923,43.6189,通辽市,东方明珠社区,颗粒物(PM10),83,95,119,51,85,133,133,111,111,23,23,8,12,0.8,0.9
2026-03-17T1600,1923A,109.0696,35.0699,铜川市,王益区政府,颗粒物(PM10),65,71,53,19,39,85,85,52,52,13,21,3,3,0.5,0.8
2026-03-17T1600,1924A,108.9345,34.9059,铜川市,新区管委会,颗粒物(PM10),56,58,56,17,46,69,69,44,42,21,20,5,4,0.5,0.7
2026-03-17T1600,4234A,108.949652,34.870529,铜川市,大唐三路,,42,NA,61,29,52,70,70,45,42,13,22,5,4,0.7,0.8
2026-03-17T1600,2285A,117.8176,30.9412,铜陵市,市第四中学,,22,22,34,9,15,56,56,45,45,14,22,5,5,0.4,0.4
2026-03-17T1600,2287A,117.7806,30.9413,铜陵市,市新民污水厂,,17,NA,17,11,18,52,52,42,42,13,34,4,4,0.4,0.5
2026-03-17T1600,2289A,117.846,30.9414,铜陵市,车站新区,,18,15,30,8,14,57,57,45,45,16,23,5,6,0.5,0.5
2026-03-17T1600,2290A,117.8472,30.9699,铜陵市,市职教基地,,19,18,30,9,16,60,60,48,48,13,25,5,6,0.5,0.6
2026-03-17T1600,2585A,109.1839,27.7344,铜仁市,铜仁卫校,,18,10,14,3,3,55,55,55,55,12,11,2,2,0.8,0.8
2026-03-17T1600,2586A,109.1752,27.6945,铜仁市,铜仁七中,,18,11,12,6,3,56,56,62,61,14,12,4,4,0.8,0.8
2026-03-17T1600,2686A,89.1905,42.9419,吐鲁番市,市环保局,颗粒物(PM10),117,163,254,26,51,87,87,71,71,4,16,1,2,0.7,0.8
2026-03-17T1600,2687A,89.1674,42.9558,吐鲁番市,地区环保局,颗粒物(PM10),107,137,198,30,47,91,91,71,71,2,13,3,5,0.5,0.7
2026-03-17T1600,1662A,122.121,37.4231,威海市,华夏技校,颗粒物(PM10),95,112,68,24,33,110,110,103,103,21,27,/,/,0.4,0.5
2026-03-17T1600,1663A,122.0508,37.5236,威海市,山大分校,,40,37,55,21,40,125,125,106,106,15,30,/,/,/,/
2026-03-17T1600,1664A,122.1067,37.5067,威海市,市监测站,颗粒物(PM10),53,54,72,25,45,123,123,102,102,14,34,4,5,0.5,0.7
2026-03-17T1600,1982A,122.0693,37.2175,威海市,文登开发区,,36,36,68,16,50,113,113,101,101,10,21,/,/,/,/
2026-03-17T1600,3505A,122.1379,37.3414,威海市,临港区管委会,,38,36,61,16,39,121,121,110,110,9,23,5,9,0.4,0.5
2026-03-17T1600,1650A,119.1436,36.7022,潍坊市,环保局,颗粒物(PM10),53,53,70,27,42,142,142,108,108,13,27,6,6,0.5,0.6
2026-03-17T1600,2877A,119.1638,36.6524,潍坊市,坊子邮政,,48,48,73,26,45,132,132,99,99,12,31,5,6,0.3,0.5
2026-03-17T1600,3178A,119.0587,36.7209,潍坊市,潍坊七中,颗粒物(PM10),53,53,65,31,42,146,146,112,112,11,23,7,8,0.5,0.6
2026-03-17T1600,3368A,119.1978,36.6871,潍坊市,高新实验学校,,48,48,72,24,46,129,129,102,102,13,25,8,7,0.5,0.6
2026-03-17T1600,3416A,119.1758,36.7139,潍坊市,潍坊学院,颗粒物(PM10),53,53,69,24,41,135,135,104,104,19,28,7,7,0.5,0.5
2026-03-17T1600,3861A,119.2046,36.7696,潍坊市,寒亭区实验一小,颗粒物(PM10),56,58,70,26,41,130,130,102,102,15,28,10,10,0.7,0.9
2026-03-17T1600,1940A,109.4605,34.4927,渭南市,体育馆,细颗粒物(PM2.5),80,51,72,50,56,37,37,37,37,32,32,4,5,0.9,0.8
2026-03-17T1600,1941A,109.4257,34.5067,渭南市,高新一小,细颗粒物(PM2.5),90,104,64,55,59,40,40,36,36,23,22,5,5,0.8,0.8
2026-03-17T1600,4159A,110.4531,35.4578,渭南市,桢州大街,细颗粒物(PM2.5),104,NA,70,64,61,68,68,57,57,20,27,6,9,1.4,1.1
2026-03-17T1600,4160A,110.4368,35.4773,渭南市,太史大街,细颗粒物(PM2.5),108,85,93,68,62,66,66,51,51,17,27,8,12,1.6,1.3
2026-03-17T1600,4235A,109.5051,34.4921,渭南市,渭花路4号,细颗粒物(PM2.5),76,NA,61,48,56,37,37,40,40,31,28,6,6,0.8,0.7
2026-03-17T1600,1242A,120.6342,28.0088,温州市,瓯海,,28,26,40,13,23,88,88,76,76,17,25,6,6,0.3,0.3
2026-03-17T1600,1243A,120.6747,27.9881,温州市,南浦,,42,42,48,16,23,93,93,83,83,16,22,7,5,0.4,0.3
2026-03-17T1600,1244A,120.76,27.9745,温州市,龙湾,,42,42,40,18,19,88,88,84,84,16,25,5,5,0.4,0.3
2026-03-17T1600,3561A,120.6985,27.9252,温州市,茶山,,49,49,38,24,19,82,82,77,77,25,21,/,/,/,/
2026-03-17T1600,4096A,120.6935,28.0114,温州市,鹿城惠民路,,39,39,42,14,18,88,88,80,80,19,20,/,/,0.4,0.3
2026-03-17T1600,2610A,104.2533,23.3595,文山壮族苗族自治州,州水务局,细颗粒物(PM2.5),70,45,40,45,31,120,120,105,105,6,8,4,4,0.7,0.7
2026-03-17T1600,2611A,104.2319,23.3892,文山壮族苗族自治州,市便民服务中心,颗粒物(PM10),52,52,38,35,28,116,116,106,106,8,10,4,5,0.5,0.5
2026-03-17T1600,2187A,106.8172,39.6972,乌海市,市林业局,颗粒物(PM10),144,232,117,48,27,85,85,82,82,4,15,7,8,0.3,0.4
2026-03-17T1600,2188A,106.7907,39.6666,乌海市,中海勃湾学校,颗粒物(PM10),165,280,118,60,30,93,93,93,93,3,10,7,8,0.2,0.3
2026-03-17T1600,3284A,106.8129,39.7274,乌海市,海北新区,颗粒物(PM10),171,292,138,44,30,86,86,78,78,4,33,16,17,0.3,0.4
2026-03-17T1600,4278A,106.8212,39.6741,乌海市,海拉北路,颗粒物(PM10),168,286,132,49,27,88,88,86,86,2,17,15,14,0.4,0.4
2026-03-17T1600,2197A,113.1306,40.9924,乌兰察布市,集宁新区,颗粒物(PM10),103,126,74,46,40,106,106,79,79,5,23,4,20,0.2,0.4
2026-03-17T1600,3034A,113.1076,41.0385,乌兰察布市,光明街小学,颗粒物(PM10),99,118,74,43,35,100,100,72,72,8,37,4,7,0.4,0.6
2026-03-17T1600,3285A,113.1383,40.9513,乌兰察布市,北京八中,颗粒物(PM10),118,166,93,49,35,97,97,64,64,3,25,4,15,0.4,0.5
2026-03-17T1600,3421A,113.1776,40.9779,乌兰察布市,市委党校,颗粒物(PM10),114,154,81,48,37,109,109,80,80,7,32,1,26,0.4,0.5
2026-03-17T1600,1490A,87.5796,43.8299,乌鲁木齐市,监测站,细颗粒物(PM2.5),119,121,99,80,54,81,81,53,53,42,50,6,4,1.3,1.1
2026-03-17T1600,1491A,87.6044,43.7679,乌鲁木齐市,收费所,细颗粒物(PM2.5),104,117,97,64,51,76,76,70,70,57,54,8,6,1.0,0.8
2026-03-17T1600,1493A,87.5529,43.8704,乌鲁木齐市,铁路局,细颗粒物(PM2.5),119,130,101,80,56,84,84,46,46,36,56,5,5,0.7,0.6
2026-03-17T1600,1494A,87.6408,43.8258,乌鲁木齐市,三十一中学,细颗粒物(PM2.5),98,114,109,59,55,83,83,70,70,33,37,3,3,0.8,0.7
2026-03-17T1600,1496A,87.7218,44.1747,乌鲁木齐市,米东区环保局,,32,30,64,3,30,100,100,69,69,16,22,9,9,0.4,0.5
2026-03-17T1600,3033A,87.4652,43.4569,乌鲁木齐市,培训基地,颗粒物(PM10),102,124,22,15,9,92,92,77,77,6,7,5,5,0.3,0.4
2026-03-17T1600,3437A,88.3088,43.3637,乌鲁木齐市,达坂城区环保局,颗粒物(PM10),83,95,82,25,29,100,100,81,81,11,16,13,12,0.3,0.5
2026-03-17T1600,3438A,87.6132,43.8791,乌鲁木齐市,红光山片区,细颗粒物(PM2.5),107,106,96,67,59,94,94,52,52,33,50,NA,3,0.7,0.6
2026-03-17T1600,3439A,87.7008,43.8003,乌鲁木齐市,新师大温泉校区,细颗粒物(PM2.5),102,110,98,62,48,92,92,103,82,36,28,8,7,0.7,0.6
2026-03-17T1600,3440A,87.4892,43.84,乌鲁木齐市,大绿谷,细颗粒物(PM2.5),103,101,98,63,46,85,85,61,61,31,39,4,3,1.1,0.8
2026-03-17T1600,1188A,120.2693,31.4864,无锡市,雪浪,,46,46,44,31,38,64,64,56,56,29,28,6,6,0.9,0.9
2026-03-17T1600,1189A,120.2761,31.621,无锡市,黄巷,颗粒物(PM10),55,57,58,33,43,41,41,55,43,49,36,4,4,0.8,0.8
2026-03-17T1600,1191A,120.2422,31.5037,无锡市,漆塘,颗粒物(PM10),55,56,60,30,40,65,65,58,58,33,30,6,6,0.7,0.7
2026-03-17T1600,1192A,120.3489,31.5865,无锡市,东亭,,48,44,45,33,40,56,56,58,53,41,37,7,7,0.7,0.7
2026-03-17T1600,1193A,120.3538,31.5474,无锡市,旺庄,,48,46,54,33,43,51,51,57,53,50,35,4,4,0.7,0.8
2026-03-17T1600,1194A,120.2447,31.5633,无锡市,荣巷,,40,39,38,28,33,62,62,62,59,39,31,3,3,0.7,0.7
2026-03-17T1600,1195A,120.2986,31.6816,无锡市,堰桥,,40,36,45,28,40,47,47,68,60,52,31,4,4,0.6,0.6
2026-03-17T1600,4087A,120.3138,31.4927,无锡市,清舒道1号,细颗粒物(PM2.5),56,NA,41,38,46,57,57,54,54,40,34,5,4,0.8,0.8
2026-03-17T1600,4254A,120.2925,31.5685,无锡市,健康路105号,,43,35,32,30,38,58,58,56,53,38,32,3,3,0.9,1
2026-03-17T1600,2677A,106.1535,37.9648,吴忠市,教育园区,颗粒物(PM10),85,99,102,25,36,97,97,90,90,3,19,5,7,0.2,0.4
2026-03-17T1600,2679A,106.1851,37.9957,吴忠市,新区二泵站,颗粒物(PM10),65,70,108,21,38,91,91,83,83,5,23,5,6,0.2,0.4
2026-03-17T1600,3648A,106.2176,37.9832,吴忠市,文卫南街,颗粒物(PM10),68,74,129,23,42,96,96,89,89,6,25,3,6,0.1,0.4
2026-03-17T1600,1794A,118.3603,31.3515,芜湖市,监测站,,16,12,23,11,25,50,50,43,43,24,27,7,7,0.7,0.7
2026-03-17T1600,1795A,118.3716,31.4135,芜湖市,科创中心,,16,NA,32,11,29,50,50,43,43,28,31,5,5,0.6,0.6
2026-03-17T1600,1796A,118.3671,31.3132,芜湖市,四水厂,,16,7,19,6,16,49,49,43,43,30,30,4,4,0.7,0.7
2026-03-17T1600,3328A,118.4209,31.3704,芜湖市,市气象局,NA,NA,NA,31,8,27,55,55,47,47,15,31,5,5,0.6,0.5
2026-03-17T1600,3465A,118.4783,31.3226,芜湖市,清苑社区,,16,9,21,7,18,51,51,45,45,31,36,6,5,0.5,0.5
2026-03-17T1600,3466A,118.2746,31.2326,芜湖市,扬子职业技术学院,,17,8,22,7,19,54,54,51,51,22,25,6,6,0.6,0.6
2026-03-17T1600,4099A,118.5726,31.1371,芜湖市,湾沚区人民法院,,38,NA,20,26,23,56,56,50,50,26,27,8,8,0.8,0.8
2026-03-17T1600,2496A,111.3126,23.4772,梧州市,市十一中,,30,21,45,21,25,91,91,72,72,8,39,8,10,0.2,0.3
2026-03-17T1600,2498A,111.26,23.4794,梧州市,龙新,,44,44,54,13,22,85,85,63,63,8,33,6,7,0.8,0.2
2026-03-17T1600,4258A,111.2416,23.4155,梧州市,政贤路18号,颗粒物(PM10),55,56,45,31,26,91,91,71,71,6,17,8,18,0.2,0.4
2026-03-17T1600,2711A,87.5352,44.1606,五家渠市,农水大厦,,50,50,70,20,39,86,86,58,54,3,12,10,8,0.4,0.5
2026-03-17T1600,3441A,87.5461,44.1909,五家渠市,经开区管委会,,31,31,62,10,30,94,94,72,62,8,14,10,5,0.6,0.6
2026-03-17T1600,4168A,87.055284,43.999117,五家渠市,建设西街760号,颗粒物(PM10),68,75,86,37,41,91,91,73,73,14,15,8,6,0.8,1.1
2026-03-17T1600,1325A,114.3676,30.5584,武汉市,东湖梨园,NA,NA,NA,18,NA,16,32,32,28,26,NA,26,8,6,0.8,0.9
2026-03-17T1600,1326A,114.2527,30.5578,武汉市,汉阳月湖,,17,17,24,11,19,30,30,31,25,17,20,4,4,1.0,1
2026-03-17T1600,1327A,114.2819,30.6189,武汉市,汉口花桥,,46,46,19,29,19,36,36,37,30,20,20,1,2,0.6,0.6
2026-03-17T1600,1328A,114.3024,30.5332,武汉市,武昌紫阳,,17,17,20,9,17,34,34,35,25,22,21,9,8,0.7,0.8
2026-03-17T1600,1329A,114.3646,30.6217,武汉市,青山钢花,,23,NA,21,16,18,36,36,32,28,24,25,6,7,0.6,0.6
2026-03-17T1600,1330A,114.156697,30.482592,武汉市,沌口新区,,14,11,20,3,14,30,30,27,21,28,32,9,9,0.7,0.8
2026-03-17T1600,1331A,114.3013,30.5944,武汉市,汉口江滩,,12,12,21,6,17,34,34,38,33,18,14,5,5,0.8,0.8
2026-03-17T1600,1333A,114.1285,30.6339,武汉市,吴家山,,18,12,20,12,19,40,40,41,38,16,14,4,4,0.6,0.6
2026-03-17T1600,3153A,114.3876,30.4908,武汉市,民族大道182号,,16,12,19,11,15,32,32,33,28,32,30,5,6,0.6,0.7
2026-03-17T1600,2652A,102.6203,37.925,武威市,监测站,颗粒物(PM10),67,73,104,22,37,99,99,88,88,4,10,8,9,0.3,0.4
2026-03-17T1600,4270A,102.6447,37.9293,武威市,钟楼街149号,颗粒物(PM10),69,76,104,22,37,100,100,91,91,4,8,8,10,0.3,0.3
2026-03-17T1600,1463A,108.9931,34.2629,西安市,兴庆小区,,23,18,50,16,46,51,51,33,33,18,24,5,5,0.7,0.7
2026-03-17T1600,1464A,109.0595,34.2569,西安市,纺织城,,25,25,66,16,47,55,55,34,34,17,33,4,5,0.5,0.5
2026-03-17T1600,1465A,108.9377,34.2178,西安市,小寨,,26,26,75,13,43,59,59,40,40,14,24,5,5,0.5,0.5
2026-03-17T1600,1466A,108.9522,34.2739,西安市,市人民体育场,NA,NA,NA,62,15,48,56,56,38,38,13,20,5,5,0.7,0.8
2026-03-17T1600,1467A,108.8923,34.2322,西安市,高新西区,,20,18,74,14,46,56,56,36,36,9,19,4,4,0.5,0.6
2026-03-17T1600,1468A,108.9386,34.3446,西安市,经开区,,28,24,63,19,51,48,48,33,33,18,24,2,2,0.5,0.6
2026-03-17T1600,1469A,108.894,34.1557,西安市,长安区,,20,15,68,8,40,64,64,48,43,10,20,4,4,0.6,0.6
2026-03-17T1600,1471A,109.213,34.3748,西安市,临潼区,细颗粒物(PM2.5),54,45,65,37,53,45,45,43,42,23,19,6,5,0.6,0.6
2026-03-17T1600,1474A,109.0508,34.321,西安市,广运潭,,29,29,68,19,51,52,52,33,33,16,26,2,2,0.9,0.9
2026-03-17T1600,3605A,109.1019,34.5302,西安市,无线电监控中心,,42,NA,65,29,68,43,43,29,29,15,30,3,3,0.6,0.7
2026-03-17T1600,4055A,108.8869,34.2662,西安市,行知小学,,20,16,71,14,48,49,49,32,32,16,27,4,4,0.7,0.8
2026-03-17T1600,4233A,108.596239,34.118792,西安市,西苑北路977号,NA,NA,NA,60,NA,39,67,67,NA,NA,6,12,3,3,0.6,0.8
2026-03-17T1600,4307A,108.9817,34.2035,西安市,曲江池东路988号,,19,15,65,13,47,56,56,44,39,13,23,4,5,0.6,0.6
2026-03-17T1600,3055A,101.7775,36.643,西宁市,城北区政府,颗粒物(PM10),54,55,100,21,37,106,106,89,89,8,12,5,8,1.0,0.7
2026-03-17T1600,3629A,101.8304,36.5785,西宁市,世纪职校,颗粒物(PM10),52,52,84,35,43,85,85,77,77,2,5,10,10,0.7,0.7
2026-03-17T1600,4162A,101.6769,36.6535,西宁市,海晏路105号,,48,48,83,25,34,78,78,65,65,10,12,8,8,0.3,0.4
2026-03-17T1600,2612A,100.8018,21.9995,西双版纳傣族自治州,景洪市江南,,48,48,43,24,31,51,51,34,34,14,9,7,7,0.8,0.8
2026-03-17T1600,2613A,100.7995,22.0238,西双版纳傣族自治州,景洪市江北,,42,37,45,29,29,64,64,42,42,11,10,9,8,0.7,0.6
2026-03-17T1600,2202A,116.1048,43.9318,锡林郭勒盟,市环保监测站,,26,7,51,3,19,81,81,72,71,6,10,5,5,0.2,0.3
2026-03-17T1600,2203A,116.0778,43.9312,锡林郭勒盟,市政府,,29,20,47,3,20,90,90,80,80,5,11,3,5,0.2,0.3
2026-03-17T1600,1287A,118.1519,24.4768,厦门市,洪文,NA,NA,25,37,14,20,123,123,103,103,NA,21,NA,3,NA,0.4
2026-03-17T1600,1288A,118.0671,24.4447,厦门市,鼓浪屿,,40,18,37,11,19,127,127,98,98,6,26,1,3,/,/
2026-03-17T1600,2842A,118.0937,24.5054,厦门市,湖里中学,,42,36,40,22,21,134,134,101,101,7,27,2,3,0.4,0.4
2026-03-17T1600,3527A,118.0961,24.5689,厦门市,集美中学,,40,34,38,13,18,125,125,121,121,16,22,3,2,0.3,0.3
2026-03-17T1600,3528A,118.1502,24.7246,厦门市,同安二实小,,50,42,30,24,19,159,159,124,124,15,13,3,3,0.4,0.3
2026-03-17T1600,3655A,114.3379,29.8683,咸宁市,长江产业园,NA,NA,NA,14,16,14,30,30,33,24,NA,19,NA,5,1.4,1.1
2026-03-17T1600,4217A,114.3182,29.8447,咸宁市,双鹤路18号,,13,NA,15,9,11,29,29,35,26,20,17,4,4,1.1,1
2026-03-17T1600,4298A,114.284,29.8595,咸宁市,碧桂路,,13,11,15,9,12,30,30,35,25,25,25,6,6,0.9,0.8
2026-03-17T1600,1919A,108.6726,34.315,咸阳市,实验中学,,23,20,69,16,52,50,50,35,35,17,30,5,5,0.8,0.9
2026-03-17T1600,1920A,108.7226,34.3622,咸阳市,师范学院,,26,NA,62,18,54,49,49,42,38,14,23,3,4,0.5,0.6
2026-03-17T1600,3525A,108.6394,34.408,咸阳市,奥体中心,,32,32,79,18,54,49,49,40,40,8,21,2,2,0.5,0.6
2026-03-17T1600,4056A,108.6601,34.3767,咸阳市,五陵塬路2号,,25,20,86,17,55,46,46,37,37,19,33,3,3,0.4,0.5
2026-03-17T1600,4156A,108.6372,34.3031,咸阳市,胭脂路9号,,25,21,85,17,50,39,39,28,28,30,34,4,4,0.7,0.7
2026-03-17T1600,4157A,108.0371,34.3035,咸阳市,杨扶路,,20,16,47,14,45,64,64,49,49,11,16,2,2,0.8,0.9
2026-03-17T1600,4158A,108.0895,34.2623,咸阳市,新桥路,,22,16,54,14,43,68,68,42,42,17,33,2,3,0.6,0.7
2026-03-17T1600,1508A,112.9508,27.8626,湘潭市,板塘,细颗粒物(PM2.5),56,51,21,38,14,33,33,33,24,18,14,3,2,1.1,0.8
2026-03-17T1600,1511A,112.9114,27.8404,湘潭市,市监测站,细颗粒物(PM2.5),60,49,19,40,15,33,33,34,25,20,19,3,2,1.0,0.8
2026-03-17T1600,1512A,112.8935,27.8729,湘潭市,江麓,颗粒物(PM10),53,53,21,35,14,30,30,34,25,19,15,2,2,0.9,0.8
2026-03-17T1600,1513A,112.9227,27.8159,湘潭市,岳塘,细颗粒物(PM2.5),62,57,22,41,16,35,35,34,22,19,17,1,2,1.1,0.9
2026-03-17T1600,1514A,112.9073,27.9118,湘潭市,科大,NA,NA,51,18,33,12,31,31,32,24,14,13,1,1,NA,0.8
2026-03-17T1600,1562A,113.0048,27.9153,湘潭市,昭山,,48,48,27,33,14,28,28,26,21,19,17,4,2,0.9,0.8
2026-03-17T1600,2493A,109.7298,28.3164,湘西土家族苗族自治州,州政府,,17,10,8,3,5,52,52,57,52,10,10,4,3,0.4,0.4
2026-03-17T1600,2494A,109.6957,28.2676,湘西土家族苗族自治州,吉首市计生局,,14,9,6,3,4,43,43,55,47,19,18,4,4,0.6,0.6
2026-03-17T1600,2432A,112.1555,32.0197,襄阳市,襄城运动路,细颗粒物(PM2.5),68,72,78,44,45,65,65,49,44,18,20,8,9,0.7,0.9
2026-03-17T1600,2434A,112.1829,32.1146,襄阳市,高新管委会,细颗粒物(PM2.5),88,93,84,54,50,67,67,50,50,22,20,10,10,0.8,0.7
2026-03-17T1600,2435A,112.2105,32.0903,襄阳市,襄州航空路,NA,NA,81,73,51,49,64,64,48,48,16,29,6,6,NA,0.6
2026-03-17T1600,3396A,112.0764,32.0089,襄阳市,襄城隆中路,细颗粒物(PM2.5),96,78,73,58,55,69,69,43,43,18,30,9,9,0.7,0.6
2026-03-17T1600,3397A,112.1154,32.103,襄阳市,高新台子湾,细颗粒物(PM2.5),80,84,83,50,48,61,61,43,43,23,25,8,7,0.6,0.6
2026-03-17T1600,4251A,112.1433,32.0581,襄阳市,铁院东路4号,细颗粒物(PM2.5),78,73,77,49,47,59,59,48,42,20,20,7,7,0.9,0.9
2026-03-17T1600,2444A,113.9062,30.9378,孝感市,东城区,,19,19,47,9,38,44,44,39,39,14,18,4,4,0.9,0.8
2026-03-17T1600,4125A,113.946,30.8999,孝感市,天仙南路1号,,14,14,63,9,37,38,38,38,37,13,18,2,2,0.7,0.6
2026-03-17T1600,2181A,112.7313,38.457,忻州市,开发区,颗粒物(PM10),60,63,74,32,56,96,96,64,64,10,27,6,9,0.4,0.7
2026-03-17T1600,2182A,112.7023,38.4932,忻州市,会展中心,颗粒物(PM10),65,70,74,38,56,84,84,56,56,14,31,7,8,0.7,1
2026-03-17T1600,3208A,112.7279,38.4157,忻州市,市政府,颗粒物(PM10),56,58,78,15,51,101,101,67,67,17,34,6,9,0.5,0.9
2026-03-17T1600,4063A,115.2124,37.9433,辛集市,市政府,细颗粒物(PM2.5),144,108,117,108,115,116,116,83,83,19,19,1,2,0.5,0.6
2026-03-17T1600,4064A,115.2008,37.9338,辛集市,城管大队,细颗粒物(PM2.5),139,116,99,102,107,117,117,86,86,10,17,5,4,1.0,0.9
2026-03-17T1600,2389A,113.836,35.3104,新乡市,环保西院,细颗粒物(PM2.5),142,132,127,106,104,75,75,61,61,17,20,7,6,1.0,0.9
2026-03-17T1600,2390A,113.8847,35.2724,新乡市,开发区,细颗粒物(PM2.5),145,NA,101,109,96,74,74,57,57,23,26,6,6,0.9,0.6
2026-03-17T1600,2391A,113.8836,35.3028,新乡市,环保东院,细颗粒物(PM2.5),138,116,119,101,105,78,78,58,58,18,21,4,5,0.8,0.7
2026-03-17T1600,3054A,113.9194,35.2847,新乡市,市委党校,细颗粒物(PM2.5),156,NA,112,119,95,80,80,59,59,21,27,6,6,0.6,0.5
2026-03-17T1600,3475A,113.9189,35.3042,新乡市,市政府,细颗粒物(PM2.5),160,NA,120,122,105,83,83,59,59,18,23,8,7,0.6,0.6
2026-03-17T1600,3689A,113.9002,35.372,新乡市,行政服务中心,细颗粒物(PM2.5),158,NA,106,120,106,63,63,46,46,25,30,9,9,0.7,0.6
2026-03-17T1600,4215A,113.916569,35.331547,新乡市,建设东路46号,细颗粒物(PM2.5),136,118,127,99,96,69,69,44,44,23,30,7,7,0.5,0.4
2026-03-17T1600,2353A,114.9887,27.8433,新余市,飞宇,细颗粒物(PM2.5),102,76,59,62,45,86,86,66,66,27,21,11,7,0.9,0.8
2026-03-17T1600,2354A,114.9234,27.8248,新余市,第二水厂,细颗粒物(PM2.5),100,60,55,60,48,100,100,73,73,14,13,3,3,1.1,0.9
2026-03-17T1600,2355A,114.931,27.8037,新余市,市气象局,细颗粒物(PM2.5),118,NA,50,79,54,100,100,80,80,21,15,1,1,0.4,0.2
2026-03-17T1600,3206A,114.9148,27.8069,新余市,新钢沁园村,细颗粒物(PM2.5),106,74,64,66,47,98,98,72,72,17,17,2,1,0.2,0.3
2026-03-17T1600,2054A,114.1096,32.1059,信阳市,平桥分局,,12,12,69,3,59,36,36,55,37,14,15,5,5,0.5,0.5
2026-03-17T1600,2064A,113.9956,32.1272,信阳市,南湾水厂,,24,24,78,8,53,35,35,45,38,13,14,3,3,0.5,0.5
2026-03-17T1600,2065A,114.078,32.1194,信阳市,市酿酒公司,,25,25,76,7,61,35,35,55,37,16,16,4,4,0.6,0.6
2026-03-17T1600,2066A,114.0712,32.1393,信阳市,审计局,,37,37,77,8,59,34,34,54,38,15,15,4,4,0.7,0.6
2026-03-17T1600,4280A,122.0921,46.065,兴安盟,洮儿河南路,颗粒物(PM10),138,218,165,75,111,101,101,115,115,18,30,3,6,0.7,1.1
2026-03-17T1600,4311A,122.0383,46.0691,兴安盟,科尔沁北路63号,颗粒物(PM10),121,173,133,65,89,93,93,105,105,12,25,5,7,0.8,1.2
2026-03-17T1600,1077A,114.4687,37.0883,邢台市,达活泉,细颗粒物(PM2.5),117,104,104,78,74,98,98,68,68,12,27,9,10,0.8,0.8
2026-03-17T1600,1078A,114.4954,37.0309,邢台市,邢师高专,细颗粒物(PM2.5),115,93,99,76,72,107,107,69,69,13,29,9,11,0.8,0.8
2026-03-17T1600,1079A,114.5281,37.0857,邢台市,路桥公司,细颗粒物(PM2.5),116,104,102,77,82,99,99,66,66,14,30,4,5,0.6,0.7
2026-03-17T1600,1080A,114.4721,37.0713,邢台市,市环保局,细颗粒物(PM2.5),130,107,100,93,80,102,102,70,70,11,23,7,8,0.6,0.6
2026-03-17T1600,4070A,114.5558,37.0578,邢台市,襄都区政府南院,细颗粒物(PM2.5),115,95,106,76,90,98,98,67,67,24,35,4,4,0.6,0.6
2026-03-17T1600,1180A,117.257,34.2161,徐州市,新城区,细颗粒物(PM2.5),68,59,85,44,69,80,80,78,78,18,21,8,8,0.4,0.5
2026-03-17T1600,1182A,117.2933,34.2796,徐州市,农科院,细颗粒物(PM2.5),72,48,72,46,77,84,84,77,77,28,29,5,5,0.6,0.6
2026-03-17T1600,3005A,117.1812,34.29,徐州市,鼓楼区政府,细颗粒物(PM2.5),84,NA,72,52,74,81,81,73,73,24,24,8,8,0.6,0.7
2026-03-17T1600,3006A,117.1693,34.1781,徐州市,铜山区招生办,细颗粒物(PM2.5),70,48,88,45,73,80,80,76,76,25,31,5,6,0.4,0.5
2026-03-17T1600,3288A,117.4619,34.4368,徐州市,大泉街道,细颗粒物(PM2.5),78,62,92,49,73,73,73,68,68,25,29,10,11,0.5,0.6
2026-03-17T1600,4088A,117.1553,34.2567,徐州市,纺织东路16号,细颗粒物(PM2.5),72,NA,88,46,70,85,85,78,78,19,20,6,7,0.5,0.6
2026-03-17T1600,4186A,117.194237,34.229354,徐州市,解放南路202号,细颗粒物(PM2.5),80,56,90,50,74,86,86,78,78,19,23,7,8,0.5,0.6
2026-03-17T1600,4288A,117.2438,34.2844,徐州市,龙潭环路5号,细颗粒物(PM2.5),74,51,81,47,72,84,84,80,80,20,17,7,8,0.5,0.5
2026-03-17T1600,2398A,113.7904,33.9949,许昌市,开发区,细颗粒物(PM2.5),116,90,120,77,94,76,76,63,63,15,29,4,4,0.6,0.7
2026-03-17T1600,3134A,113.8172,34.0339,许昌市,市一中,细颗粒物(PM2.5),120,NA,93,82,105,80,80,64,64,15,20,5,5,0.9,0.9
2026-03-17T1600,3337A,113.8611,34.0443,许昌市,许昌学院,细颗粒物(PM2.5),119,NA,100,80,102,82,82,64,64,15,24,4,5,0.5,0.6
2026-03-17T1600,3338A,113.8428,34.0825,许昌市,芙蓉广场,细颗粒物(PM2.5),122,NA,96,84,113,74,74,55,55,17,23,5,5,0.5,0.7
2026-03-17T1600,4180A,113.8157285,34.126705,许昌市,新元大道996号,细颗粒物(PM2.5),118,79,125,79,105,85,85,63,63,13,20,4,5,0.6,0.7
2026-03-17T1600,4259A,113.835877,34.0155267,许昌市,望田路111号,细颗粒物(PM2.5),117,NA,105,78,103,85,85,64,64,16,27,5,5,0.7,0.7
2026-03-17T1600,2316A,118.7578,30.9457,宣城市,鳌峰子站,,35,25,18,24,23,61,61,52,52,24,29,5,4,0.4,0.4
2026-03-17T1600,2317A,118.7384,30.9745,宣城市,敬亭山子站,细颗粒物(PM2.5),54,42,38,37,30,55,55,49,49,22,27,3,3,0.4,0.4
2026-03-17T1600,2318A,118.7172,30.9428,宣城市,开发区子站,,35,NA,27,24,26,60,60,51,51,26,31,6,6,0.5,0.4
2026-03-17T1600,2555A,103.011,29.9833,雅安市,市政府,,15,15,34,10,24,34,34,36,36,21,17,6,6,0.6,0.6
2026-03-17T1600,2556A,102.9907,29.9778,雅安市,川农大,,15,9,29,7,22,45,45,35,35,13,17,4,4,0.6,0.6
2026-03-17T1600,4306A,103.0544,30.0133,雅安市,滨江西路,,14,NA,24,8,21,43,43,37,36,15,19,7,7,0.7,0.7
2026-03-17T1600,1642A,121.2517,37.564,烟台市,开发区,,34,34,66,19,55,104,104,93,93,18,46,6,8,0.2,0.6
2026-03-17T1600,1644A,121.3181,37.5436,烟台市,西郊化工站,,39,36,77,15,41,123,123,108,108,12,39,8,8,0.4,0.7
2026-03-17T1600,1645A,121.4419,37.4858,烟台市,莱山环保局,,48,48,69,24,44,117,117,107,107,23,32,7,10,0.2,0.5
2026-03-17T1600,1646A,121.2619,37.4965,烟台市,福山环保局,,39,39,94,13,60,117,117,104,104,10,40,3,5,0.4,0.7
2026-03-17T1600,3057A,121.5989,37.4016,烟台市,牟平检察院,,36,24,75,11,55,115,115,102,102,12,29,2,12,0.2,0.6
2026-03-17T1600,3366A,121.5202,37.4336,烟台市,中国农业大学,,37,36,67,17,42,117,117,110,110,10,25,8,8,0.2,0.4
2026-03-17T1600,4213A,121.364239,37.529648,烟台市,青年南路118号,,44,44,66,18,39,115,115,110,110,11,28,3,4,0.5,0.7
2026-03-17T1600,1927A,109.4569,36.6161,延安市,延大医附院,颗粒物(PM10),56,58,60,17,31,90,90,50,50,8,19,1,2,0.4,0.6
2026-03-17T1600,1929A,109.5053,36.6105,延安市,百米大道,颗粒物(PM10),57,59,62,17,34,86,86,52,52,10,22,4,5,0.4,0.7
2026-03-17T1600,4161A,109.485,36.6347,延安市,志丹路,颗粒物(PM10),52,52,64,16,33,91,91,62,62,6,13,2,2,0.3,0.5
2026-03-17T1600,2237A,129.4704,42.8885,延边朝鲜族自治州,妇幼医院,细颗粒物(PM2.5),86,68,86,53,71,123,123,101,101,12,20,6,8,0.4,0.6
2026-03-17T1600,2238A,129.5047,42.9117,延边朝鲜族自治州,延边医院,细颗粒物(PM2.5),96,64,70,58,55,121,121,108,108,16,24,6,7,0.4,0.7
2026-03-17T1600,2239A,129.395,42.8884,延边朝鲜族自治州,朝阳川镇医院,细颗粒物(PM2.5),96,74,113,58,104,125,125,104,104,11,20,6,6,0.5,0.8
2026-03-17T1600,1216A,120.1554,33.3941,盐城市,市监测站,细颗粒物(PM2.5),110,NA,45,71,45,100,100,101,101,12,13,6,6,0.6,0.7
2026-03-17T1600,1218A,120.214332,33.37951,盐城市,开发区管委会,细颗粒物(PM2.5),104,69,50,64,40,106,106,105,105,14,12,5,6,0.7,0.6
2026-03-17T1600,3004A,120.1543,33.3664,盐城市,宝龙广场,细颗粒物(PM2.5),96,NA,41,58,41,106,106,107,107,17,16,6,6,0.6,0.6
2026-03-17T1600,3293A,120.1518,33.3369,盐城市,月亮广场,细颗粒物(PM2.5),82,63,44,51,30,102,102,100,100,14,15,5,5,0.5,0.5
2026-03-17T1600,3436A,120.4283,33.2048,盐城市,大丰高级中学,细颗粒物(PM2.5),84,61,53,52,36,118,118,114,114,10,10,7,7,0.6,0.6
2026-03-17T1600,4207A,120.12211,33.393982,盐城市,黄海中路88号,细颗粒物(PM2.5),100,68,49,60,34,105,105,106,106,13,12,5,5,0.7,0.6
2026-03-17T1600,1186A,119.3895,32.377,扬州市,邗江监测站,细颗粒物(PM2.5),58,41,65,39,50,57,57,72,62,32,22,6,7,0.6,0.6
2026-03-17T1600,2869A,119.4472,32.4156,扬州市,五台山医院,细颗粒物(PM2.5),60,43,57,40,51,65,65,76,70,32,27,3,4,0.4,0.5
2026-03-17T1600,3164A,119.4682,32.394,扬州市,广陵建设局,,46,42,64,32,47,63,63,75,66,23,18,4,5,0.5,0.6
2026-03-17T1600,3195A,119.3649,32.3961,扬州市,市体育局,,46,39,63,32,53,60,60,73,63,27,21,4,5,0.5,0.5
2026-03-17T1600,3294A,119.565282,32.422263,扬州市,引江管理处,细颗粒物(PM2.5),64,50,63,42,50,64,64,74,69,23,20,1,2,0.6,0.6
2026-03-17T1600,4093A,119.5202,32.3705,扬州市,廖家沟步道,细颗粒物(PM2.5),52,40,61,36,51,62,62,73,63,22,19,4,4,0.4,0.5
2026-03-17T1600,1701A,111.9491,21.8658,阳江市,马南垌,,25,25,39,8,17,76,76,83,81,5,10,4,5,0.4,0.5
2026-03-17T1600,3317A,111.9785,21.8954,阳江市,两阳中学,,26,24,44,7,16,81,81,84,84,4,15,/,/,0.3,0.4
2026-03-17T1600,3453A,112.0125,21.8749,阳江市,阳东陶然,NA,NA,18,36,7,20,82,82,82,82,NA,13,6,7,0.2,0.3
2026-03-17T1600,1739A,113.4894,37.8717,阳泉市,赛鱼,颗粒物(PM10),89,104,100,35,45,80,80,68,68,22,46,5,6,0.5,0.7
2026-03-17T1600,1740A,113.582,37.8473,阳泉市,南庄,颗粒物(PM10),86,100,92,35,49,92,92,71,71,16,27,6,13,0.7,0.9
2026-03-17T1600,1742A,113.5616,37.8706,阳泉市,平坦,颗粒物(PM10),68,75,93,31,34,85,85,71,71,16,40,9,12,0.4,0.7
2026-03-17T1600,1743A,113.5115,37.8391,阳泉市,大阳泉,颗粒物(PM10),62,66,75,36,45,95,95,84,84,16,23,5,6,0.5,0.7
2026-03-17T1600,3619A,113.6169,37.8565,阳泉市,龙柱,颗粒物(PM10),82,94,97,43,55,84,84,64,64,16,33,4,17,0.6,1
2026-03-17T1600,4077A,113.588,37.8712,阳泉市,宁波路,NA,NA,119,98,40,45,91,91,73,73,NA,37,7,13,NA,0.9
2026-03-17T1600,2252A,128.8663,47.7199,伊春市,环保局,,30,17,18,11,10,95,95,79,79,5,15,6,5,0.4,0.5
2026-03-17T1600,2253A,128.9014,47.732,伊春市,电力嘉园,,27,21,27,11,14,85,85,75,75,8,14,6,7,0.4,0.4
2026-03-17T1600,3342A,128.7948,47.7291,伊春市,中心小学,,30,13,23,3,14,96,96,86,86,3,10,5,4,0.5,0.1
2026-03-17T1600,3343A,128.6736,47.729,伊春市,检察院,,29,16,16,10,9,91,91,76,76,3,6,10,8,0.6,0.5
2026-03-17T1600,4284A,128.8325,47.8447,伊春市,永安路4-1号,,31,NA,18,14,14,97,97,85,85,6,10,8,10,0.3,0.3
2026-03-17T1600,2704A,81.3002,43.9177,伊犁哈萨克自治州,新政府片区,,49,49,51,21,21,91,91,58,58,11,20,6,7,0.4,0.7
2026-03-17T1600,2705A,81.3364,43.9409,伊犁哈萨克自治州,第二水厂,,49,49,52,19,20,96,96,58,58,5,15,6,6,0.3,0.5
2026-03-17T1600,4273A,81.2737,43.9337,伊犁哈萨克自治州,安徽路800号,颗粒物(PM10),54,55,50,19,18,98,98,65,64,8,19,6,6,0.5,0.7
2026-03-17T1600,1883A,104.6204,28.7728,宜宾市,市委,,30,30,36,19,22,56,56,35,35,17,16,6,6,0.8,0.7
2026-03-17T1600,1884A,104.6056,28.7931,宜宾市,宜宾四中,,33,33,38,23,26,60,60,37,37,10,14,5,5,0.8,0.7
2026-03-17T1600,1886A,104.5743,28.7199,宜宾市,黄金嘴,,30,27,37,21,26,62,62,42,42,16,22,8,9,0.8,0.7
2026-03-17T1600,3728A,104.6701,28.8053,宜宾市,白酒学院,,23,21,31,16,22,66,66,42,42,12,15,5,6,0.7,0.7
2026-03-17T1600,4149A,104.6146,28.7422,宜宾市,宜宾市职业技术学校,,33,31,36,23,27,56,56,34,34,17,19,6,7,0.6,0.6
2026-03-17T1600,1840A,111.2991,30.6981,宜昌市,白龙岗,,20,19,23,12,19,64,64,60,60,21,21,2,2,0.7,0.7
2026-03-17T1600,1842A,111.263451,30.696754,宜昌市,点军区,,22,NA,17,11,12,68,68,62,62,19,21,5,5,0.5,0.6
2026-03-17T1600,1843A,111.3276,30.782,宜昌市,夷陵区,,22,13,22,6,16,68,68,62,62,16,16,6,7,0.7,0.7
2026-03-17T1600,3546A,111.4606,30.5519,宜昌市,猇亭区张家湾站,,21,10,22,3,18,67,67,48,48,22,26,10,10,0.6,0.6
2026-03-17T1600,4203A,111.3168,30.7203,宜昌市,西陵二路116号,,21,19,19,3,19,66,66,58,58,28,24,7,6,0.8,0.9
2026-03-17T1600,4204A,111.3526,30.6374,宜昌市,沈家店路6号,,21,NA,17,3,15,67,67,54,54,16,18,6,6,0.5,0.5
2026-03-17T1600,2373A,114.3954,27.7843,宜春市,市石油公司,细颗粒物(PM2.5),102,74,67,62,54,76,76,61,61,21,30,9,9,1.3,1.4
2026-03-17T1600,2374A,114.37,27.7916,宜春市,市气象局,细颗粒物(PM2.5),102,63,61,62,52,76,76,58,58,18,27,7,10,1.2,1.3
2026-03-17T1600,2375A,114.401,27.8059,宜春市,市广电局,细颗粒物(PM2.5),106,NA,58,66,53,78,78,59,59,25,27,8,8,1.0,0.9
2026-03-17T1600,3151A,114.375,27.8096,宜春市,宜春学院北校区,细颗粒物(PM2.5),101,70,60,61,52,80,80,62,62,22,28,8,9,1.2,1.2
2026-03-17T1600,2468A,112.3458,28.581,益阳市,市环保局,,16,16,15,3,13,38,38,44,36,12,12,4,4,0.9,0.9
2026-03-17T1600,4181A,112.3571,28.5588,益阳市,龙洲站,,20,20,18,6,11,37,37,44,36,14,15,5,5,0.9,0.8
2026-03-17T1600,4187A,112.3425,28.611,益阳市,幸福渠东路223号,,19,19,19,6,13,34,34,40,31,15,16,4,4,0.9,1
2026-03-17T1600,4188A,112.3712,28.5764,益阳市,益鑫泰路85号,,11,11,15,7,11,35,35,41,32,12,14,4,3,1.0,1
2026-03-17T1600,1489A,106.1361,38.5039,银川市,学院路,颗粒物(PM10),70,78,105,8,41,85,85,77,77,11,42,4,9,0.3,0.5
2026-03-17T1600,2924A,106.2266,38.4417,银川市,水乡路,NA,NA,NA,97,NA,37,87,87,77,77,9,36,5,11,0.2,0.5
2026-03-17T1600,2925A,106.2758,38.4841,银川市,上海东路,颗粒物(PM10),53,53,77,11,38,93,93,87,87,7,27,3,8,0.2,0.4
2026-03-17T1600,2926A,106.1016,38.4971,银川市,文昌北街,颗粒物(PM10),68,74,104,12,42,88,88,79,79,13,43,5,8,0.2,0.5
2026-03-17T1600,3523A,106.5105,38.3857,银川市,滨河新区,,46,46,105,14,44,99,99,87,87,10,28,8,15,0.3,0.5
2026-03-17T1600,4242A,106.226373,38.491976,银川市,广场西路,,46,46,102,8,32,110,110,104,104,6,27,4,8,0.6,0.8
2026-03-17T1600,2358A,117.0561,28.2641,鹰潭市,新监测站,NA,NA,NA,35,NA,56,NA,NA,91,NA,NA,14,NA,4,NA,0.5
2026-03-17T1600,2359A,117.0312,28.2474,鹰潭市,财苑宾馆,细颗粒物(PM2.5),90,56,42,55,61,126,126,89,89,8,10,9,7,/,/
2026-03-17T1600,2360A,117.0221,28.2263,鹰潭市,体育馆,细颗粒物(PM2.5),76,53,42,48,55,125,125,83,83,4,9,8,6,0.6,0.7
2026-03-17T1600,1597A,122.2704,40.7093,营口市,大庆路,NA,NA,82,131,58,108,NA,NA,120,120,22,34,12,12,0.4,0.7
2026-03-17T1600,1598A,122.215,40.6511,营口市,镜湖西路,NA,NA,83,117,59,94,NA,NA,123,123,27,41,NA,10,0.7,0.8
2026-03-17T1600,1599A,122.1667,40.665,营口市,西炮台,细颗粒物(PM2.5),100,83,117,60,99,94,94,105,105,27,38,7,9,0.6,0.6
2026-03-17T1600,3379A,122.1122,40.2275,营口市,鲅鱼圈市民活动中心,细颗粒物(PM2.5),78,80,116,49,71,118,118,106,106,24,53,10,16,1.0,1.2
2026-03-17T1600,3866A,122.2469,40.663,营口市,三高中,细颗粒物(PM2.5),98,97,127,59,95,116,116,115,115,24,32,7,9,0.4,0.6
2026-03-17T1600,4006A,122.3622,40.6762,营口市,老边实验小学,细颗粒物(PM2.5),101,88,167,61,132,122,122,112,112,32,69,11,17,0.6,1.4
2026-03-17T1600,2478A,111.6126,26.4266,永州市,市环境监测站,细颗粒物(PM2.5),54,53,33,37,24,24,24,32,28,31,18,3,3,0.8,0.7
2026-03-17T1600,2480A,111.6248,26.3803,永州市,永州市环保局,细颗粒物(PM2.5),62,48,34,41,28,29,29,32,32,28,15,3,3,0.9,0.8
2026-03-17T1600,2481A,111.5989,26.4523,永州市,冷水滩区环保局,颗粒物(PM10),55,56,27,28,17,26,26,33,29,28,13,3,3,1.0,0.9
2026-03-17T1600,4299A,111.6195,26.2253,永州市,徐家井路86号,,44,44,35,29,25,35,35,35,35,20,16,4,4,0.9,0.8
2026-03-17T1600,2639A,109.7445,38.2919,榆林市,世纪广场,颗粒物(PM10),60,64,115,13,41,102,102,78,78,7,43,3,6,0.2,0.5
2026-03-17T1600,2640A,109.729,38.2837,榆林市,实验中学,颗粒物(PM10),76,86,129,15,45,98,98,76,76,7,38,4,4,0.5,0.6
2026-03-17T1600,2641A,109.7347,38.2491,榆林市,环保监测大楼,NA,NA,72,111,13,41,100,100,83,83,5,30,5,5,NA,0.5
2026-03-17T1600,2511A,110.1433,22.6162,玉林市,南江一中,,43,43,46,22,23,81,81,73,73,8,16,6,29,0.5,0.6
2026-03-17T1600,3532A,110.1951,22.6832,玉林市,玉林师范学院东校区,,49,49,50,21,22,97,97,84,84,8,15,6,10,0.4,0.4
2026-03-17T1600,3533A,110.0527,22.5894,玉林市,福绵环保局,,38,31,40,26,22,92,92,88,88,11,13,7,7,0.3,0.4
2026-03-17T1600,4255A,110.16795,22.640993,玉林市,人民东路196号,,37,37,39,25,22,85,85,75,75,6,10,4,11,0.4,0.5
2026-03-17T1600,2675A,97.0386,33.0138,玉树藏族自治州,玉树县结古镇,,41,8,17,3,7,129,129,106,106,6,11,9,10,0.4,0.4
2026-03-17T1600,1715A,102.575,24.371,玉溪市,东风水库,,49,NA,33,34,23,126,126,92,92,8,13,3,3,0.3,0.4
2026-03-17T1600,2882A,102.5388,24.3703,玉溪市,玉溪一中,颗粒物(PM10),55,57,42,32,27,120,120,83,83,6,15,1,2,0.5,0.7
2026-03-17T1600,2883A,102.5382,24.339,玉溪市,文体中心,颗粒物(PM10),53,53,44,36,26,123,123,88,88,6,19,5,6,0.2,0.4
2026-03-17T1600,1848A,113.1494,29.425,岳阳市,城陵矶,NA,NA,NA,16,NA,11,14,14,24,15,27,26,5,5,1.1,0.9
2026-03-17T1600,1849A,113.1493,29.3575,岳阳市,开发区,,11,9,18,3,10,33,33,34,29,22,21,4,4,0.9,0.9
2026-03-17T1600,1850A,113.2672,29.4752,岳阳市,云溪区,,11,6,15,3,8,25,25,27,21,22,20,6,6,1.0,1
2026-03-17T1600,1851A,112.9944,29.44,岳阳市,君山区,,13,10,17,3,10,30,30,34,23,25,24,8,8,1.1,1.1
2026-03-17T1600,4265A,113.108806,29.353066,岳阳市,求索西路365号,,15,15,19,3,10,28,28,28,23,18,19,6,6,0.8,0.8
2026-03-17T1600,1714A,112.0281,22.9738,云浮市,牧羊,,29,19,30,12,13,90,90,77,77,12,16,6,7,0.3,0.4
2026-03-17T1600,3628A,112.0335,22.9376,云浮市,文笔,,31,31,37,10,14,96,96,84,84,4,12,5,6,0.4,0.4
2026-03-17T1600,2175A,110.996,35.0148,运城市,运城中学,颗粒物(PM10),70,78,52,44,44,59,59,83,64,14,12,5,5,1.0,0.8
2026-03-17T1600,2178A,110.9685,35.0305,运城市,地区技校,细颗粒物(PM2.5),68,62,58,44,45,62,62,77,62,12,13,4,5,0.8,0.7
2026-03-17T1600,3667A,111.0279,35.0543,运城市,水利职院,细颗粒物(PM2.5),92,71,56,56,47,64,64,68,63,13,13,6,6,0.8,0.8
2026-03-17T1600,3670A,111.0522,35.0439,运城市,禹都公园,颗粒物(PM10),65,71,57,42,46,67,67,76,68,13,12,6,7,0.7,0.6
2026-03-17T1600,4081A,111.0081,35.0748,运城市,学苑北路2555号,颗粒物(PM10),64,69,54,39,41,67,67,69,64,12,14,5,5,0.9,0.7
2026-03-17T1600,1637A,117.5628,34.8379,枣庄市,市中区政府,细颗粒物(PM2.5),68,63,98,44,70,98,98,94,94,24,32,12,15,0.6,0.8
2026-03-17T1600,1638A,117.2855,34.7838,枣庄市,薛城环保局,细颗粒物(PM2.5),90,66,93,55,75,81,81,84,84,25,27,14,14,0.6,0.7
2026-03-17T1600,1639A,117.5854,34.7744,枣庄市,峄城区政府,"颗粒物(PM10),细颗粒物(PM2.5)",62,66,103,41,74,92,92,94,94,18,25,14,18,0.4,0.5
2026-03-17T1600,1641A,117.4516,35.0992,枣庄市,山亭区环保局,,44,44,85,30,67,115,115,108,108,10,16,7,7,0.7,0.8
2026-03-17T1600,3364A,117.316,34.8106,枣庄市,市环保局,NA,NA,68,99,50,71,86,86,86,86,NA,28,7,8,0.6,0.7
2026-03-17T1600,4266A,117.7325,34.5683,枣庄市,文化路178号,细颗粒物(PM2.5),66,58,99,43,72,94,94,78,78,21,34,13,14,0.7,0.8
2026-03-17T1600,1680A,110.3648,21.2697,湛江市,湛江影剧院,NA,NA,27,30,12,15,75,75,92,78,6,9,NA,4,0.3,0.4
2026-03-17T1600,1681A,110.3907,21.2279,湛江市,市环境监测站,,30,30,30,13,15,74,74,89,76,6,8,5,5,0.4,0.4
2026-03-17T1600,1682A,110.3936,21.1943,湛江市,环保局宿舍,,26,26,26,11,14,75,75,94,79,6,8,3,3,/,/
2026-03-17T1600,1683A,110.4138,21.2033,湛江市,霞山游泳场,,27,27,32,12,14,74,74,97,79,5,6,4,4,/,/
2026-03-17T1600,1685A,110.4512,21.239,湛江市,坡头区环保局,,25,22,27,13,14,80,80,95,83,10,10,4,4,0.4,0.4
2026-03-17T1600,1858A,110.532,29.1219,张家界市,永定新区,,22,16,21,3,16,70,70,70,66,18,17,/,/,/,/
2026-03-17T1600,1859A,110.4696,29.1244,张家界市,电业局,,20,NA,17,6,11,62,62,69,64,14,17,6,6,0.7,0.6
2026-03-17T1600,1860A,110.5573,29.3486,张家界市,未央路,,20,8,7,3,8,63,63,72,59,23,12,11,11,0.8,0.7
2026-03-17T1600,1057A,114.8884,40.8336,张家口市,人民公园,细颗粒物(PM2.5),141,NA,61,105,53,104,104,81,81,32,20,8,5,0.7,0.4
2026-03-17T1600,1059A,114.868581,40.804273,张家口市,五金库,细颗粒物(PM2.5),118,124,73,79,46,102,102,79,79,31,22,/,/,/,/
2026-03-17T1600,1060A,114.8901,40.762,张家口市,世纪豪园,细颗粒物(PM2.5),125,119,73,87,52,99,99,76,76,37,25,10,5,0.5,0.4
2026-03-17T1600,3131A,114.878,40.7992,张家口市,烟厂,细颗粒物(PM2.5),124,130,72,86,47,105,105,81,81,33,21,/,/,/,/
2026-03-17T1600,3323A,115.2772,40.9723,张家口市,青少年活动中心,颗粒物(PM10),93,110,86,33,39,101,101,84,84,10,15,3,3,0.4,0.5
2026-03-17T1600,2654A,100.4699,38.9525,张掖市,润泉湖,颗粒物(PM10),55,56,99,17,34,103,103,92,92,5,13,3,4,0.3,0.4
2026-03-17T1600,2655A,100.4155,38.9422,张掖市,区工会,颗粒物(PM10),107,137,104,17,35,101,101,89,89,4,12,2,3,0.3,0.4
2026-03-17T1600,2920A,117.71,24.5048,漳州市,蓝田镇,,48,48,45,24,21,153,153,114,114,18,25,5,4,0.4,0.4
2026-03-17T1600,3216A,117.662,24.5187,漳州市,漳州党校,NA,NA,NA,49,NA,25,158,158,117,117,NA,23,/,/,/,/
2026-03-17T1600,3530A,117.6288,24.5309,漳州市,西洋坪路,,50,44,37,27,21,157,157,114,114,17,20,5,4,0.5,0.5
2026-03-17T1600,2596A,103.7668,27.3736,昭通市,监测站,,32,29,36,22,24,73,73,89,89,15,14,6,6,0.4,0.3
2026-03-17T1600,4261A,103.7247,27.3415,昭通市,环东路146号,,39,39,38,20,24,80,80,81,81,15,20,5,8,0.3,0.5
2026-03-17T1600,1397A,112.426,23.062,肇庆市,睦岗子站,,33,28,38,14,18,104,104,92,92,9,19,4,8,/,/
2026-03-17T1600,1398A,112.4645,23.0476,肇庆市,城中子站,,33,26,37,13,19,105,105,96,96,9,18,11,16,0.4,0.5
2026-03-17T1600,1399A,112.5545,23.1525,肇庆市,坑口子站,,34,28,32,16,16,107,107,97,97,11,17,5,7,0.2,0.2
2026-03-17T1600,3313A,112.4572,23.0163,肇庆市,高要湖西,,33,32,43,13,20,103,103,96,96,9,18,6,14,0.3,0.3
2026-03-17T1600,3451A,112.5617,23.2082,肇庆市,鼎湖凤凰,,35,29,25,15,14,109,109,93,93,11,13,8,8,/,/
2026-03-17T1600,1203A,119.6708,32.187,镇江市,新区办事处,,45,35,58,31,50,37,37,77,47,54,30,5,3,0.8,0.6
2026-03-17T1600,1204A,119.497455,32.196732,镇江市,职教中心,,42,NA,46,29,55,29,29,52,40,59,36,1,2,0.8,0.7
2026-03-17T1600,1205A,119.43,32.1328,镇江市,丹徒区监测站,,35,NA,51,24,63,48,48,55,53,38,28,1,2,0.8,0.7
2026-03-17T1600,2870A,119.4369,32.1891,镇江市,市疾控中心,,35,NA,55,24,57,49,49,57,54,39,29,6,6,0.9,0.8
2026-03-17T1600,3287A,119.3842,32.198,镇江市,富润路1号,,40,NA,43,28,61,56,56,63,61,36,26,4,4,1.0,1
2026-03-17T1600,1316A,113.6843,34.7622,郑州市,烟厂,细颗粒物(PM2.5),120,NA,84,82,103,75,75,55,55,26,26,2,3,0.7,0.7
2026-03-17T1600,1318A,113.669,34.8034,郑州市,银行学校,细颗粒物(PM2.5),139,NA,92,102,95,49,49,62,53,41,29,5,5,1.0,0.9
2026-03-17T1600,1319A,113.5612,34.8143,郑州市,供水公司,细颗粒物(PM2.5),137,NA,91,100,90,52,52,64,55,30,24,2,2,0.8,0.8
2026-03-17T1600,1320A,113.7269,34.7187,郑州市,经开区管委,细颗粒物(PM2.5),136,NA,102,99,105,62,62,46,46,31,36,1,2,0.6,0.7
2026-03-17T1600,1321A,113.7332,34.7727,郑州市,四十七中,细颗粒物(PM2.5),130,102,100,93,109,73,73,48,48,23,27,2,3,0.8,0.8
2026-03-17T1600,1323A,113.6361,34.7537,郑州市,河医大,细颗粒物(PM2.5),122,NA,99,84,95,75,75,65,63,30,29,4,5,0.7,0.7
2026-03-17T1600,3471A,113.6104,34.8688,郑州市,惠济区政府,细颗粒物(PM2.5),132,NA,79,95,99,52,52,53,42,32,26,2,2,0.8,0.7
2026-03-17T1600,3590A,113.8362,34.566,郑州市,北区建设指挥部,细颗粒物(PM2.5),128,NA,104,90,110,76,76,48,48,24,32,3,3,0.7,0.8
2026-03-17T1600,3591A,113.3029,34.8041,郑州市,上街区政府,细颗粒物(PM2.5),147,NA,84,111,92,42,42,45,31,32,27,4,4,0.7,0.5
2026-03-17T1600,4293A,113.605125,34.755221,郑州市,计划路2号,细颗粒物(PM2.5),131,NA,86,94,98,53,53,60,57,34,28,3,4,0.7,0.6
2026-03-17T1600,4294A,113.6525645,34.77362682,郑州市,同乐路9号,细颗粒物(PM2.5),126,NA,86,88,98,65,65,55,55,27,23,1,2,0.9,0.9
2026-03-17T1600,1379A,113.377,22.5211,中山市,华柏园,,49,49,30,12,14,72,72,69,69,16,16,/,/,/,/
2026-03-17T1600,1380A,113.3879,22.5499,中山市,张溪,,40,40,33,11,12,80,80,77,77,16,16,/,/,/,/
2026-03-17T1600,1381A,113.4071,22.5111,中山市,紫马岭,,26,26,27,10,14,81,81,77,77,13,16,6,8,0.2,0.2
2026-03-17T1600,3454A,113.3527,22.4781,中山市,中山南区,,28,14,23,11,13,89,89,80,80,8,13,3,2,0.2,0.2
2026-03-17T1600,2682A,105.1965,37.4996,中卫市,环保局站,颗粒物(PM10),110,144,103,24,30,96,96,90,89,4,8,8,9,0.2,0.2
2026-03-17T1600,3650A,105.1696,37.5164,中卫市,沙坡头区政府站,颗粒物(PM10),103,127,103,30,29,96,96,91,90,5,10,8,9,0.2,0.3
2026-03-17T1600,1416A,106.4216,29.8256,重庆市,天生,,21,21,29,3,15,44,44,25,25,12,24,8,8,0.6,0.6
2026-03-17T1600,1417A,106.6264,29.7226,重庆市,两路,,17,17,22,10,12,37,37,28,28,17,22,6,5,0.7,0.7
2026-03-17T1600,1419A,106.5778,29.5103,重庆市,南坪,,40,40,35,15,16,25,25,26,26,29,20,7,7,0.7,0.6
2026-03-17T1600,1420A,106.6556,29.6277,重庆市,唐家沱,,25,25,27,9,14,17,17,18,15,33,22,7,6,0.9,0.6
2026-03-17T1600,3014A,106.4958,29.5347,重庆市,歇台子,,29,29,33,14,16,38,38,34,34,23,24,6,6,0.7,0.7
2026-03-17T1600,3015A,106.4067,29.5729,重庆市,龙井湾,,25,19,25,17,16,36,36,36,36,19,24,8,8,0.8,0.7
2026-03-17T1600,3016A,106.5506,29.415,重庆市,龙洲湾,,30,30,29,14,17,39,39,29,29,25,21,5,5,0.5,0.4
2026-03-17T1600,3133A,106.5469,29.5655,重庆市,上清寺,,31,31,35,16,14,22,22,24,17,31,24,7,7,0.7,0.6
2026-03-17T1600,3346A,108.3871,31.1627,重庆市,安康,,26,26,22,6,8,59,59,40,40,11,14,6,6,0.9,0.8
2026-03-17T1600,3347A,105.8983,29.36,重庆市,北山路,,28,28,39,17,28,46,46,35,35,16,19,6,7,0.6,0.6
2026-03-17T1600,3350A,106.648859,29.023807,重庆市,滩子口,,39,36,38,27,18,58,58,45,45,14,14,13,8,0.5,0.5
2026-03-17T1600,3351A,105.7164,29.7077,重庆市,棠香,,26,26,27,16,17,55,55,42,42,10,10,3,5,0.7,0.7
2026-03-17T1600,3352A,107.0733,29.8618,重庆市,桃源西路,,26,26,32,13,14,38,38,33,33,19,13,6,6,0.8,0.7
2026-03-17T1600,3353A,107.3536,29.7283,重庆市,迎宾大道,,18,18,21,12,11,52,52,47,47,19,17,6,6,0.6,0.5
2026-03-17T1600,3354A,108.8152,29.5079,重庆市,舟白,,23,15,19,3,3,72,72,70,62,8,8,6,5,0.7,0.6
2026-03-17T1600,3355A,108.3679,30.8429,重庆市,周家坝,,30,30,24,3,6,51,51,46,46,22,20,6,5,0.7,0.6
2026-03-17T1600,3356A,108.4323,30.7554,重庆市,百安坝,,23,23,26,3,5,50,50,45,45,16,12,9,9,0.6,0.6
2026-03-17T1600,3482A,107.754,29.3275,重庆市,芙蓉中路,,21,13,18,3,4,65,65,46,46,8,17,5,5,0.9,0.9
2026-03-17T1600,3484A,106.2629,29.3202,重庆市,行政中心,,25,25,35,11,17,49,49,40,40,14,27,4,8,0.6,0.6
2026-03-17T1600,3599A,106.2648,29.9853,重庆市,书院路,,14,9,18,6,15,44,44,27,27,12,13,6,5,0.6,0.6
2026-03-17T1600,3600A,106.2334,29.5583,重庆市,虎峰,,42,42,37,11,22,43,43,27,27,20,26,8,11,0.6,0.7
2026-03-17T1600,3601A,106.0497,29.8345,重庆市,龙门街,,26,26,28,13,18,57,57,39,39,20,20,7,8,0.6,0.6
2026-03-17T1600,3610A,105.5931,29.4105,重庆市,昌元,,34,34,33,20,20,64,64,44,44,16,17,3,4,0.5,0.5
2026-03-17T1600,4136A,108.6971,30.9377,重庆市,云师幼儿园,,28,28,25,3,5,60,60,51,51,13,15,6,6,0.8,0.8
2026-03-17T1600,4137A,107.3276,30.3284,重庆市,公安局,,19,19,12,8,8,43,43,47,44,18,12,12,6,0.8,0.7
2026-03-17T1600,4138A,108.0575,30.3254,重庆市,忠县中学,,20,20,12,12,8,52,52,39,39,15,13,4,4,0.9,0.9
2026-03-17T1600,4139A,109.4542,31.0182,重庆市,竹枝路2号,,22,21,17,8,6,70,70,57,57,17,19,5,5,0.9,0.9
2026-03-17T1600,4140A,107.7422,29.871,重庆市,龙河路,,21,21,26,9,10,43,43,37,35,17,14,7,7,0.8,0.8
2026-03-17T1600,4141A,108.7636,28.84,重庆市,桃花源中路,,25,25,18,3,3,60,60,65,64,12,9,3,3,0.8,0.7
2026-03-17T1600,4142A,108.9758,28.4416,重庆市,秀山县高级中学,,22,NA,3,3,4,69,69,75,66,5,8,5,5,0.9,0.9
2026-03-17T1600,4143A,108.1558,29.2859,重庆市,河堡街,,22,21,19,12,7,70,70,61,61,3,6,2,2,0.8,0.8
2026-03-17T1600,4223A,106.4686218,29.48920871,重庆市,双山路147号,,37,37,45,14,16,29,29,29,29,27,26,4,4,0.5,0.5
2026-03-17T1600,4246A,105.833962,30.18863087,重庆市,桃园路24号,,19,8,25,3,16,60,60,39,39,8,12,10,12,0.6,0.7
2026-03-17T1600,4247A,107.091033,29.153966,重庆市,钟楼街32号,,24,24,24,11,15,31,31,35,34,11,16,7,6,0.9,0.8
2026-03-17T1600,4248A,107.8042979,30.67350233,重庆市,人民南路309号,,26,26,27,13,5,51,51,47,47,11,9,5,5,0.6,0.5
2026-03-17T1600,1258A,122.1223,30.0203,舟山市,定海檀枫,,32,23,37,13,24,101,101,92,92,15,12,5,5,0.5,0.5
2026-03-17T1600,1260A,122.1898,29.9945,舟山市,临城新区,,30,23,33,18,27,96,96,93,93,21,14,6,6,0.7,0.6
2026-03-17T1600,4033A,122.3124,29.9619,舟山市,普陀东港中学,,38,34,48,26,35,102,102,97,97,15,17,7,6,0.4,0.4
2026-03-17T1600,2068A,114.6755,33.6347,周口市,周口师范,细颗粒物(PM2.5),94,57,82,57,81,49,49,54,50,15,19,1,1,0.6,0.6
2026-03-17T1600,4121A,114.8466,33.7333,周口市,羲皇大道,NA,NA,66,101,51,84,52,52,54,52,NA,17,NA,2,0.6,0.6
2026-03-17T1600,4269A,114.6701,33.6167,周口市,七一路,细颗粒物(PM2.5),92,NA,84,56,88,48,48,56,50,23,22,4,3,0.7,0.7
2026-03-17T1600,4296A,114.6421,33.6417,周口市,健康路46号,细颗粒物(PM2.5),88,NA,75,54,89,54,54,61,55,10,13,1,3,0.6,0.6
2026-03-17T1600,4297A,114.649,33.596,周口市,太昊路,细颗粒物(PM2.5),74,57,101,47,86,50,50,57,51,17,18,2,2,0.8,0.8
2026-03-17T1600,1515A,113.1265,27.8306,株洲市,天台山庄,细颗粒物(PM2.5),60,62,27,40,18,30,30,20,17,24,26,6,6,0.9,0.8
2026-03-17T1600,1518A,113.0937,27.8919,株洲市,株冶医院,,49,44,23,34,16,29,29,19,19,22,25,7,6,1.0,0.9
2026-03-17T1600,1519A,113.1709,27.8661,株洲市,市四中,NA,NA,NA,24,NA,15,25,25,16,15,24,27,3,3,0.9,0.7
2026-03-17T1600,1520A,113.1515,27.8265,株洲市,火车站,细颗粒物(PM2.5),64,61,26,42,19,24,24,18,16,28,28,5,4,1.0,0.8
2026-03-17T1600,1524A,113.1329,27.8491,株洲市,市监测站,细颗粒物(PM2.5),62,61,26,41,17,26,26,17,16,24,25,6,5,1.0,0.9
2026-03-17T1600,2031A,113.1836,27.9959,株洲市,云田中学,,48,45,20,33,15,18,18,18,16,30,26,4,4,0.9,0.8
2026-03-17T1600,1367A,113.5811,22.2618,珠海市,吉大,,28,13,29,11,15,88,88,77,77,1,10,4,5,0.4,0.4
2026-03-17T1600,1368A,113.4893,22.2323,珠海市,前山,,27,21,35,10,16,86,86,84,82,14,17,/,/,/,/
2026-03-17T1600,1369A,113.6284,22.4252,珠海市,唐家,,25,24,32,9,15,77,77,76,76,18,25,/,/,/,/
2026-03-17T1600,1370A,113.2986,22.2284,珠海市,斗门,,29,24,34,9,15,90,90,91,91,6,12,4,5,0.2,0.2
