,O3H8_level,regioncode,O3,latitude,CO_level,SYWRW,PM10H24,NO2,O3H8,O3_level,PM10_color,PM25_color,SO2,sitename,O3H8_color,AQI,NO2_level,AQI_level,PM10H24_level,districtcode,SO2_color,longitude,NO2_color,PM25,PM10_level,CO,PM25_level,CO_color,PM25H24_color,sitecode,PM25H24_level,AQI_color,districtname,O3_color,SO2_level,PM10,PM25H24,PM10H24_color,sort,time
0,优,330824,28,29.1478,优,--,10,14,24,优,#00E400,#00E400,8,开化监测大楼,#00E400,9,优,优,优,330800,#00E400,118.4108,#00E400,3,优,0.4,优,#00E400,#00E400,330824002,优,#00E400,衢州市,#00E400,优,6,4,#00E400,1,2026-07-02 16:00:00
1,优,330127,30,29.5995,优,--,7,4,38,优,#00E400,#00E400,8,淳安环保大楼,#00E400,10,优,优,优,330100,#00E400,119.0481,#00E400,4,优,0.5,优,#00E400,#00E400,330127001,优,#00E400,杭州市,#00E400,优,8,4,#00E400,2,2026-07-02 16:00:00
2,优,330824,31,29.1343,优,--,11,14,28,优,#00E400,#00E400,6,开化气象局,#00E400,10,优,优,优,330800,#00E400,118.402,#00E400,2,优,0.5,优,#00E400,--,330824001,--,#00E400,衢州市,#00E400,优,7,--,#00E400,2,2026-07-02 16:00:00
3,优,330213,39,29.693,优,--,16,7,39,优,#00E400,#00E400,5,溪口政府大楼,#00E400,13,优,优,优,330200,#00E400,121.2774,#00E400,2,优,0.2,优,#00E400,#00E400,330283T_1,优,#00E400,宁波市,#00E400,优,7,6,#00E400,4,2026-07-02 16:00:00
4,优,330281,40,30.0358,优,--,14,16,40,优,#00E400,#00E400,6,姚江小学,#00E400,13,优,优,优,330200,#00E400,121.1221,#00E400,7,优,0.5,优,#00E400,#00E400,330281002,优,#00E400,宁波市,#00E400,优,11,9,#00E400,4,2026-07-02 16:00:00
5,优,330281,42,30.0497,优,--,16,11,40,优,#00E400,#00E400,4,龙山公园,#00E400,14,优,优,优,330200,#00E400,121.1475,#00E400,7,优,0.4,优,#00E400,#00E400,330281001,优,#00E400,宁波市,#00E400,优,11,10,#00E400,6,2026-07-02 16:00:00
6,优,330803,45,28.9844,优,--,13,10,31,优,#00E400,#00E400,7,衢州三中（市）,#00E400,15,优,优,优,330800,#00E400,118.9628,#00E400,1,优,0.4,优,#00E400,#00E400,330803704,优,#00E400,衢州市,#00E400,优,6,9,#00E400,7,2026-07-02 16:00:00
7,优,330182,46,29.4769,优,--,12,6,39,优,#00E400,#00E400,7,建德监测大楼,#00E400,15,优,优,优,330100,#00E400,119.2711,#00E400,5,优,0.6,优,#00E400,#00E400,330182T_2,优,#00E400,杭州市,#00E400,优,6,6,#00E400,7,2026-07-02 16:00:00
8,优,330726,46,29.439787,优,--,14,8,37,优,#00E400,#00E400,3,浦江中学,#00E400,15,优,优,优,330700,#00E400,119.924638,#00E400,5,优,0.4,优,#00E400,#00E400,330726002,优,#00E400,金华市,#00E400,优,7,7,#00E400,7,2026-07-02 16:00:00
9,优,330781,46,29.216166,优,--,14,10,24,优,#00E400,#00E400,7,兰溪监测站,#00E400,15,优,优,优,330700,#00E400,119.459992,#00E400,9,优,0.7,优,#00E400,#00E400,330781001,优,#00E400,金华市,#00E400,优,11,8,#00E400,7,2026-07-02 16:00:00
10,优,331125,48,28.1062,优,--,26,2,61,优,#00E400,#00E400,6,云和三中,#00E400,15,优,优,优,331100,#00E400,119.5728,#00E400,9,优,0.2,优,#00E400,#00E400,331125002,优,#00E400,丽水市,#00E400,优,12,10,#00E400,7,2026-07-02 16:00:00
11,优,331181,47,28.08007,优,--,20,3,46,优,#00E400,#00E400,8,龙泉环保大楼,#00E400,15,优,优,优,331100,#00E400,119.1328,#00E400,6,优,0.3,优,#00E400,#00E400,331181001,优,#00E400,丽水市,#00E400,优,14,9,#00E400,7,2026-07-02 16:00:00
12,优,330683,49,29.5901,优,--,14,11,38,优,#00E400,#00E400,4,马寅初初中,#00E400,16,优,优,优,330600,#00E400,120.8249,#00E400,7,优,0.5,优,#00E400,#00E400,330683001,优,#00E400,绍兴市,#00E400,优,10,8,#00E400,13,2026-07-02 16:00:00
13,优,330726,49,29.465746,优,--,9,4,38,优,#00E400,#00E400,5,浦江实验中学,#00E400,16,优,优,优,330700,#00E400,119.875227,#00E400,4,优,0.7,优,#00E400,#00E400,330726001,优,#00E400,金华市,#00E400,优,8,4,#00E400,13,2026-07-02 16:00:00
14,优,330822,51,28.9012,优,--,11,19,45,优,#00E400,#00E400,5,图书馆大楼,#00E400,16,优,优,优,330800,#00E400,118.5062,#00E400,2,优,0.5,优,#00E400,#00E400,330822002,优,#00E400,衢州市,#00E400,优,10,2,#00E400,13,2026-07-02 16:00:00
15,优,331125,50,28.1173,优,--,16,12,59,优,#00E400,#00E400,6,云和监测楼,#00E400,16,优,优,优,331100,#00E400,119.5626,#00E400,5,优,0.3,优,#00E400,#00E400,331125001,优,#00E400,丽水市,#00E400,优,9,10,#00E400,13,2026-07-02 16:00:00
16,优,331126,51,27.6211,优,--,16,8,47,优,#00E400,#00E400,5,庆元气象局,#00E400,16,优,优,优,331100,#00E400,119.0788,#00E400,6,优,0.5,优,#00E400,#00E400,331126002,优,#00E400,丽水市,#00E400,优,10,9,#00E400,13,2026-07-02 16:00:00
17,优,331181,50,28.076,优,--,22,5,48,优,#00E400,#00E400,8,粮食大楼,#00E400,16,优,优,优,331100,#00E400,119.1217,#00E400,7,优,0.4,优,#00E400,#00E400,331181002,优,#00E400,丽水市,#00E400,优,16,8,#00E400,13,2026-07-02 16:00:00
18,优,330213,54,29.6774,优,--,19,10,57,优,#00E400,#00E400,6,大桥市场,#00E400,17,优,优,优,330200,#00E400,121.4237,#00E400,5,优,0.5,优,#00E400,#00E400,330213001,优,#00E400,宁波市,#00E400,优,12,10,#00E400,19,2026-07-02 16:00:00
19,优,330781,52,29.229931,优,--,14,10,28,优,#00E400,#00E400,8,兰溪八中,#00E400,17,优,优,优,330700,#00E400,119.475172,#00E400,11,优,0.6,优,#00E400,#00E400,330781002,优,#00E400,金华市,#00E400,优,15,10,#00E400,19,2026-07-02 16:00:00
20,优,331126,54,27.629585,优,--,15,3,47,优,#00E400,#00E400,4,庆元监测楼,#00E400,17,优,优,优,331100,#00E400,119.054809,#00E400,6,优,0.4,优,#00E400,#00E400,331126001,优,#00E400,丽水市,#00E400,优,13,8,#00E400,19,2026-07-02 16:00:00
21,优,331127,56,28.002222,优,--,23,5,58,优,#00E400,#00E400,6,红星小学,#00E400,18,优,优,优,331100,#00E400,119.636389,#00E400,7,优,0.4,优,#00E400,#00E400,331127003,优,#00E400,丽水市,#00E400,优,14,11,#00E400,22,2026-07-02 16:00:00
22,优,330225,52,29.4767,优,--,16,13,60,优,#00E400,#00E400,8,文峰小学,#00E400,18,优,优,优,330200,#00E400,121.8864,#00E400,11,优,0.5,优,#00E400,#00E400,330225001,优,#00E400,宁波市,#00E400,优,18,9,#00E400,22,2026-07-02 16:00:00
23,优,330624,57,29.5036,优,--,15,5,50,优,#00E400,#00E400,4,钟楼站,#00E400,18,优,优,优,330600,#00E400,120.8938,#00E400,5,优,0.3,优,#00E400,#00E400,330624001,优,#00E400,绍兴市,#00E400,优,11,6,#00E400,22,2026-07-02 16:00:00
24,优,331023,55,29.1504,优,--,16,8,50,优,#00E400,#00E400,6,育青中学,#00E400,18,优,优,优,331000,#00E400,121.0091,#00E400,7,优,0.5,优,#00E400,#00E400,331023001,优,#00E400,台州市,#00E400,优,11,5,#00E400,22,2026-07-02 16:00:00
25,优,330329,58,27.5438,优,--,13,4,60,优,#00E400,#00E400,6,泰顺实验中学,#00E400,19,优,优,优,330300,#00E400,119.716111,#00E400,6,优,0.2,优,#00E400,#00E400,330329002,优,#00E400,温州市,#00E400,优,15,7,#00E400,26,2026-07-02 16:00:00
26,优,330624,60,29.4938,优,--,15,6,52,优,#00E400,#00E400,4,城东站,#00E400,19,优,优,优,330600,#00E400,120.9109,#00E400,5,优,0.4,优,#00E400,#00E400,330624002,优,#00E400,绍兴市,#00E400,优,12,5,#00E400,26,2026-07-02 16:00:00
27,优,330825,58,29.0464,优,--,14,8,40,优,#00E400,#00E400,4,龙游二高,#00E400,19,优,优,优,330800,#00E400,119.204,#00E400,12,优,0.5,优,#00E400,#00E400,330825002,优,#00E400,衢州市,#00E400,优,14,8,#00E400,26,2026-07-02 16:00:00
28,优,331024,58,28.7403,优,--,16,8,59,优,#00E400,#00E400,6,新生中学,#00E400,19,优,优,优,331000,#00E400,120.4728,#00E400,8,优,0.4,优,#00E400,#00E400,331024002,优,#00E400,台州市,#00E400,优,18,7,#00E400,26,2026-07-02 16:00:00
29,优,331123,60,28.5991,优,--,13,5,60,优,#00E400,#00E400,6,遂昌民政局,#00E400,19,优,优,优,331100,#00E400,119.2622,#00E400,2,优,0.5,优,#00E400,#00E400,331123001,优,#00E400,丽水市,#00E400,优,3,5,#00E400,26,2026-07-02 16:00:00
30,优,331123,58,28.5839,优,--,16,5,50,优,#00E400,#00E400,7,遂昌中学,#00E400,19,优,优,优,331100,#00E400,119.2656,#00E400,3,优,0.4,优,#00E400,#00E400,331123002,优,#00E400,丽水市,#00E400,优,11,7,#00E400,26,2026-07-02 16:00:00
31,优,331127,58,27.9772,优,--,20,5,60,优,#00E400,#00E400,4,景宁县政府,#00E400,19,优,优,优,331100,#00E400,119.6311,#00E400,10,优,0.4,优,#00E400,#00E400,331127002,优,#00E400,丽水市,#00E400,优,13,9,#00E400,26,2026-07-02 16:00:00
32,优,330213,62,29.6506,优,--,17,11,50,优,#00E400,#00E400,7,奉化教育局,#00E400,20,优,优,优,330200,#00E400,121.4042,#00E400,6,优,0.5,优,#00E400,#00E400,330283005,优,#00E400,宁波市,#00E400,优,17,8,#00E400,33,2026-07-02 16:00:00
33,优,330282,61,30.1636,优,--,19,4,64,优,#00E400,#00E400,3,慈溪环保大楼,#00E400,20,优,优,优,330200,#00E400,121.2677,#00E400,5,优,0.5,优,#00E400,#00E400,330282001,优,#00E400,宁波市,#00E400,优,9,11,#00E400,33,2026-07-02 16:00:00
34,优,330305,62,27.8342,优,--,19,7,69,优,#00E400,#00E400,4,洞头气象局,#00E400,20,优,优,优,330300,#00E400,121.1502,#00E400,9,优,0.4,优,#00E400,#00E400,330305001,优,#00E400,温州市,#00E400,优,19,9,#00E400,33,2026-07-02 16:00:00
35,优,330523,62,30.5974,优,--,7,3,62,优,#00E400,#00E400,4,安吉城东,#00E400,20,优,优,优,330500,#00E400,119.6953,#00E400,2,优,0.4,优,#00E400,#00E400,330523002,优,#00E400,湖州市,#00E400,优,7,2,#00E400,33,2026-07-02 16:00:00
36,优,330681,62,29.6818,优,--,9,5,48,优,#00E400,#00E400,5,杨树畈,#00E400,20,优,优,优,330600,#00E400,120.2359,#00E400,7,优,0.4,优,#00E400,#00E400,330681001,优,#00E400,绍兴市,#00E400,优,7,6,#00E400,33,2026-07-02 16:00:00
37,优,330784,62,28.90016,优,--,23,7,56,优,#00E400,#00E400,8,西城供电所,#00E400,20,优,优,优,330700,#00E400,120.01452,#00E400,7,优,0.5,优,#00E400,#00E400,330784002,优,#00E400,金华市,#00E400,优,20,12,#00E400,33,2026-07-02 16:00:00
38,优,331024,59,28.8589,优,--,21,7,63,优,#00E400,#00E400,7,仙居环监站,#00E400,20,优,优,优,331000,#00E400,120.7248,#00E400,8,优,0.4,优,#00E400,#00E400,331024001,优,#00E400,台州市,#00E400,优,20,6,#00E400,33,2026-07-02 16:00:00
39,优,331022,62,29.1028,优,--,21,3,69,优,#00E400,#00E400,4,心湖站,#00E400,20,优,优,优,331000,#00E400,121.3918,#00E400,7,优,0.4,优,#00E400,#00E400,331022002,优,#00E400,台州市,#00E400,优,14,9,#00E400,33,2026-07-02 16:00:00
40,优,330182,66,29.4638,优,--,10,14,52,优,#00E400,#00E400,4,第二中学,#00E400,21,优,优,优,330100,#00E400,119.2821,#00E400,5,优,0.5,优,#00E400,#00E400,330182002,优,#00E400,杭州市,#00E400,优,8,6,#00E400,41,2026-07-02 16:00:00
41,优,330226,65,29.3125,优,--,20,7,59,优,#00E400,#00E400,5,宁海水利局,#00E400,21,优,优,优,330200,#00E400,121.4306,#00E400,8,优,0.5,优,#00E400,#00E400,330226001,优,#00E400,宁波市,#00E400,优,12,9,#00E400,41,2026-07-02 16:00:00
42,优,330226,65,29.2878,优,--,19,8,58,优,#00E400,#00E400,6,宁海城南站,#00E400,21,优,优,优,330200,#00E400,121.4201,#00E400,7,优,0.4,优,#00E400,#00E400,330226002,优,#00E400,宁波市,#00E400,优,15,8,#00E400,41,2026-07-02 16:00:00
43,优,330329,65,27.557,优,--,17,5,68,优,#00E400,#00E400,5,罗阳,#00E400,21,优,优,优,330300,#00E400,119.7084,#00E400,6,优,0.3,优,#00E400,#00E400,330329001,优,#00E400,温州市,#00E400,优,10,9,#00E400,41,2026-07-02 16:00:00
44,优,330523,65,30.6422,优,--,12,4,58,优,#00E400,#00E400,7,安吉实验小学,#00E400,21,优,优,优,330500,#00E400,119.6768,#00E400,4,优,0.3,优,#00E400,#00E400,330523001,优,#00E400,湖州市,#00E400,优,4,7,#00E400,41,2026-07-02 16:00:00
45,优,330521,65,30.5231,优,--,11,3,60,优,#00E400,#00E400,8,地信科创园,#00E400,21,优,优,优,330500,#00E400,119.9781,#00E400,5,优,0.4,优,#00E400,#00E400,330521001,优,#00E400,湖州市,#00E400,优,7,4,#00E400,41,2026-07-02 16:00:00
46,优,330683,66,29.5663,优,--,14,12,54,优,#00E400,#00E400,3,丽湖小区,#00E400,21,优,优,优,330600,#00E400,120.8173,#00E400,4,优,0.5,优,#00E400,#00E400,330683002,优,#00E400,绍兴市,#00E400,优,10,6,#00E400,41,2026-07-02 16:00:00
47,优,330881,66,28.7465,优,--,12,6,52,优,#00E400,#00E400,3,江山环保大楼,#00E400,21,优,优,优,330800,#00E400,118.6301,#00E400,6,优,0.5,优,#00E400,#00E400,330881001,优,#00E400,衢州市,#00E400,优,11,6,#00E400,41,2026-07-02 16:00:00
48,优,331023,65,29.1342,优,--,14,6,60,优,#00E400,#00E400,7,天台实验中学,#00E400,21,优,优,优,331000,#00E400,121.0349,#00E400,5,优,0.5,优,#00E400,#00E400,331023002,优,#00E400,台州市,#00E400,优,13,7,#00E400,41,2026-07-02 16:00:00
49,优,331124,69,28.4505,优,--,20,9,68,优,#00E400,#00E400,4,松阳监测楼,#00E400,22,优,优,优,331100,#00E400,119.4799,#00E400,5,优,0.3,优,#00E400,#00E400,331124001,优,#00E400,丽水市,#00E400,优,8,10,#00E400,50,2026-07-02 16:00:00
50,优,330122,71,29.7955,优,--,13,13,53,优,#00E400,#00E400,6,桐庐江南,#00E400,23,优,优,优,330100,#00E400,119.6874,#00E400,6,优,0.4,优,#00E400,#00E400,330122001,优,#00E400,杭州市,#00E400,优,9,6,#00E400,51,2026-07-02 16:00:00
51,优,330282,72,30.1786,优,--,21,1,69,优,#00E400,#00E400,5,慈溪实验小学,#00E400,23,优,优,优,330200,#00E400,121.2525,#00E400,6,优,0.5,优,#00E400,#00E400,330282002,优,#00E400,宁波市,#00E400,优,10,13,#00E400,51,2026-07-02 16:00:00
52,优,330783,71,29.30093,优,--,17,21,45,优,#00E400,#00E400,6,广厦学院,#00E400,23,优,优,优,330700,#00E400,120.24157,#00E400,8,优,0.8,优,#00E400,#00E400,330783001,优,#00E400,金华市,#00E400,优,19,8,#00E400,51,2026-07-02 16:00:00
53,优,330783,72,29.27739,优,--,17,22,47,优,#00E400,#00E400,7,东阳环保大楼,#00E400,23,优,优,优,330700,#00E400,120.23692,#00E400,9,优,0.5,优,#00E400,#00E400,330783002,优,#00E400,金华市,#00E400,优,13,11,#00E400,51,2026-07-02 16:00:00
54,优,330881,73,28.7282,优,--,14,6,58,优,#00E400,#00E400,6,人民医院,#00E400,23,优,优,优,330800,#00E400,118.6227,#00E400,5,优,0.4,优,#00E400,#00E400,330881002,优,#00E400,衢州市,#00E400,优,9,8,#00E400,51,2026-07-02 16:00:00
55,优,331022,72,29.11779,优,--,22,7,73,优,#00E400,#00E400,5,三门环监楼,#00E400,23,优,优,优,331000,#00E400,121.382189,#00E400,5,优,0.5,优,#00E400,#00E400,331022001,优,#00E400,台州市,#00E400,优,9,10,#00E400,51,2026-07-02 16:00:00
56,优,330521,73,30.548493,优,--,10,6,59,优,#00E400,#00E400,7,春晖小学,#00E400,23,优,优,优,330500,#00E400,119.9505,#00E400,4,优,0.5,优,#00E400,#00E400,330521003,优,#00E400,湖州市,#00E400,优,8,4,#00E400,51,2026-07-02 16:00:00
57,优,330681,75,29.7257,优,--,11,10,60,优,#00E400,#00E400,7,城新小学,#00E400,24,优,优,优,330600,#00E400,120.272,#00E400,7,优,0.3,优,#00E400,#00E400,330681505,优,#00E400,绍兴市,#00E400,优,10,7,#00E400,58,2026-07-02 16:00:00
58,优,331124,74,28.4516,优,--,10,9,72,优,#00E400,#00E400,6,和平水厂,#00E400,24,优,优,优,331100,#00E400,119.4699,#00E400,6,优,0.4,优,#00E400,#00E400,331124002,优,#00E400,丽水市,#00E400,优,10,10,#00E400,58,2026-07-02 16:00:00
59,优,330522,78,31.0143,优,--,14,11,64,优,#00E400,#00E400,4,职教中心,#00E400,25,优,优,优,330500,#00E400,119.8935,#00E400,4,优,0.4,优,#00E400,#00E400,330522001,优,#00E400,湖州市,#00E400,优,4,9,#00E400,60,2026-07-02 16:00:00
60,优,330825,77,29.0392,优,--,10,14,63,优,#00E400,#00E400,6,建设大楼,#00E400,25,优,优,优,330800,#00E400,119.1675,#00E400,7,优,0.6,优,#00E400,#00E400,330825001,优,#00E400,衢州市,#00E400,优,11,6,#00E400,60,2026-07-02 16:00:00
61,优,330782,77,29.3686,优,--,18,26,47,优,#00E400,#00E400,6,第五中学,#00E400,25,优,优,优,330700,#00E400,120.1345,#00E400,17,优,0.8,优,#00E400,#00E400,330782003,优,#00E400,金华市,#00E400,优,23,13,#00E400,60,2026-07-02 16:00:00
62,优,330727,83,29.051486,优,--,12,11,65,优,#00E400,#00E400,7,国税大楼,#00E400,26,优,优,优,330700,#00E400,120.438346,#00E400,16,优,0.4,优,#00E400,#00E400,330727002,优,#00E400,金华市,#00E400,优,20,5,#00E400,63,2026-07-02 16:00:00
63,优,330782,62,29.305096,优,--,15,25,39,优,#00E400,#00E400,6,江东,#00E400,26,优,优,优,330700,#00E400,120.090442,#00E400,12,优,0.7,优,#00E400,#00E400,330782002,优,#00E400,金华市,#00E400,优,26,9,#00E400,63,2026-07-02 16:00:00
64,优,330922,83,30.7269,优,--,12,21,71,优,#00E400,#00E400,7,嵊泗菜园,#00E400,26,优,优,优,330900,#00E400,122.4464,#00E400,7,优,0.4,优,#00E400,#00E400,330922001,优,#00E400,舟山市,#00E400,优,9,8,#00E400,63,2026-07-02 16:00:00
65,优,330921,39,30.2517,优,--,17,52,61,优,#00E400,#00E400,10,岱山高亭,#00E400,26,优,优,优,330900,#00E400,122.1958,#00E400,9,优,0.7,优,#00E400,#00E400,330921002,优,#00E400,舟山市,#00E400,优,14,12,#00E400,63,2026-07-02 16:00:00
66,优,331082,83,28.873,优,--,19,14,73,优,#00E400,#00E400,5,临海环保大楼,#00E400,26,优,优,优,331000,#00E400,121.1769,#00E400,10,优,0.6,优,#00E400,#00E400,331082001,优,#00E400,台州市,#00E400,优,21,7,#00E400,63,2026-07-02 16:00:00
67,优,331121,83,28.1341,优,--,25,19,82,优,#00E400,#00E400,6,塔山小学,#00E400,26,优,优,优,331100,#00E400,120.2936,#00E400,14,优,0.4,优,#00E400,#00E400,331121001,优,#00E400,丽水市,#00E400,优,23,12,#00E400,63,2026-07-02 16:00:00
68,优,330723,82,28.9178,优,--,20,9,65,优,#00E400,#00E400,7,武义北岭幼儿园,#00E400,26,优,优,优,330700,#00E400,119.8022,#00E400,5,优,0.6,优,#00E400,#00E400,330723003,优,#00E400,金华市,#00E400,优,10,13,#00E400,63,2026-07-02 16:00:00
69,优,330110,82,30.2635,优,--,12,6,62,优,#00E400,#00E400,5,海辰小学,#00E400,26,优,优,优,330100,#00E400,119.9842,#00E400,7,优,0.4,优,#00E400,#00E400,2013301100001,优,#00E400,杭州市,#00E400,优,11,7,#00E400,63,2026-07-02 16:00:00
70,优,330212,68,29.7736,优,--,21,4,65,优,#00E400,#00E400,4,钱湖水厂,#00E400,26,优,优,优,330200,#00E400,121.6330,#00E400,18,优,0.6,优,#00E400,#00E400,2013302120001,优,#00E400,宁波市,#00E400,优,21,9,#00E400,63,2026-07-02 16:00:00
71,优,330122,86,29.8058,优,--,17,11,65,优,#00E400,#00E400,4,桐庐江北,#00E400,27,优,优,优,330100,#00E400,119.669,#00E400,5,优,0.4,优,#00E400,#00E400,330122002,优,#00E400,杭州市,#00E400,优,9,7,#00E400,72,2026-07-02 16:00:00
72,优,331081,84,28.39136,优,--,28,5,84,优,#00E400,#00E400,3,之江高级中学,#00E400,27,优,优,优,331000,#00E400,121.37696,#00E400,11,优,0.3,优,#00E400,#00E400,331081002,优,#00E400,台州市,#00E400,优,18,21,#00E400,72,2026-07-02 16:00:00
73,优,330483,88,30.625,优,--,27,24,74,优,#00E400,#00E400,6,振东新六中站,#00E400,28,优,优,优,330400,#00E400,120.5613,#00E400,10,优,0.6,优,#00E400,#00E400,330483002,优,#00E400,嘉兴市,#00E400,优,17,14,#00E400,74,2026-07-02 16:00:00
74,优,330483,87,30.6355,优,--,16,13,65,优,#00E400,#00E400,9,文化中心,#00E400,28,优,优,优,330400,#00E400,120.5795,#00E400,8,优,0.7,优,#00E400,#00E400,330483003,优,#00E400,嘉兴市,#00E400,优,14,11,#00E400,74,2026-07-02 16:00:00
75,优,330327,90,27.503889,优,--,31,6,94,优,#00E400,#00E400,7,灵溪,#00E400,29,优,优,优,330300,#00E400,120.395278,#00E400,16,优,0.3,优,#00E400,#00E400,330327001,优,#00E400,温州市,#00E400,优,22,18,#00E400,76,2026-07-02 16:00:00
76,优,330421,92,30.8307,优,--,19,13,74,优,#00E400,#00E400,7,气象观测台,#00E400,29,优,优,优,330400,#00E400,120.9356,#00E400,8,优,0.6,优,#00E400,#00E400,330421002,优,#00E400,嘉兴市,#00E400,优,11,13,#00E400,76,2026-07-02 16:00:00
77,优,330782,78,29.2637,优,--,12,17,45,优,#00E400,#00E400,6,儿童公园,#00E400,29,优,优,优,330700,#00E400,120.0321,#00E400,20,优,0.6,优,#00E400,#00E400,330782004,优,#00E400,金华市,#00E400,优,26,10,#00E400,76,2026-07-02 16:00:00
78,优,330483,91,30.7369,优,--,17,8,81,优,#00E400,#00E400,4,植材小学,#00E400,29,优,优,优,330400,#00E400,120.4902,#00E400,5,优,0.6,优,#00E400,#00E400,330483509,优,#00E400,嘉兴市,#00E400,优,10,12,#00E400,76,2026-07-02 16:00:00
79,优,330381,96,27.791645,优,--,25,7,99,优,#00E400,#00E400,6,花园桥,#00E400,30,优,优,优,330300,#00E400,120.62372,#00E400,15,优,0.3,优,#00E400,#00E400,330381001,优,#00E400,温州市,#00E400,优,28,13,#00E400,80,2026-07-02 16:00:00
80,优,330381,96,27.782284,优,--,21,5,99,优,#00E400,#00E400,8,安阳新区,#00E400,30,优,优,优,330300,#00E400,120.650915,#00E400,13,优,0.3,优,#00E400,#00E400,330381002,优,#00E400,温州市,#00E400,优,19,12,#00E400,80,2026-07-02 16:00:00
81,优,330483,95,30.6488,优,--,15,18,75,优,#00E400,#00E400,6,茅盾小学,#00E400,30,优,优,优,330400,#00E400,120.5498,#00E400,9,优,0.4,优,#00E400,#00E400,330483001,优,#00E400,嘉兴市,#00E400,优,14,10,#00E400,80,2026-07-02 16:00:00
82,优,330723,94,28.896108,优,--,26,10,78,优,#00E400,#00E400,6,武义县政府,#00E400,30,优,优,优,330700,#00E400,119.811352,#00E400,8,优,0.5,优,#00E400,#00E400,330723001,优,#00E400,金华市,#00E400,优,12,16,#00E400,80,2026-07-02 16:00:00
83,优,331083,90,28.12715,优,--,24,5,80,优,#00E400,#00E400,9,玉环环监站,#00E400,30,优,优,优,331000,#00E400,121.2339,#00E400,13,优,0.7,优,#00E400,#00E400,331021001,优,#00E400,台州市,#00E400,优,30,14,#00E400,80,2026-07-02 16:00:00
84,优,331083,95,28.2221,优,--,32,10,60,优,#00E400,#00E400,7,楚门中心小学,#00E400,30,优,优,优,331000,#00E400,121.2846,#00E400,18,优,0.5,优,#00E400,#00E400,331021002,优,#00E400,台州市,#00E400,优,27,18,#00E400,80,2026-07-02 16:00:00
85,良,330327,99,27.522222,优,--,37,7,104,优,#00E400,#00E400,8,苍南中学,#FFFF00,31,优,优,优,330300,#00E400,120.416111,#00E400,16,优,0.7,优,#00E400,#00E400,330327004,优,#00E400,温州市,#00E400,优,31,18,#00E400,86,2026-07-02 16:00:00
86,优,330421,99,30.836,优,--,22,12,80,优,#00E400,#00E400,5,嘉善监测大楼,#00E400,31,优,优,优,330400,#00E400,120.9226,#00E400,7,优,0.5,优,#00E400,#00E400,330421001,优,#00E400,嘉兴市,#00E400,优,10,18,#00E400,86,2026-07-02 16:00:00
87,优,331082,83,28.84326,优,--,21,15,70,优,#00E400,#00E400,5,巾山实验小学,#00E400,31,优,优,优,331000,#00E400,121.136,#00E400,18,优,0.8,优,#00E400,#00E400,331082002,优,#00E400,台州市,#00E400,优,31,10,#00E400,86,2026-07-02 16:00:00
88,优,331122,98,28.6628,优,--,17,16,86,优,#00E400,#00E400,7,信访大楼,#00E400,31,优,优,优,331100,#00E400,120.0856,#00E400,7,优,0.5,优,#00E400,#00E400,331122002,优,#00E400,丽水市,#00E400,优,17,6,#00E400,86,2026-07-02 16:00:00
89,优,330481,100,30.5137,优,--,18,5,70,优,#00E400,#00E400,9,硖石街道,#00E400,32,优,优,优,330400,#00E400,120.7082,#00E400,22,优,0.5,优,#00E400,#00E400,330481002,优,#00E400,嘉兴市,#00E400,优,26,12,#00E400,90,2026-07-02 16:00:00
90,优,330727,83,29.039869,优,--,19,5,64,优,#00E400,#00E400,8,南园初中,#00E400,32,优,优,优,330700,#00E400,120.440622,#00E400,21,优,0.5,优,#00E400,#00E400,330727003,优,#00E400,金华市,#00E400,优,32,6,#00E400,90,2026-07-02 16:00:00
91,优,330784,101,28.8854,优,--,21,10,85,优,#00E400,#00E400,6,永康一中,#00E400,32,优,优,优,330700,#00E400,120.0439,#00E400,13,优,0.6,优,#00E400,#00E400,330784001,优,#00E400,金华市,#00E400,优,23,11,#00E400,90,2026-07-02 16:00:00
92,优,330921,36,30.2669,优,--,19,64,56,优,#00E400,#00E400,7,岱山环保大楼,#00E400,32,优,优,优,330900,#00E400,122.2199,#00E400,8,优,0.6,优,#00E400,#00E400,330921001,优,#00E400,舟山市,#00E400,优,11,10,#00E400,90,2026-07-02 16:00:00
93,优,330481,101,30.5524,优,--,20,15,84,优,#00E400,#00E400,6,胜利社区,#00E400,32,优,优,优,330400,#00E400,120.6713,#00E400,8,优,0.4,优,#00E400,#00E400,330481003,优,#00E400,嘉兴市,#00E400,优,14,12,#00E400,90,2026-07-02 16:00:00
94,优,330326,103,27.6593,优,--,35,6,95,优,#00E400,#00E400,5,平阳监测站,#00E400,33,优,优,优,330300,#00E400,120.5705,#00E400,5,优,0.5,优,#00E400,#00E400,330326001,优,#00E400,温州市,#00E400,优,29,13,#00E400,95,2026-07-02 16:00:00
95,优,331121,61,28.1094,优,--,23,24,76,优,#00E400,#00E400,7,青田中学,#00E400,33,优,优,优,331100,#00E400,120.3161,#00E400,18,优,0.5,优,#00E400,#00E400,331121002,优,#00E400,丽水市,#00E400,优,33,12,#00E400,95,2026-07-02 16:00:00
96,优,331122,103,28.6574,优,--,20,20,90,优,#00E400,#00E400,7,缙云中学,#00E400,33,优,优,优,331100,#00E400,120.0696,#00E400,10,优,0.5,优,#00E400,#00E400,331122001,优,#00E400,丽水市,#00E400,优,24,8,#00E400,95,2026-07-02 16:00:00
97,良,330383,105,27.5617,优,--,29,11,105,优,#00E400,#00E400,8,龙港实验中学,#FFFF00,33,优,优,优,330300,#00E400,120.5355,#00E400,14,优,0.6,优,#00E400,#00E400,330303101,优,#00E400,温州市,#00E400,优,29,16,#00E400,95,2026-07-02 16:00:00
98,优,330482,108,30.6937,优,--,19,12,85,优,#00E400,#00E400,8,平湖幼儿园,#00E400,34,优,优,优,330400,#00E400,121.0259,#00E400,19,优,0.4,优,#00E400,#00E400,330482001,优,#00E400,嘉兴市,#00E400,优,26,14,#00E400,99,2026-07-02 16:00:00
99,优,330326,109,27.6653,优,--,32,6,98,优,#00E400,#00E400,7,平阳县政府,#00E400,35,优,优,优,330300,#00E400,120.5611,#00E400,15,优,0.4,优,#00E400,#00E400,330326002,优,#00E400,温州市,#00E400,优,25,18,#00E400,100,2026-07-02 16:00:00
100,优,330383,94,27.5812,优,--,37,11,86,优,#00E400,#00E400,7,龙港,#00E400,36,优,优,优,330300,#00E400,120.5489,#00E400,22,优,0.3,优,#00E400,#00E400,330327002,优,#00E400,温州市,#00E400,优,36,17,#00E400,101,2026-07-02 16:00:00
101,良,330382,121,28.1209,优,--,28,8,119,优,#00E400,#00E400,5,乐成,#FFFF00,38,优,优,优,330300,#00E400,120.9659,#00E400,21,优,0.5,优,#00E400,#00E400,330382001,优,#00E400,温州市,#00E400,优,31,16,#00E400,102,2026-07-02 16:00:00
102,优,330382,122,28.0297,优,--,29,8,98,优,#00E400,#00E400,5,柳市,#00E400,39,优,优,优,330300,#00E400,120.891,#00E400,17,优,0.5,优,#00E400,#00E400,330382002,优,#00E400,温州市,#00E400,优,36,15,#00E400,103,2026-07-02 16:00:00
103,优,330328,126,27.7838,优,--,30,7,78,优,#00E400,#00E400,6,大峃,#00E400,40,优,优,优,330300,#00E400,120.085,#00E400,21,优,0.5,优,#00E400,#00E400,330328001,优,#00E400,温州市,#00E400,优,38,13,#00E400,104,2026-07-02 16:00:00
104,优,330324,115,28.044335,优,--,29,16,94,优,#00E400,#00E400,8,瓯北,#00E400,43,优,优,优,330300,#00E400,120.654963,#00E400,22,优,0.5,优,#00E400,#00E400,330324002,优,#00E400,温州市,#00E400,优,43,14,#00E400,105,2026-07-02 16:00:00
105,优,330424,119,30.5299,优,--,18,13,88,优,#00E400,#00E400,5,海盐商贸学校,#00E400,45,优,优,优,330400,#00E400,120.9293,#00E400,31,优,0.6,优,#00E400,#00E400,330424002,优,#00E400,嘉兴市,#00E400,优,38,16,#00E400,106,2026-07-02 16:00:00
106,优,330324,96,28.158269,优,--,25,10,85,优,#00E400,#00E400,7,上塘,#00E400,46,优,优,优,330300,#00E400,120.694244,#00E400,19,优,0.6,优,#00E400,#00E400,330324001,优,#00E400,温州市,#00E400,优,46,11,#00E400,107,2026-07-02 16:00:00
107,优,330225,58,29.2003,优,--,22,20,67,优,#00E400,#00E400,9,石浦新港小学,#00E400,48,优,优,优,330200,#00E400,121.934,#00E400,33,优,0.4,优,#00E400,#00E400,330225002,优,#00E400,宁波市,#00E400,优,47,11,#00E400,108,2026-07-02 16:00:00
108,优,330328,130,27.804722,优,PM₁₀,21,5,82,优,#FFFF00,#00E400,9,文成中学,#00E400,51,优,良,优,330300,#00E400,120.077222,#00E400,21,良,0.4,优,#00E400,#00E400,330328002,优,#FFFF00,温州市,#00E400,优,51,11,#00E400,109,2026-07-02 16:00:00
109,优,330782,65,29.335473,优,PM₂.₅,14,20,36,优,#00E400,#FFFF00,3,北苑,#00E400,64,优,良,优,330700,#00E400,120.078609,#00E400,42,优,0.7,良,#00E400,--,330782001,--,#FFFF00,金华市,#00E400,优,42,--,#00E400,110,2026-07-02 16:00:00
110,优,330127,44,29.605,优,--,6,8,48,优,#00E400,#00E400,--,老年活动中心,#00E400,--,优,--,优,330100,--,119.0372,#00E400,4,优,0.4,优,#00E400,#00E400,330127T_4,优,--,杭州市,#00E400,--,8,3,#00E400,111,2026-07-02 16:00:00
111,优,330482,96,30.7292,优,--,18,--,73,优,--,--,7,陆家桥村,#00E400,--,--,--,优,330400,#00E400,120.9953,--,--,--,0.6,--,#00E400,#00E400,330482002,优,--,嘉兴市,#00E400,优,--,16,#00E400,111,2026-07-02 16:00:00
112,优,330481,102,30.5261,优,--,16,13,78,优,#00E400,--,6,海宁监测大楼,#00E400,--,优,--,优,330400,#00E400,120.6739,#00E400,--,优,0.3,--,#00E400,#00E400,330481001,优,--,嘉兴市,#00E400,优,18,12,#00E400,111,2026-07-02 16:00:00
113,优,330424,125,30.5042,优,--,20,15,98,优,#00E400,--,5,高级中学,#00E400,--,优,--,优,330400,#00E400,120.9413,#00E400,--,优,0.6,--,#00E400,--,330424001,--,--,嘉兴市,#00E400,优,43,--,#00E400,111,2026-07-02 16:00:00
114,优,330522,78,31.0263,优,--,13,12,61,优,--,--,7,龙山新区,#00E400,--,优,--,优,330500,#00E400,119.9046,#00E400,--,--,0.4,--,#00E400,#00E400,330522002,优,--,湖州市,#00E400,优,--,9,#00E400,111,2026-07-02 16:00:00
115,优,330681,56,29.726389,优,--,11,6,44,优,--,--,5,青少年宫,#00E400,--,优,--,优,330600,#00E400,120.199722,#00E400,--,--,0.5,--,#00E400,#00E400,330681002,优,--,绍兴市,#00E400,优,--,10,#00E400,111,2026-07-02 16:00:00
116,优,330822,55,28.901,优,--,6,16,43,优,#00E400,--,5,常山环保大楼,#00E400,--,优,--,优,330800,#00E400,118.5196,#00E400,--,优,0.6,--,#00E400,--,330822001,--,--,衢州市,#00E400,优,3,--,#00E400,111,2026-07-02 16:00:00
117,优,331081,78,28.37558,--,--,32,8,73,优,#00E400,#00E400,6,温岭环监站,#00E400,--,优,--,优,331000,#00E400,121.36579,#00E400,8,优,--,优,--,#00E400,331081001,优,--,台州市,#00E400,优,20,25,#00E400,111,2026-07-02 16:00:00
