timepoint,stationcode,longitude,latitude,area,positionname,primarypollutant,aqi,pm10,pm10_24h,pm2_5,pm2_5_24h,o3,o3_24h,o3_8h,o3_8h_24h,no2,no2_24h,so2,so2_24h,co,co_24h
2026-03-22T1000,1730A,113.0887,36.2126,长治市,审计局,颗粒物(PM10),80,92,77,26,38,67,67,65,59,23,17,16,12,0.8,0.7
2026-03-22T1000,1731A,113.0845,36.1856,长治市,长治八中,颗粒物(PM10),99,118,88,35,40,66,66,63,57,18,13,17,12,0.9,0.7
2026-03-22T1000,2845A,113.1561,36.1912,长治市,德盛苑,颗粒物(PM10),84,97,72,46,39,72,72,74,67,18,13,22,11,0.9,0.7
2026-03-22T1000,3568A,113.0603,36.0464,长治市,向阳小学,NA,NA,NA,109,NA,40,NA,NA,NA,NA,NA,25,NA,15,NA,0.5
2026-03-22T1000,3569A,112.8788,36.315,长治市,屯留一中,NA,NA,NA,79,NA,36,NA,NA,124,44,NA,24,NA,8,NA,0.7
2026-03-22T1000,4189A,113.113092,36.199482,长治市,英华南巷50号,颗粒物(PM10),98,116,81,34,39,76,76,72,66,22,20,14,11,0.8,0.8
2026-03-22T1000,4190A,113.23666,36.33435,长治市,学府街1号,颗粒物(PM10),80,91,76,30,34,62,62,57,49,27,18,13,6,0.6,0.7
2026-03-22T1000,1854A,111.696,28.9725,常德市,市二中,,20,NA,52,14,34,47,47,30,30,9,16,6,8,1.0,1
2026-03-22T1000,3138A,111.7152,29.0288,常德市,武陵区永安,,28,28,48,18,44,45,45,35,35,12,18,4,5,0.8,0.9
2026-03-22T1000,3139A,111.6891,28.9881,常德市,鼎城区玉霞,,22,22,49,14,38,47,47,22,22,14,23,8,10,0.8,0.9
2026-03-22T1000,3140A,111.6651,29.0526,常德市,武陵区长庚,,34,34,49,21,47,35,35,28,28,12,16,7,7,1.0,1
2026-03-22T1000,1196A,119.9524,31.7586,常州市,市监测站,细颗粒物(PM2.5),82,86,67,51,35,68,68,55,54,30,29,11,9,0.7,0.6
2026-03-22T1000,1200A,119.9351,31.703,常州市,武进监测站,颗粒物(PM10),69,76,58,40,32,71,71,59,58,19,20,6,5,0.4,0.3
2026-03-22T1000,3002A,119.9701,31.813,常州市,行政中心,细颗粒物(PM2.5),92,81,73,56,43,67,67,39,39,23,32,6,6,0.4,0.4
2026-03-22T1000,3003A,120.0434,31.7726,常州市,经开区,细颗粒物(PM2.5),86,86,77,53,40,66,66,28,28,29,35,17,9,1.8,0.8
2026-03-22T1000,3010A,119.8919,31.7892,常州市,钟楼,细颗粒物(PM2.5),68,69,59,44,30,77,77,71,70,26,26,8,7,0.2,0.2
2026-03-22T1000,3429A,119.8595,31.706,常州市,武进经发区,细颗粒物(PM2.5),68,68,55,44,37,68,68,58,56,30,28,23,9,0.7,0.6
2026-03-22T1000,3430A,119.5812,31.7256,常州市,金坛城区,细颗粒物(PM2.5),70,49,55,45,41,77,77,65,63,17,16,12,9,0.9,0.5
2026-03-22T1000,4089A,119.9551,31.863,常州市,崇义南街5-H号,细颗粒物(PM2.5),82,66,68,51,45,68,68,36,36,24,34,7,6,0.6,0.5
2026-03-22T1000,2220A,120.4318,41.588,朝阳市,西梁,颗粒物(PM10),124,182,143,NA,106,90,90,91,86,24,24,15,16,1.1,1.4
2026-03-22T1000,2221A,120.452,41.565,朝阳市,河畔小区,细颗粒物(PM2.5),142,139,110,106,92,94,94,98,93,22,20,13,13,0.9,0.9
2026-03-22T1000,2222A,120.4176,41.5648,朝阳市,八里堡,细颗粒物(PM2.5),166,145,112,126,103,86,86,86,83,25,25,11,15,1.1,1.2
2026-03-22T1000,3026A,116.6179,23.6608,潮州市,市政府,细颗粒物(PM2.5),54,52,44,37,28,65,65,70,67,14,14,3,4,0.5,0.5
2026-03-22T1000,4036A,116.646,23.676,潮州市,金山,细颗粒物(PM2.5),60,44,41,40,29,70,70,76,71,15,16,4,5,0.5,0.4
2026-03-22T1000,2473A,113.0116,25.8228,郴州市,市职中,细颗粒物(PM2.5),68,51,43,44,35,7,7,6,6,25,20,8,5,1.1,1
2026-03-22T1000,2475A,113.0381,25.8074,郴州市,市审计局,细颗粒物(PM2.5),66,53,46,43,39,1,1,1,1,19,18,10,10,/,/
2026-03-22T1000,2476A,113.0348,25.7757,郴州市,市环保局,细颗粒物(PM2.5),72,66,53,46,42,6,6,6,6,27,23,14,10,0.7,0.6
2026-03-22T1000,4252A,113.0138,25.8011,郴州市,好美居路49号,细颗粒物(PM2.5),54,46,41,37,36,8,8,8,8,23,22,9,10,/,/
2026-03-22T1000,1431A,103.9727,30.7242,成都市,金泉两河,细颗粒物(PM2.5),90,69,63,55,47,36,36,25,25,23,23,2,1,0.4,0.4
2026-03-22T1000,2568A,102.2503,31.8896,阿坝藏族羌族自治州,马师校,,31,31,28,13,10,66,66,49,49,6,9,5,5,0.3,0.3
2026-03-22T1000,3994A,102.2174,31.9016,阿坝藏族羌族自治州,马尔康中学西区,,22,21,17,14,9,68,68,57,57,7,9,3,3,0.4,0.3
2026-03-22T1000,2695A,80.2899,41.1684,阿克苏地区,电视台,颗粒物(PM10),93,110,181,54,79,35,35,20,20,27,31,2,3,1.1,1.1
2026-03-22T1000,2696A,80.2592,41.1541,阿克苏地区,艺术中心,颗粒物(PM10),98,116,181,46,68,40,40,34,34,24,31,3,4,1.0,0.5
2026-03-22T1000,2205A,105.699,38.8409,阿拉善盟,蒙二幼,颗粒物(PM10),74,83,142,22,37,92,92,80,78,6,5,7,7,0.5,0.5
2026-03-22T1000,2206A,105.7198,38.8508,阿拉善盟,环保局新楼,颗粒物(PM10),68,75,130,18,32,88,88,85,84,6,4,7,7,0.4,0.3
2026-03-22T1000,2708A,88.1266,47.8515,阿勒泰地区,市站,,27,8,16,3,3,84,84,82,82,9,11,6,6,0.2,0.2
2026-03-22T1000,4166A,88.1198,47.7931,阿勒泰地区,阿勒泰路33号,,27,7,15,3,2,84,84,83,83,6,8,5,5,0.2,0.2
2026-03-22T1000,2630A,80.1171,32.4999,阿里地区,阿里监测站,,34,11,8,3,3,106,106,120,118,9,4,11,11,0.3,0.3
2026-03-22T1000,3192A,80.0906,32.5029,阿里地区,阿里藏医院,,36,11,5,3,3,115,115,127,126,5,2,6,6,0.2,0.2
2026-03-22T1000,2644A,109.0088,32.6974,安康市,汉滨区检察院,颗粒物(PM10),63,67,77,39,33,24,24,11,11,19,29,7,5,0.6,0.6
2026-03-22T1000,4054A,109.0324,32.6913,安康市,市邮政管理局,颗粒物(PM10),71,79,86,36,34,30,30,15,15,15,28,12,9,0.7,0.7
2026-03-22T1000,2291A,117.0806,30.5181,安庆市,环科院,细颗粒物(PM2.5),52,45,54,36,50,57,57,12,12,20,56,8,7,0.9,0.9
2026-03-22T1000,2292A,117.0331,30.5118,安庆市,马山宾馆,细颗粒物(PM2.5),60,48,49,40,55,44,44,13,12,24,47,5,5,0.9,0.9
2026-03-22T1000,2294A,116.9897,30.6146,安庆市,安庆大学,细颗粒物(PM2.5),68,62,53,44,45,33,33,25,22,45,33,4,4,0.8,0.7
2026-03-22T1000,3173A,117.0598,30.5351,安庆市,市人大,,49,46,52,34,45,57,57,13,13,23,46,7,6,0.8,0.8
2026-03-22T1000,3123A,105.9408,26.2431,安顺市,凤凰山,,25,20,30,17,23,41,41,31,31,15,11,27,14,0.7,0.7
2026-03-22T1000,3124A,105.9443,26.2567,安顺市,金钟山,,19,15,24,13,22,39,39,31,31,11,8,21,10,0.7,0.7
2026-03-22T1000,3125A,105.8983,26.248,安顺市,娄家坡,,29,NA,27,20,22,40,40,32,32,12,9,18,12,0.8,0.8
2026-03-22T1000,1819A,114.3552,36.1017,安阳市,红庙街,细颗粒物(PM2.5),120,101,94,81,61,88,88,65,65,19,15,12,4,1.1,0.5
2026-03-22T1000,1820A,114.361,36.0681,安阳市,银杏小区,细颗粒物(PM2.5),120,96,98,82,65,94,94,70,70,18,14,12,4,0.9,0.3
2026-03-22T1000,3141A,114.3921,36.0879,安阳市,信访局,细颗粒物(PM2.5),113,107,102,74,64,94,94,74,74,18,14,10,3,0.7,0.3
2026-03-22T1000,3669A,114.4706,36.0634,安阳市,左辅环卫站,细颗粒物(PM2.5),126,146,121,88,64,87,87,62,62,15,13,8,4,0.9,0.5
2026-03-22T1000,4117A,114.2918,36.0769,安阳市,钢三路198号,细颗粒物(PM2.5),123,146,119,85,63,68,68,64,60,32,18,23,6,2.0,0.7
2026-03-22T1000,1748A,123.0441,41.1201,鞍山市,深沟寺,细颗粒物(PM2.5),117,109,103,78,66,89,89,105,99,17,15,11,10,0.9,0.8
2026-03-22T1000,1749A,123.011,41.0931,鞍山市,太阳城,细颗粒物(PM2.5),123,113,103,85,72,96,96,113,107,18,15,10,9,0.9,0.8
2026-03-22T1000,1750A,123.0483,41.1445,鞍山市,太平,细颗粒物(PM2.5),114,114,107,75,66,86,86,104,96,20,15,11,10,0.9,0.8
2026-03-22T1000,1751A,122.964,41.0968,鞍山市,铁西三道街,细颗粒物(PM2.5),120,120,120,81,74,88,88,104,95,30,24,11,13,1.4,0.9
2026-03-22T1000,1753A,123.0219,41.0822,鞍山市,明达新区,细颗粒物(PM2.5),121,107,103,83,73,96,96,112,106,16,14,10,11,0.7,0.7
2026-03-22T1000,4201A,122.944647,41.082639,鞍山市,兴盛南路290号,细颗粒物(PM2.5),126,124,121,88,75,83,83,101,94,27,21,14,12,1.6,1.2
2026-03-22T1000,2195A,107.4206,40.7609,巴彦淖尔市,附二中,颗粒物(PM10),86,100,170,23,42,60,60,70,66,15,10,14,9,0.4,0.3
2026-03-22T1000,2196A,107.37,40.7372,巴彦淖尔市,市环保大楼,颗粒物(PM10),74,83,174,15,45,70,70,70,62,14,13,9,6,0.4,0.4
2026-03-22T1000,1956A,86.1476,41.7529,巴音郭楞蒙古自治州,孔雀公园,颗粒物(PM10),107,136,155,38,47,49,49,62,59,15,15,10,10,0.3,0.3
2026-03-22T1000,1957A,86.1971,41.7166,巴音郭楞蒙古自治州,棉纺厂,颗粒物(PM10),132,202,188,45,46,67,67,84,78,10,6,/,/,/,/
2026-03-22T1000,1958A,86.236,41.7172,巴音郭楞蒙古自治州,经济开发区,颗粒物(PM10),113,152,151,39,44,66,66,77,74,8,6,6,6,0.3,0.3
2026-03-22T1000,3181A,106.776805,31.852614,巴中市,市五中,,35,35,29,23,17,7,7,12,9,21,18,8,8,1.1,0.8
2026-03-22T1000,3183A,106.7419,31.8654,巴中市,圣泉水务公司,,25,23,23,17,14,10,10,22,18,21,16,9,9,0.8,0.7
2026-03-22T1000,3616A,106.7617,31.8343,巴中市,市中心医院,,36,36,30,23,18,4,4,8,5,22,20,10,10,0.9,0.8
2026-03-22T1000,2235A,122.7909,45.608,白城市,洮北区环保局,细颗粒物(PM2.5),117,98,206,78,144,114,114,80,80,19,26,5,8,0.5,0.9
2026-03-22T1000,2236A,122.8741,45.5725,白城市,市环保局,细颗粒物(PM2.5),123,144,197,85,143,97,97,72,72,13,24,8,8,0.5,0.8
2026-03-22T1000,2231A,126.4219,41.9172,白山市,喜丰,颗粒物(PM10),95,112,79,57,49,74,74,92,77,48,20,15,13,1.0,0.9
2026-03-22T1000,2232A,126.4082,41.9416,白山市,环保局,细颗粒物(PM2.5),92,92,62,56,50,86,86,85,71,31,15,15,12,0.9,0.7
2026-03-22T1000,2647A,104.1727,36.5448,白银市,第三小学,颗粒物(PM10),139,221,224,75,70,105,105,80,80,23,15,158,41,0.4,0.2
2026-03-22T1000,2648A,104.1467,36.5482,白银市,动力公司,颗粒物(PM10),131,199,234,73,70,94,94,48,48,21,21,134,21,0.6,0.5
2026-03-22T1000,2512A,106.6102,23.901,百色市,市监测站,细颗粒物(PM2.5),84,60,45,52,31,17,17,13,11,21,17,23,20,0.9,0.8
2026-03-22T1000,2513A,106.6524,23.8842,百色市,市中心血站,细颗粒物(PM2.5),113,94,50,74,40,17,17,16,14,29,17,31,18,1.1,0.9
2026-03-22T1000,4133A,106.6273,23.8798,百色市,龙景西路,细颗粒物(PM2.5),108,87,59,68,41,6,6,8,6,26,19,29,22,1.0,0.9
2026-03-22T1000,2270A,117.396,32.9389,蚌埠市,工人疗养院,细颗粒物(PM2.5),112,107,110,73,71,54,54,74,59,56,32,10,5,0.6,0.5
2026-03-22T1000,2271A,117.3606,32.9428,蚌埠市,百货大楼,细颗粒物(PM2.5),109,97,96,69,65,51,51,81,64,55,32,9,6,0.6,0.6
2026-03-22T1000,2273A,117.4183,32.8909,蚌埠市,蚌埠学院,细颗粒物(PM2.5),107,73,89,67,66,80,80,73,66,24,27,7,5,0.6,0.6
2026-03-22T1000,2274A,117.3534,32.9672,蚌埠市,淮上区政府,细颗粒物(PM2.5),110,88,96,70,73,53,53,74,62,61,33,12,6,0.6,0.5
2026-03-22T1000,2275A,117.3143,32.8977,蚌埠市,高新区,细颗粒物(PM2.5),107,83,90,67,65,78,78,80,72,33,26,13,7,0.7,0.6
2026-03-22T1000,3715A,117.3091,32.9314,蚌埠市,蚌埠田家炳中学,细颗粒物(PM2.5),110,102,104,70,69,77,77,85,76,34,26,13,6,0.5,0.5
2026-03-22T1000,1585A,109.8761,40.6533,包头市,市环境监测站,,29,29,141,10,33,77,77,76,74,14,20,10,10,0.5,0.5
2026-03-22T1000,1587A,109.9992,40.5843,包头市,包头八中,,30,30,131,6,43,73,73,66,66,10,21,12,10,0.5,0.4
2026-03-22T1000,1589A,109.8641,40.6288,包头市,惠龙物流,,32,32,142,14,38,73,73,73,71,13,18,9,10,0.4,0.4
2026-03-22T1000,1590A,110.0376,40.5546,包头市,东河鸿龙湾,,37,37,137,7,40,72,72,59,59,16,34,13,10,0.5,0.5
2026-03-22T1000,3283A,109.9154,40.5684,包头市,滨河大厦,,26,26,135,13,42,75,75,67,67,10,24,10,12,0.4,0.6
2026-03-22T1000,3419A,109.9449,40.6259,包头市,包头市委党校,,36,NA,112,25,35,76,76,68,68,9,21,8,10,0.4,0.5
2026-03-22T1000,3683A,109.8332,40.6577,包头市,昆区政府,,25,25,139,13,40,76,76,73,71,13,24,7,11,0.6,0.6
2026-03-22T1000,1931A,107.0802,34.3129,宝鸡市,竹园沟,颗粒物(PM10),114,156,96,47,37,48,48,54,54,23,19,6,7,0.4,0.4
2026-03-22T1000,1933A,107.1429,34.3549,宝鸡市,监测站,颗粒物(PM10),85,98,100,28,42,26,26,17,17,20,31,8,9,0.3,0.4
2026-03-22T1000,1934A,107.1172,34.3759,宝鸡市,技工学校,颗粒物(PM10),84,97,95,26,39,36,36,23,23,12,25,6,6,0.4,0.5
2026-03-22T1000,1936A,107.2025,34.3518,宝鸡市,文理学院,颗粒物(PM10),83,95,101,26,44,29,29,23,23,17,27,6,7,0.5,0.6
2026-03-22T1000,1937A,107.2396,34.3626,宝鸡市,三迪小学,颗粒物(PM10),81,93,106,30,45,24,24,12,12,26,36,6,7,0.6,0.6
2026-03-22T1000,4155A,107.1721,34.3558,宝鸡市,滨河北路,颗粒物(PM10),75,84,119,30,51,30,30,17,17,17,29,7,8,0.6,0.7
2026-03-22T1000,4308A,107.3898,34.3601,宝鸡市,陈仓区北开路21号,颗粒物(PM10),113,153,128,52,56,36,36,23,23,28,35,54,33,0.8,0.7
2026-03-22T1000,1051A,115.4803,38.8568,保定市,游泳馆,颗粒物(PM10),68,74,123,29,92,69,69,53,53,16,33,12,13,0.5,0.6
2026-03-22T1000,1052A,115.509,38.8895,保定市,华电二区,颗粒物(PM10),61,65,109,21,83,61,61,50,50,14,27,1,3,0.6,0.8
2026-03-22T1000,1053A,115.4588,38.9037,保定市,接待中心,颗粒物(PM10),53,53,116,17,85,72,72,53,53,13,31,4,5,0.2,0.5
2026-03-22T1000,1054A,115.4484,38.8344,保定市,地表水厂,颗粒物(PM10),64,69,130,10,78,69,69,49,49,14,38,6,7,0.3,0.6
2026-03-22T1000,3581A,115.3136,38.9511,保定市,满城区生态环境分局,,46,46,129,11,69,84,84,60,60,7,28,6,10,0.2,0.6
2026-03-22T1000,3582A,115.4709,38.7628,保定市,清苑区第二中学,NA,NA,107,144,28,85,NA,NA,47,46,14,37,7,9,0.4,0.5
2026-03-22T1000,3583A,115.6231,39.0223,保定市,徐水物探局,颗粒物(PM10),94,111,154,40,92,57,57,42,42,19,38,3,4,0.4,0.6
2026-03-22T1000,4004A,115.4199,38.8665,保定市,双鹰农机,颗粒物(PM10),88,103,158,24,92,72,72,54,54,15,35,5,6,0.3,0.6
2026-03-22T1000,4034A,115.515,38.8589,保定市,植保所站,颗粒物(PM10),80,92,137,29,90,64,64,51,51,19,35,2,5,0.2,0.5
2026-03-22T1000,2594A,99.1589,25.1137,保山市,市环境监测站,细颗粒物(PM2.5),60,NA,38,40,28,34,34,52,45,25,12,5,5,0.4,0.3
2026-03-22T1000,2595A,99.1616,25.1381,保山市,市环保局,细颗粒物(PM2.5),66,43,42,43,30,34,34,61,53,22,8,5,5,0.5,0.4
2026-03-22T1000,1867A,109.1435,21.4085,北海市,海滩公园,,26,26,31,10,18,43,43,43,42,9,9,8,8,0.5,0.5
2026-03-22T1000,1868A,109.0983,21.466,北海市,新市环保局,,20,18,28,14,17,44,44,44,43,7,9,8,8,0.5,0.6
2026-03-22T1000,1869A,109.1775,21.5232,北海市,北海工业园,,23,23,37,13,21,41,41,40,39,5,8,7,8,0.4,0.5
2026-03-22T1000,3400A,109.1844,21.4396,北海市,龙潭自来水厂,,20,20,30,12,15,37,37,37,37,6,7,3,5,0.6,0.7
2026-03-22T1000,1001A,116.3611,39.8786,北京市,万寿西宫,细颗粒物(PM2.5),100,96,136,60,87,62,62,21,21,32,48,5,6,0.7,0.9
2026-03-22T1000,1003A,116.4174,39.9289,北京市,东四,细颗粒物(PM2.5),76,85,137,48,88,60,60,26,26,34,47,8,9,0.5,0.8
2026-03-22T1000,1004A,116.4073,39.8858,北京市,天坛,细颗粒物(PM2.5),78,81,128,49,84,55,55,19,19,33,36,5,5,0.8,1
2026-03-22T1000,1005A,116.4622,39.9364,北京市,农展馆,细颗粒物(PM2.5),72,76,140,46,92,58,58,18,18,29,43,7,8,0.6,0.9
2026-03-22T1000,1006A,116.3399,39.9293,北京市,官园,颗粒物(PM10),73,81,129,46,84,50,50,20,20,38,51,4,6,0.5,0.7
2026-03-22T1000,1007A,116.2879,39.9613,北京市,海淀万柳,细颗粒物(PM2.5),98,99,122,59,73,36,36,9,9,41,50,6,6,0.5,0.6
2026-03-22T1000,1008A,116.6635,40.1349,北京市,顺义新城,细颗粒物(PM2.5),160,172,161,122,97,86,86,42,42,17,32,8,9,0.6,0.6
2026-03-22T1000,1009A,116.6275,40.327,北京市,怀柔镇,细颗粒物(PM2.5),153,173,117,117,76,74,74,52,52,27,28,7,8,0.8,0.9
2026-03-22T1000,1010A,116.2295,40.217,北京市,昌平镇,,45,45,106,20,67,64,64,46,46,14,31,4,5,0.4,0.8
2026-03-22T1000,1011A,116.3968,39.982,北京市,奥体中心,细颗粒物(PM2.5),92,97,128,56,81,40,40,8,8,46,55,6,7,0.7,0.9
2026-03-22T1000,3418A,116.8336,40.4095,北京市,密云新城,细颗粒物(PM2.5),144,160,143,108,83,87,87,46,46,13,32,5,5,0.8,0.9
2026-03-22T1000,3671A,116.0879,39.9725,北京市,门头沟三家店,,27,27,120,15,68,72,72,24,24,3,42,5,6,0.3,0.7
2026-03-22T1000,3672A,116.1507,39.8246,北京市,丰台云岗,颗粒物(PM10),61,65,129,34,74,62,62,36,36,21,39,4,5,0.5,0.7
2026-03-22T1000,3674A,115.9578,39.7602,北京市,房山燕山,,26,26,112,11,66,69,69,49,49,5,29,4,6,0.3,0.6
2026-03-22T1000,3675A,116.4669,39.7734,北京市,大兴旧宫,细颗粒物(PM2.5),117,143,144,78,87,44,44,14,14,51,46,7,7,0.7,0.8
2026-03-22T1000,3694A,115.9859,40.4562,北京市,延庆石河营,颗粒物(PM10),60,63,105,33,65,51,51,22,19,24,36,4,4,0.6,0.8
2026-03-22T1000,3695A,116.6151,40.3052,北京市,怀柔新城,细颗粒物(PM2.5),153,164,112,117,76,76,76,57,57,22,21,5,6,0.8,0.8
2026-03-22T1000,3696A,116.2542,39.8764,北京市,丰台小屯,细颗粒物(PM2.5),114,133,135,75,76,47,47,16,16,51,59,6,7,0.6,0.6
2026-03-22T1000,3697A,116.8399,40.3843,北京市,密云镇,细颗粒物(PM2.5),149,159,138,113,88,84,84,32,32,17,42,6,6,0.7,0.8
2026-03-22T1000,4057A,115.9423,40.4431,北京市,延庆百泉,颗粒物(PM10),61,65,103,35,61,41,41,26,22,23,32,3,2,0.6,0.7
2026-03-22T1000,4058A,116.6598,39.9164,北京市,通州新华,细颗粒物(PM2.5),140,175,173,104,105,35,35,9,9,72,56,9,9,0.8,0.8
2026-03-22T1000,4182A,116.1942,39.9158,北京市,石景山八角,细颗粒物(PM2.5),121,141,134,83,74,48,48,17,17,34,42,1,4,0.7,0.7
2026-03-22T1000,4194A,117.078628,40.151726,北京市,平谷新城,细颗粒物(PM2.5),204,204,165,154,110,69,69,52,50,28,26,4,4,0.9,0.9
2026-03-22T1000,1761A,123.8274146,41.31234549,本溪市,大峪,细颗粒物(PM2.5),104,105,95,64,61,83,83,108,100,25,15,11,11,0.8,0.7
2026-03-22T1000,1763A,123.7169,41.3094,本溪市,彩屯,细颗粒物(PM2.5),105,99,99,65,64,86,86,98,94,25,27,14,18,1.9,2.2
2026-03-22T1000,1764A,123.7672166,41.28649327,本溪市,东明,细颗粒物(PM2.5),102,119,78,62,58,88,88,110,105,20,14,10,10,0.8,0.6
2026-03-22T1000,1765A,123.799345,41.266614,本溪市,新立屯,细颗粒物(PM2.5),88,65,67,54,52,92,92,113,107,21,12,8,8,0.6,0.5
2026-03-22T1000,1766A,123.829144,41.336777,本溪市,威宁,细颗粒物(PM2.5),100,100,93,60,54,78,78,104,94,24,15,8,9,0.7,0.6
2026-03-22T1000,2587A,105.287,27.3133,毕节市,八中,,30,30,36,18,25,71,71,69,69,12,8,11,11,0.7,0.6
2026-03-22T1000,2588A,105.3079,27.2987,毕节市,师专,,25,23,36,17,25,64,64,65,65,12,9,10,10,0.5,0.6
2026-03-22T1000,4263A,105.3688,27.3598,毕节市,工业大道,,26,26,38,3,24,75,75,71,71,12,9,10,11,/,/
2026-03-22T1000,1629A,117.9961,37.3604,滨州市,第二水厂,细颗粒物(PM2.5),141,136,129,105,90,109,109,98,94,19,22,12,15,0.8,0.8
2026-03-22T1000,1630A,117.9789,37.3931,滨州市,北中新校,细颗粒物(PM2.5),142,139,125,106,91,103,103,108,101,24,23,9,13,0.5,0.5
2026-03-22T1000,3514A,117.9379,37.3959,滨州市,中海酒店,细颗粒物(PM2.5),140,139,127,103,89,112,112,107,100,23,24,19,14,0.9,0.7
2026-03-22T1000,3515A,117.9381509,37.35547456,滨州市,开发区一中,细颗粒物(PM2.5),139,144,132,102,89,97,97,91,88,16,16,19,20,0.9,0.9
2026-03-22T1000,3516A,118.0914,37.6938,滨州市,金海六路,细颗粒物(PM2.5),148,137,124,112,92,93,93,90,85,21,31,9,11,1.0,0.9
2026-03-22T1000,4028A,117.9955,37.3752,滨州市,滨州市西街道办事处,细颗粒物(PM2.5),141,139,133,105,88,106,106,95,93,24,23,13,14,0.9,0.9
2026-03-22T1000,2311A,115.8071,33.8399,亳州市,污水处理厂,细颗粒物(PM2.5),98,103,114,59,75,93,93,70,70,19,20,8,7,0.3,0.3
2026-03-22T1000,2312A,115.7789,33.8519,亳州市,三国揽胜宫,细颗粒物(PM2.5),105,123,126,65,76,85,85,70,69,15,15,8,6,0.3,0.3
2026-03-22T1000,3332A,115.7631,33.803,亳州市,亳州学院,细颗粒物(PM2.5),100,102,112,60,71,84,84,80,76,14,13,9,6,0.3,0.3
2026-03-22T1000,2693A,82.0482,44.8553,博尔塔拉蒙古自治州,市党校,颗粒物(PM10),52,52,48,17,19,46,46,52,50,4,4,2,3,0.3,0.3
2026-03-22T1000,2694A,82.0805,44.8966,博尔塔拉蒙古自治州,市环保局,,40,40,42,26,20,25,25,31,28,16,22,4,3,0.5,0.4
2026-03-22T1000,1071A,116.8733,38.2922,沧州市,沧县城建局,细颗粒物(PM2.5),106,115,119,66,86,81,81,63,57,20,23,5,5,0.6,0.7
2026-03-22T1000,1072A,116.8462,38.3189,沧州市,电视转播站,细颗粒物(PM2.5),122,96,111,84,84,79,79,66,58,20,20,3,3,0.5,0.5
2026-03-22T1000,1073A,116.8588,38.3161,沧州市,市环保局,细颗粒物(PM2.5),92,93,128,56,79,84,84,66,64,16,18,12,11,0.4,0.5
2026-03-22T1000,3324A,116.8011,38.294,沧州市,河北水利电力学院,细颗粒物(PM2.5),119,97,125,80,83,79,79,61,59,17,23,12,11,0.5,0.5
2026-03-22T1000,2622A,97.1813,31.1289,昌都市,昌都监测站,,20,12,8,6,3,63,63,76,68,12,5,4,4,0.7,0.5
2026-03-22T1000,3719A,97.1707,31.1428,昌都市,昌都会议中心,,25,13,8,8,6,77,77,92,84,10,4,5,6,0.4,0.3
2026-03-22T1000,2692A,87.2722,44.0298,昌吉回族自治州,新区政务中心,,50,37,40,35,29,35,35,24,24,26,31,9,6,0.9,0.6
2026-03-22T1000,3613A,87.3069,44.0093,昌吉回族自治州,亚心广场,颗粒物(PM10),63,68,49,34,25,37,37,34,32,36,26,18,11,3.3,0.8
2026-03-22T1000,4164A,87.2057,43.9289,昌吉回族自治州,财政所,,39,39,49,22,22,37,37,40,38,8,10,8,8,0.6,0.5
2026-03-22T1000,1120A,125.2874,43.9024,长春市,客车厂,细颗粒物(PM2.5),133,NA,156,96,110,61,61,64,56,39,32,10,12,0.9,0.9
2026-03-22T1000,1121A,125.2943,43.8508,长春市,邮电学院,细颗粒物(PM2.5),135,NA,162,98,103,56,56,65,52,37,27,10,11,0.9,0.8
2026-03-22T1000,1122A,125.3648,43.8745,长春市,劳动公园,细颗粒物(PM2.5),132,NA,148,95,101,50,50,63,54,40,26,10,10,1.1,0.9
2026-03-22T1000,1123A,125.3233,43.8781,长春市,园林处,细颗粒物(PM2.5),132,95,149,95,106,65,65,71,62,30,26,9,11,0.8,0.8
2026-03-22T1000,1124A,125.4604,43.7904,长春市,净月潭,细颗粒物(PM2.5),138,102,146,101,109,51,51,87,76,24,21,14,10,0.8,0.7
2026-03-22T1000,1126A,125.38,43.8422,长春市,经开区环卫处,细颗粒物(PM2.5),135,98,162,98,107,28,28,31,24,65,40,8,9,1.1,0.9
2026-03-22T1000,1127A,125.234,43.7761,长春市,高新区管委会,细颗粒物(PM2.5),137,NA,148,100,99,39,39,58,51,47,30,11,10,1.1,0.9
2026-03-22T1000,1128A,125.1695,43.83,长春市,岱山公园,细颗粒物(PM2.5),141,NA,167,105,113,21,21,73,56,83,35,6,8,0.7,0.7
2026-03-22T1000,4281A,125.334645,43.916281,长春市,北亚泰大街1068号,细颗粒物(PM2.5),135,NA,167,98,111,55,55,47,40,41,36,10,12,0.9,0.8
2026-03-22T1000,1335A,113.082,28.2421,长沙市,经开区环保局,,15,NA,34,10,19,22,22,17,17,23,32,3,3,0.6,0.6
2026-03-22T1000,1336A,112.8873,28.2202,长沙市,高开区环保局,,16,11,34,11,22,23,23,18,18,30,26,4,4,0.9,0.9
2026-03-22T1000,1337A,113.0785,28.2012,长沙市,马坡岭,,23,23,34,15,21,9,9,7,7,32,31,4,4,0.8,0.8
2026-03-22T1000,1338A,112.9448,28.1894,长沙市,湖南师范大学,,19,17,34,13,21,27,27,24,24,21,23,4,4,1.1,1.1
2026-03-22T1000,1339A,113.0177,28.1322,长沙市,雨花区环保局,,16,NA,36,11,25,33,33,15,15,18,28,3,4,1.1,1
2026-03-22T1000,1340A,112.9795,28.2593,长沙市,伍家岭,,26,NA,41,18,28,33,33,18,18,16,32,3,3,0.2,0.6
2026-03-22T1000,1341A,113.002,28.1944,长沙市,火车新站,,20,14,37,14,26,37,37,21,21,20,33,3,4,0.9,0.8
2026-03-22T1000,1342A,112.9846,28.1177,长沙市,天心区环保局,,20,NA,34,14,26,24,24,20,19,26,31,5,5,0.9,0.9
2026-03-22T1000,1343A,112.8906,28.1307,长沙市,湖南中医药大学,,18,13,34,12,21,32,32,17,17,19,25,5,6,0.8,0.8
2026-03-22T1000,1727A,113.1146,36.1547,长治市,清华站,颗粒物(PM10),76,86,70,34,36,71,71,65,58,20,17,18,11,0.7,0.6
2026-03-22T1000,1432A,104.1423,30.6765,成都市,十里店,细颗粒物(PM2.5),88,70,59,54,37,49,49,34,30,25,20,4,4,0.5,0.4
2026-03-22T1000,1433A,104.0594,30.5765,成都市,三瓦窑,细颗粒物(PM2.5),76,53,59,48,41,45,45,31,29,24,17,2,2,0.9,0.7
2026-03-22T1000,1434A,104.1122,30.6306,成都市,沙河铺,细颗粒物(PM2.5),92,67,55,56,36,19,19,24,20,49,29,5,5,0.7,0.5
2026-03-22T1000,2880A,104.0219,30.6561,成都市,大石西路,细颗粒物(PM2.5),108,69,65,68,47,32,32,33,30,32,22,7,7,0.9,0.7
2026-03-22T1000,3136A,104.2724,30.559,成都市,龙泉驿区区政府,细颗粒物(PM2.5),76,70,47,48,31,54,54,32,32,20,16,8,7,0.7,0.6
2026-03-22T1000,3357A,104.0028,30.6891,成都市,金博路,细颗粒物(PM2.5),100,66,55,60,43,34,34,26,23,36,29,6,6,0.8,0.7
2026-03-22T1000,3359A,104.056,30.5228,成都市,华阳,细颗粒物(PM2.5),86,70,58,53,38,41,41,42,42,32,23,4,4,0.6,0.5
2026-03-22T1000,3488A,104.387954,30.746684,成都市,青石路225号,细颗粒物(PM2.5),88,73,54,54,39,33,33,8,8,26,24,6,6,0.8,0.7
2026-03-22T1000,3489A,104.0788,30.4054,成都市,科学城,细颗粒物(PM2.5),92,71,55,56,37,56,56,45,45,15,15,8,8,0.8,0.7
2026-03-22T1000,4011A,103.8505,30.6946,成都市,光华大道三段,细颗粒物(PM2.5),82,66,71,51,46,30,30,37,28,36,26,4,3,0.8,0.6
2026-03-22T1000,4144A,104.3257,30.6406,成都市,八角井街185号,细颗粒物(PM2.5),94,77,61,57,40,32,32,NA,NA,27,17,4,4,0.9,0.7
2026-03-22T1000,4224A,104.2433276,30.53529463,成都市,鲸龙路1057号,细颗粒物(PM2.5),80,75,55,50,34,50,50,31,31,20,21,7,6,0.6,0.5
2026-03-22T1000,1062A,117.9531,40.908,承德市,铁路,细颗粒物(PM2.5),130,168,121,93,71,66,66,48,48,38,31,7,6,0.8,0.7
2026-03-22T1000,1063A,117.9397,40.9763,承德市,中国银行,细颗粒物(PM2.5),145,182,116,109,68,68,68,42,42,33,24,4,4,0.8,0.7
2026-03-22T1000,4073A,117.9462,40.95,承德市,杏林街1号,细颗粒物(PM2.5),150,173,121,114,78,90,90,59,59,25,21,7,6,0.8,0.8
2026-03-22T1000,4274A,117.7994,40.9605,承德市,滨河大街98号,细颗粒物(PM2.5),123,141,94,85,73,78,78,49,49,40,26,8,9,0.7,0.7
2026-03-22T1000,2314A,117.4698,30.6617,池州市,池州学院,,34,34,30,21,24,50,50,30,30,27,25,4,4,1.0,0.8
2026-03-22T1000,3237A,117.4918,30.6617,池州市,展览馆,,34,34,34,22,28,52,52,24,24,26,24,4,2,1.2,1
2026-03-22T1000,3333A,117.5626,30.695,池州市,第八中学,,29,29,30,18,22,51,51,30,30,25,27,5,3,1.0,0.8
2026-03-22T1000,3334A,117.5037,30.6242,池州市,第十二中学,,38,34,26,26,21,40,40,17,14,32,32,4,3,1.0,0.9
2026-03-22T1000,1744A,118.9229,42.2816,赤峰市,松山一中,细颗粒物(PM2.5),150,NA,80,114,49,116,116,87,87,24,18,8,5,0.7,0.5
2026-03-22T1000,1745A,118.9588,42.2733,赤峰市,哈达街,细颗粒物(PM2.5),160,NA,91,122,49,92,92,74,72,28,20,14,11,0.9,0.6
2026-03-22T1000,1746A,118.8792,42.2551,赤峰市,天义路,细颗粒物(PM2.5),135,NA,71,98,44,105,105,84,79,22,15,8,6,0.7,0.5
2026-03-22T1000,3058A,119.2656,42.0356,赤峰市,银河街,细颗粒物(PM2.5),204,166,126,154,74,115,115,89,87,24,17,12,17,0.8,0.6
2026-03-22T1000,3286A,118.9359,42.3146,赤峰市,桥北物流园区,细颗粒物(PM2.5),146,NA,80,110,47,112,112,83,82,23,14,4,4,0.8,0.6
2026-03-22T1000,2521A,107.3473,22.4137,崇左市,市环保局江州分局,细颗粒物(PM2.5),123,119,74,85,52,22,22,12,12,27,20,12,9,1.1,0.9
2026-03-22T1000,4256A,107.375,22.3736,崇左市,石景林东路7号,细颗粒物(PM2.5),134,105,70,97,57,29,29,14,14,27,22,6,5,1.1,1
2026-03-22T1000,3207A,118.31131,32.3033,滁州市,市政府原办公楼,细颗粒物(PM2.5),128,NA,74,90,65,67,67,59,59,29,24,8,5,0.7,0.4
2026-03-22T1000,3331A,118.3268,32.2633,滁州市,图书馆,细颗粒物(PM2.5),106,93,78,66,48,67,67,58,58,27,24,12,9,0.7,0.5
2026-03-22T1000,4101A,118.3196,32.3335,滁州市,银山路666号,细颗粒物(PM2.5),117,82,74,78,53,57,57,46,42,36,26,12,10,0.8,0.7
2026-03-22T1000,4102A,118.3426,32.2979,滁州市,黄山路555号,细颗粒物(PM2.5),118,104,93,79,56,68,68,69,61,35,29,9,7,0.9,0.7
2026-03-22T1000,2606A,101.5379,25.0492,楚雄彝族自治州,市经济开发区,细颗粒物(PM2.5),54,52,56,37,36,86,86,58,58,10,15,4,5,0.6,0.6
2026-03-22T1000,4153A,101.5536,25.0343,楚雄彝族自治州,团结路562号,细颗粒物(PM2.5),60,NA,44,40,34,88,88,61,61,8,14,2,4,0.5,0.4
2026-03-22T1000,2549A,107.5087,31.2186,达州市,市环境监测站,,47,47,40,18,16,11,11,2,2,25,31,8,6,0.4,0.4
2026-03-22T1000,2550A,107.4988,31.2132,达州市,凤凰小区,,48,48,40,21,17,13,13,4,4,23,30,8,6,0.4,0.4
2026-03-22T1000,2551A,107.5081,31.1987,达州市,达县机关宾馆,,44,44,45,24,21,16,16,4,4,28,34,7,5,0.6,0.6
2026-03-22T1000,2552A,107.4644,31.2124,达州市,市政中心,颗粒物(PM10),63,68,47,21,15,13,13,5,5,32,32,6,5,0.7,0.6
2026-03-22T1000,2614A,100.2168,25.5818,大理白族自治州,大理市环境监测站,,33,32,33,23,23,88,88,88,88,9,8,7,7,0.6,0.5
2026-03-22T1000,2615A,100.1542,25.7055,大理白族自治州,大理古城,NA,NA,NA,30,37,23,NA,NA,85,82,13,9,10,9,0.8,0.6
2026-03-22T1000,1109A,121.6119,38.974,大连市,甘井子,细颗粒物(PM2.5),94,73,99,57,68,95,95,97,94,26,25,8,9,0.6,0.6
2026-03-22T1000,1110A,121.565,38.9509,大连市,周水子,细颗粒物(PM2.5),96,94,108,58,72,84,84,84,79,27,27,10,11,0.7,0.8
2026-03-22T1000,1111A,121.5637,38.8849,大连市,星海三站,细颗粒物(PM2.5),82,63,75,51,60,88,88,86,84,18,21,4,5,0.7,0.7
2026-03-22T1000,1112A,121.6301,38.9117,大连市,青泥洼桥,细颗粒物(PM2.5),72,64,86,46,63,101,101,95,93,14,16,5,6,0.6,0.8
2026-03-22T1000,1113A,121.6248,38.8643,大连市,傅家庄,细颗粒物(PM2.5),76,71,86,48,55,92,92,93,91,18,23,7,7,0.6,0.6
2026-03-22T1000,1114A,121.5117,38.8636,大连市,七贤岭,细颗粒物(PM2.5),72,61,83,46,57,96,96,88,84,18,26,6,7,0.6,0.6
2026-03-22T1000,1116A,121.7507,39.1339,大连市,金州,细颗粒物(PM2.5),90,74,88,55,71,94,94,100,97,22,21,7,8,0.7,0.7
2026-03-22T1000,1117A,121.7811,39.0495,大连市,开发区,细颗粒物(PM2.5),76,71,79,48,62,96,96,90,87,19,24,7,9,0.6,0.7
2026-03-22T1000,1118A,121.9762,39.0631,大连市,双D港,细颗粒物(PM2.5),84,66,83,52,65,95,95,88,86,23,25,6,6,0.7,0.7
2026-03-22T1000,4082A,121.2548,38.8188,大连市,旅顺,细颗粒物(PM2.5),76,67,80,48,59,81,81,84,83,22,22,8,7,0.5,0.5
2026-03-22T1000,1789A,124.8085,46.0381,大庆市,大同区,细颗粒物(PM2.5),133,121,159,96,104,95,95,63,63,15,24,12,13,0.6,0.7
2026-03-22T1000,1790A,125.1166,46.5255,大庆市,龙凤区,细颗粒物(PM2.5),143,141,179,107,127,66,66,48,45,33,42,7,7,0.5,0.8
2026-03-22T1000,1791A,124.8894,46.4007,大庆市,红岗区,NA,NA,NA,126,NA,102,NA,NA,138,49,NA,23,NA,11,NA,0.8
2026-03-22T1000,1792A,125.1391,46.578,大庆市,萨尔图区,细颗粒物(PM2.5),140,156,203,104,135,55,55,45,43,44,44,7,9,1.0,1.1
2026-03-22T1000,1793A,124.9026,46.6217,大庆市,让胡路区,NA,NA,81,143,56,115,NA,NA,48,46,19,28,6,8,0.7,1
2026-03-22T1000,3481A,125.127,46.6277,大庆市,萨区政府监测点,细颗粒物(PM2.5),128,132,196,90,130,55,55,34,33,29,34,10,11,0.6,0.8
2026-03-22T1000,1723A,113.2926,40.0759,大同市,云冈宾馆,,39,39,119,11,44,67,67,48,48,13,26,8,11,0.6,0.7
2026-03-22T1000,1724A,113.3437,40.0921,大同市,大同大学,颗粒物(PM10),68,74,135,6,41,72,72,49,49,16,30,6,10,0.7,0.7
2026-03-22T1000,1725A,113.2637,40.129,大同市,安家小村,颗粒物(PM10),56,58,140,14,44,71,71,44,44,11,23,15,18,0.5,0.8
2026-03-22T1000,3282A,113.3399,40.0586,大同市,大同市卫生学校,颗粒物(PM10),58,60,139,6,43,73,73,40,40,13,26,7,9,0.5,0.5
2026-03-22T1000,3565A,113.1371,40.1122,大同市,云冈站,,49,49,118,8,32,71,71,42,42,10,19,11,9,0.6,0.5
2026-03-22T1000,3566A,113.1186,40.2556,大同市,图书馆,颗粒物(PM10),60,64,119,3,30,74,74,48,48,6,13,5,10,0.6,0.7
2026-03-22T1000,3567A,113.5931,40.0459,大同市,区一中,颗粒物(PM10),68,75,134,34,43,87,87,58,58,14,17,12,17,1.1,0.9
2026-03-22T1000,4199A,113.2798248,40.09972476,大同市,魏都大道141号,颗粒物(PM10),68,75,147,3,43,72,72,42,41,10,23,10,12,0.5,0.7
2026-03-22T1000,2269A,124.1068,50.4091,大兴安岭地区,科技局,,26,18,20,3,11,83,83,75,75,2,3,6,6,0.4,0.4
2026-03-22T1000,3663A,124.117,50.4279,大兴安岭地区,红旗社区,NA,NA,12,16,8,13,NA,NA,60,60,3,12,11,11,0.5,0.5
2026-03-22T1000,1600A,124.33,40.0625,丹东市,江湾东路,细颗粒物(PM2.5),80,69,55,50,41,125,125,109,109,16,14,10,9,0.9,0.8
2026-03-22T1000,1601A,124.4242,40.1513,丹东市,临江后街,细颗粒物(PM2.5),104,90,78,64,53,113,113,62,60,16,17,21,15,0.8,0.8
2026-03-22T1000,1602A,124.3935,40.1461,丹东市,元宝山,细颗粒物(PM2.5),94,81,65,57,45,112,112,93,93,16,16,13,12,0.7,0.8
2026-03-22T1000,1603A,124.3634,40.1093,丹东市,民主桥,细颗粒物(PM2.5),88,85,73,54,44,120,120,102,102,15,14,10,6,0.5,0.5
2026-03-22T1000,3541A,109.5726195,19.51688767,儋州市,第一中学子站,,17,17,27,8,16,44,44,35,35,3,5,6,6,0.3,0.4
2026-03-22T1000,3542A,109.5567,19.5187,儋州市,东坡学校子站,,26,26,26,9,15,50,50,39,39,3,5,6,7,0.3,0.4
2026-03-22T1000,2616A,98.5611,24.4273,德宏傣族景颇族自治州,德宏州监测站,,50,NA,48,35,44,37,37,21,21,8,16,6,7,0.9,0.9
2026-03-22T1000,3677A,98.5887,24.4366,德宏傣族景颇族自治州,芒市人民政府综合楼,颗粒物(PM10),53,53,72,35,41,37,37,26,26,12,20,2,2,0.8,0.7
2026-03-22T1000,1901A,104.424,31.1209,德阳市,东山公园,细颗粒物(PM2.5),88,69,52,54,41,20,20,22,21,27,22,6,3,0.9,0.7
2026-03-22T1000,1902A,104.3827,31.1318,德阳市,西小区,细颗粒物(PM2.5),107,94,67,67,43,17,17,9,8,45,29,8,6,1.1,0.8
2026-03-22T1000,1904A,104.3553,31.1091,德阳市,耐火材料厂,细颗粒物(PM2.5),107,103,69,67,49,18,18,12,9,45,28,4,3,0.8,0.7
2026-03-22T1000,4145A,104.4144,31.1495,德阳市,市林业局,细颗粒物(PM2.5),92,79,53,56,40,14,14,5,5,38,26,8,6,0.9,0.7
2026-03-22T1000,1622A,116.3034,37.4675,德州市,儿童乐园,细颗粒物(PM2.5),107,119,130,67,75,83,83,82,76,27,20,15,12,0.9,0.8
2026-03-22T1000,1624A,116.2992,37.4449,德州市,监理站,细颗粒物(PM2.5),111,117,128,72,72,88,88,85,77,24,24,8,4,1.1,0.8
2026-03-22T1000,3066A,116.2722,37.438,德州市,九衢泉纯净水厂,细颗粒物(PM2.5),112,110,120,73,73,83,83,68,60,25,28,8,5,0.7,0.6
2026-03-22T1000,3371A,116.3693,37.44,德州市,开发区人民医院,细颗粒物(PM2.5),113,124,129,74,75,81,81,87,82,22,19,9,8,0.7,0.7
2026-03-22T1000,3511A,116.5687,37.3331,德州市,陵城艺术中心,细颗粒物(PM2.5),140,129,122,103,84,86,86,83,79,15,15,10,6,0.9,0.9
2026-03-22T1000,4292A,116.352738,37.420875,德州市,新河东路,细颗粒物(PM2.5),115,127,125,76,72,73,73,81,72,23,17,12,11,0.7,0.7
2026-03-22T1000,2621A,99.7054,27.8319,迪庆藏族自治州,迪庆州站,NA,NA,NA,16,10,12,NA,NA,94,91,7,7,8,8,0.5,0.6
2026-03-22T1000,3180A,99.7122,27.8129,迪庆藏族自治州,质量技术监督局,,31,25,24,9,12,97,97,107,104,6,7,6,6,0.4,0.4
2026-03-22T1000,4257A,104.6092,35.5962,定西市,将台街,颗粒物(PM10),117,162,167,57,54,91,91,90,87,9,9,9,9,0.3,0.4
2026-03-22T1000,4309A,104.6159,35.5701,定西市,正龙路62号,NA,NA,NA,167,NA,42,86,86,77,75,10,9,4,6,0.2,0.3
2026-03-22T1000,4071A,114.9883,38.5232,定州市,交通局,颗粒物(PM10),80,92,122,21,70,66,66,61,59,16,26,13,15,0.4,0.8
2026-03-22T1000,4072A,115.0045,38.5136,定州市,第五中学,颗粒物(PM10),94,111,128,19,66,70,70,61,61,11,26,9,10,0.3,0.7
2026-03-22T1000,1390A,113.7943,23.0132,东莞市,东城石井,,36,36,46,20,29,78,78,76,76,24,33,4,4,0.6,0.7
2026-03-22T1000,1391A,113.7384,22.9659,东莞市,南城西平,,29,29,44,16,33,74,74,67,67,17,30,5,5,0.6,0.7
2026-03-22T1000,3319A,113.7283,23.041,东莞市,万江金泰,,34,34,51,21,33,78,78,77,77,19,28,6,5,0.7,0.7
2026-03-22T1000,4129A,113.8666,23.1062,东莞市,裕兴路,,43,43,52,21,29,73,73,76,75,19,22,9,8,0.7,0.8
2026-03-22T1000,4130A,114.0076,22.9739,东莞市,教育路1号,,38,38,49,20,31,77,77,71,66,22,29,6,5,0.7,0.7
2026-03-22T1000,4131A,113.7981,22.8124,东莞市,长怡路1号,,34,34,52,15,28,82,82,73,73,19,32,4,4,0.7,0.7
2026-03-22T1000,1666A,118.6612,37.4313,东营市,市环保局,细颗粒物(PM2.5),152,149,126,116,93,42,42,68,56,49,27,20,17,0.8,0.7
2026-03-22T1000,3036A,118.6903,37.4337,东营市,开发区管委会,细颗粒物(PM2.5),146,138,122,110,89,42,42,78,67,62,35,24,17,0.9,0.9
2026-03-22T1000,3365A,118.5721,37.5654,东营市,垦利区民丰路,细颗粒物(PM2.5),153,132,121,117,97,70,70,82,71,35,26,8,5,1.2,1
2026-03-22T1000,3498A,118.5063,37.8606,东营市,河口城区,细颗粒物(PM2.5),150,134,145,115,103,104,104,74,72,20,27,14,15,0.9,0.9
2026-03-22T1000,3646A,118.4979,37.4623,东营市,胜利站,细颗粒物(PM2.5),147,166,137,111,91,66,66,65,54,43,30,30,13,1.2,1.1
2026-03-22T1000,3734A,118.5753,37.4405,东营市,理想之城,细颗粒物(PM2.5),150,171,134,114,90,64,64,72,59,46,36,15,10,1.2,1
2026-03-22T1000,1591A,110.0024,39.8127,鄂尔多斯市,综合楼,颗粒物(PM10),56,58,226,8,39,78,78,64,64,10,17,8,7,0.3,0.3
2026-03-22T1000,1592A,109.9485,39.8259,鄂尔多斯市,巴音孟克林场办事处,颗粒物(PM10),56,58,216,6,33,75,75,59,56,11,16,8,6,0.4,0.3
2026-03-22T1000,1593A,109.7734,39.5987,鄂尔多斯市,康泽苑,,46,46,167,3,40,82,82,73,71,10,11,10,8,0.4,0.3
2026-03-22T1000,1594A,109.8121,39.5987,鄂尔多斯市,华泰汽车城,颗粒物(PM10),51,51,220,6,40,76,76,63,61,16,14,8,6,0.4,0.3
2026-03-22T1000,1595A,109.9734,39.7884,鄂尔多斯市,奥林花园,颗粒物(PM10),55,56,218,9,34,78,78,59,58,13,20,8,6,0.3,0.3
2026-03-22T1000,2436A,114.894,30.3989,鄂州市,市政府,细颗粒物(PM2.5),103,66,58,63,38,32,32,42,36,34,23,10,9,0.9,0.7
2026-03-22T1000,2437A,114.8986,30.3714,鄂州市,赵家坝,细颗粒物(PM2.5),107,69,62,67,39,35,35,44,35,29,18,9,7,1.1,0.9
2026-03-22T1000,3654A,114.8093,30.4091,鄂州市,精准医疗中心,细颗粒物(PM2.5),104,74,72,64,46,49,49,41,39,25,24,15,18,1.0,1
2026-03-22T1000,2454A,109.4978,30.2979,恩施土家族苗族自治州,湖北民院,,34,34,39,21,24,8,8,8,8,16,17,6,7,0.7,0.7
2026-03-22T1000,3549A,109.5061,30.3771,恩施土家族苗族自治州,龙凤新区,,33,33,35,20,19,7,7,9,8,14,10,7,7,0.5,0.4
2026-03-22T1000,2499A,108.3411,21.6159,防城港市,沙万,颗粒物(PM10),68,75,56,27,36,9,9,12,10,27,17,7,6,0.7,0.9
2026-03-22T1000,2500A,108.3515,21.7733,防城港市,防城档案局,细颗粒物(PM2.5),98,85,64,59,38,10,10,10,10,22,16,6,6,1.2,0.8
2026-03-22T1000,2501A,108.3506,21.6414,防城港市,大海花园,细颗粒物(PM2.5),74,56,50,47,42,11,11,14,11,22,19,9,8,1.0,0.8
2026-03-22T1000,1371A,113.1293,23.0065,佛山市,湾梁,,36,36,33,19,31,51,51,33,33,23,36,/,/,/,/
2026-03-22T1000,1372A,113.1082,23.0477,佛山市,华材职中,,34,34,35,19,34,54,54,37,37,25,40,6,7,0.3,0.6
2026-03-22T1000,1373A,113.1439,23.045,佛山市,南海气象局,,45,45,36,22,30,39,39,26,26,33,35,/,/,/,/
2026-03-22T1000,1374A,113.2879,22.8094,佛山市,顺德苏岗,,45,45,32,12,23,74,74,48,48,16,38,/,/,0.5,0.7
2026-03-22T1000,1376A,112.8384,22.8678,佛山市,高明孔堂,,43,43,35,26,26,37,37,54,50,27,37,/,/,/,/
2026-03-22T1000,1377A,112.8835,23.1584,佛山市,三水监测站,,44,44,37,27,35,30,30,19,19,40,43,3,4,0.6,0.8
2026-03-22T1000,1378A,112.8668,23.185,佛山市,三水云东海,颗粒物(PM10),53,53,55,27,34,18,18,4,4,38,34,/,/,/,/
2026-03-22T1000,3625A,113.2568,22.7629,佛山市,容桂街道办,,34,34,29,15,28,62,62,50,50,24,40,/,/,/,/
2026-03-22T1000,1282A,119.2681,26.0506,福州市,师大,,38,38,37,26,27,57,57,48,46,21,25,4,4,0.5,0.4
2026-03-22T1000,1283A,119.2983,26.1028,福州市,五四北路,,49,44,34,34,32,57,57,44,44,22,23,4,4,0.7,0.6
2026-03-22T1000,1284A,119.2648,26.0769,福州市,杨桥西路,,36,31,36,25,28,65,65,48,48,14,21,4,4,/,/
2026-03-22T1000,3048A,119.5799,26.0937,福州市,九龙,,43,32,20,30,16,63,63,41,41,22,15,5,4,0.6,0.4
2026-03-22T1000,3526A,119.5188,25.9666,福州市,吴航,,26,25,27,18,18,75,75,44,43,19,18,5,5,0.7,0.6
2026-03-22T1000,4104A,119.3106,26.0648,福州市,路通桥巷6号,,36,34,37,25,32,66,66,40,40,14,19,/,/,/,/
2026-03-22T1000,1755A,123.7974,41.8494,抚顺市,望花区,细颗粒物(PM2.5),110,98,106,70,62,87,87,114,103,22,18,20,18,1.0,0.8
2026-03-22T1000,1756A,123.9161,41.8827,抚顺市,顺城区,细颗粒物(PM2.5),118,92,82,79,61,68,68,112,99,33,18,16,12,0.9,0.8
2026-03-22T1000,1757A,124.0437,41.8615,抚顺市,东洲区,细颗粒物(PM2.5),120,96,91,81,54,84,84,118,108,17,13,11,11,0.7,0.6
2026-03-22T1000,1758A,123.9246,41.8638,抚顺市,新抚区,细颗粒物(PM2.5),120,108,110,81,60,60,60,102,83,33,21,13,11,1.0,0.7
2026-03-22T1000,1759A,124.0972,41.8961,抚顺市,大伙房水库,细颗粒物(PM2.5),106,80,81,66,55,100,100,127,119,11,10,11,12,0.7,0.6
2026-03-22T1000,1760A,123.708,41.8386,抚顺市,沈抚新城,细颗粒物(PM2.5),117,114,104,78,66,72,72,105,93,28,20,14,11,0.9,0.8
2026-03-22T1000,2377A,116.3544,27.9833,抚州市,市站,细颗粒物(PM2.5),60,50,46,40,38,8,8,26,18,20,13,14,7,1.1,1
2026-03-22T1000,2378A,116.3562,27.9631,抚州市,血防站,细颗粒物(PM2.5),58,48,48,39,36,10,10,23,19,23,16,12,5,1.0,0.9
2026-03-22T1000,2379A,116.3561,28.0007,抚州市,采茶剧团,颗粒物(PM10),63,68,52,36,37,14,14,19,14,24,16,8,5,0.9,0.8
2026-03-22T1000,2380A,116.3854,27.9648,抚州市,医学分院,颗粒物(PM10),53,53,50,36,29,16,16,26,22,23,14,24,7,1.3,1.2
2026-03-22T1000,2207A,121.6095,41.9978,阜新市,工业园区,细颗粒物(PM2.5),207,164,124,157,105,72,72,91,79,23,24,10,14,1.1,0.9
2026-03-22T1000,2208A,121.6567,42.0188,阜新市,长青街,细颗粒物(PM2.5),206,164,113,156,102,73,73,95,83,20,23,7,13,1.1,0.8
2026-03-22T1000,2209A,121.6672,42.07,阜新市,农业园区,细颗粒物(PM2.5),205,205,151,155,104,73,73,95,84,21,24,6,10,1.1,0.8
2026-03-22T1000,2211A,121.6343,42.0455,阜新市,玉龙新城,细颗粒物(PM2.5),209,173,132,159,105,73,73,84,76,21,24,10,13,1.2,0.9
2026-03-22T1000,2301A,115.8276,32.8929,阜阳市,市监测站,颗粒物(PM10),83,95,109,40,63,105,105,89,88,15,21,7,6,0.6,0.6
2026-03-22T1000,2303A,115.8551,32.8606,阜阳市,开发区,颗粒物(PM10),92,108,125,39,63,105,105,90,84,16,20,7,6,0.7,0.6
2026-03-22T1000,2875A,115.783962,32.889217,阜阳市,阜阳职业技术学院,颗粒物(PM10),68,75,89,36,53,100,100,108,100,16,17,8,8,0.8,0.8
2026-03-22T1000,3468A,115.79,32.8614,阜阳市,市规划展馆,颗粒物(PM10),83,96,105,40,62,107,107,98,94,14,19,9,8,0.6,0.6
2026-03-22T1000,3469A,115.835101,32.918568,阜阳市,枣园社区,颗粒物(PM10),85,98,107,42,61,103,103,92,89,13,19,7,6,0.6,0.5
2026-03-22T1000,2669A,102.9097,34.9841,甘南藏族自治州,州政府,颗粒物(PM10),72,80,72,26,30,77,77,85,84,2,3,5,5,0.3,0.4
2026-03-22T1000,3380A,102.8915,34.9618,甘南藏族自治州,甘肃民族师范学院,颗粒物(PM10),75,85,89,14,28,91,91,99,98,2,8,1,4,0.4,0.4
2026-03-22T1000,2570A,101.96,30.048,甘孜藏族自治州,水桥子,,21,16,18,3,6,67,67,76,74,19,8,7,6,0.3,0.3
2026-03-22T1000,3065A,101.9534,29.9976,甘孜藏族自治州,州环保局,,27,8,13,3,6,84,84,94,93,24,14,6,6,0.8,0.7
2026-03-22T1000,2363A,114.9368,25.8663,赣州市,地委,,46,39,25,32,12,11,11,5,4,31,22,5,4,1.4,1.2
2026-03-22T1000,2364A,114.946,25.8483,赣州市,气象台,,48,46,32,33,18,30,30,19,19,31,28,7,5,0.8,0.7
2026-03-22T1000,2365A,114.932,25.8332,赣州市,市图书馆,,43,34,24,30,16,33,33,23,23,32,23,4,4,1.0,0.8
