timepoint,stationcode,longitude,latitude,area,positionname,primarypollutant,aqi,pm10,pm10_24h,pm2_5,pm2_5_24h,o3,o3_24h,o3_8h,o3_8h_24h,no2,no2_24h,so2,so2_24h,co,co_24h
2026-03-22T1100,2845A,113.1561,36.1912,长治市,德盛苑,颗粒物(PM10),90,106,74,37,39,91,91,74,69,12,14,18,12,0.7,0.7
2026-03-22T1100,3568A,113.0603,36.0464,长治市,向阳小学,颗粒物(PM10),120,170,112,32,40,92,92,NA,NA,19,25,16,15,0.5,0.5
2026-03-22T1100,3569A,112.8788,36.315,长治市,屯留一中,颗粒物(PM10),107,137,81,28,35,86,86,50,49,15,24,9,8,0.6,0.6
2026-03-22T1100,4189A,113.113092,36.199482,长治市,英华南巷50号,颗粒物(PM10),104,129,83,32,39,88,88,72,68,18,20,16,12,0.7,0.8
2026-03-22T1100,4190A,113.23666,36.33435,长治市,学府街1号,颗粒物(PM10),89,104,76,26,33,82,82,57,53,16,18,13,7,0.6,0.7
2026-03-22T1100,1854A,111.696,28.9725,常德市,市二中,,20,20,51,14,34,51,51,33,33,8,16,6,8,1.0,1
2026-03-22T1100,3138A,111.7152,29.0288,常德市,武陵区永安,,30,30,48,19,44,48,48,36,36,11,18,4,5,0.8,0.9
2026-03-22T1100,3139A,111.6891,28.9881,常德市,鼎城区玉霞,,29,29,49,15,37,51,51,28,28,12,23,8,10,0.8,0.9
2026-03-22T1100,3140A,111.6651,29.0526,常德市,武陵区长庚,,35,35,49,22,46,40,40,30,30,13,16,7,7,1.0,1
2026-03-22T1100,1196A,119.9524,31.7586,常州市,市监测站,细颗粒物(PM2.5),78,81,68,49,37,89,89,58,58,24,28,10,9,0.6,0.6
2026-03-22T1100,1200A,119.9351,31.703,常州市,武进监测站,颗粒物(PM10),66,72,59,39,33,87,87,61,61,17,20,10,5,0.4,0.4
2026-03-22T1100,3002A,119.9701,31.813,常州市,行政中心,细颗粒物(PM2.5),92,82,74,56,44,83,83,45,45,22,32,6,6,0.5,0.4
2026-03-22T1100,3003A,120.0434,31.7726,常州市,经开区,细颗粒物(PM2.5),84,81,78,52,41,87,87,36,36,24,35,16,10,1.6,0.9
2026-03-22T1100,3010A,119.8919,31.7892,常州市,钟楼,细颗粒物(PM2.5),68,70,60,44,31,94,94,72,72,26,26,8,7,0.2,0.2
2026-03-22T1100,3429A,119.8595,31.706,常州市,武进经发区,细颗粒物(PM2.5),66,65,56,43,38,91,91,59,59,22,27,15,9,0.7,0.6
2026-03-22T1100,3430A,119.5812,31.7256,常州市,金坛城区,细颗粒物(PM2.5),64,47,54,42,41,93,93,66,66,12,15,11,9,0.8,0.5
2026-03-22T1100,4089A,119.9551,31.863,常州市,崇义南街5-H号,细颗粒物(PM2.5),80,65,68,50,46,88,88,41,41,21,34,6,6,0.6,0.5
2026-03-22T1100,2220A,120.4318,41.588,朝阳市,西梁,细颗粒物(PM2.5),172,178,146,130,109,103,103,91,86,23,24,14,16,1.1,1.4
2026-03-22T1100,2221A,120.452,41.565,朝阳市,河畔小区,细颗粒物(PM2.5),145,129,111,109,95,109,109,98,93,18,20,12,13,0.8,1
2026-03-22T1100,2222A,120.4176,41.5648,朝阳市,八里堡,细颗粒物(PM2.5),146,134,114,110,105,103,103,86,84,21,25,10,15,0.9,1.3
2026-03-22T1100,3026A,116.6179,23.6608,潮州市,市政府,细颗粒物(PM2.5),64,50,43,42,28,72,72,70,67,14,14,3,4,0.6,0.5
2026-03-22T1100,4036A,116.646,23.676,潮州市,金山,细颗粒物(PM2.5),60,50,40,40,29,76,76,76,71,14,16,3,5,0.5,0.4
2026-03-22T1100,2473A,113.0116,25.8228,郴州市,市职中,细颗粒物(PM2.5),68,48,44,44,37,12,12,6,6,23,21,11,6,1.0,1
2026-03-22T1100,2475A,113.0381,25.8074,郴州市,市审计局,细颗粒物(PM2.5),66,52,48,43,40,9,9,2,2,18,18,16,11,/,/
2026-03-22T1100,2476A,113.0348,25.7757,郴州市,市环保局,细颗粒物(PM2.5),76,64,55,48,43,10,10,6,6,24,23,21,10,0.8,0.6
2026-03-22T1100,4252A,113.0138,25.8011,郴州市,好美居路49号,,49,49,43,33,37,13,13,8,8,23,22,11,10,/,/
2026-03-22T1100,1431A,103.9727,30.7242,成都市,金泉两河,细颗粒物(PM2.5),72,59,62,46,47,68,68,30,30,18,22,2,1,0.4,0.4
2026-03-22T1100,1432A,104.1423,30.6765,成都市,十里店,细颗粒物(PM2.5),78,66,59,49,37,63,63,34,32,21,20,5,4,0.5,0.4
2026-03-22T1100,4068A,114.5209,36.7697,邯郸市,建安街268号,颗粒物(PM10),80,92,97,21,67,84,84,63,63,11,18,2,3,0.3,0.5
2026-03-22T1100,4069A,114.5488,36.6177,邯郸市,丛台东路558号,颗粒物(PM10),82,94,94,18,63,88,88,50,50,5,17,1,2,0.2,0.5
2026-03-22T1100,2635A,107.0155,33.0707,汉中市,市监测站,颗粒物(PM10),54,55,68,35,36,34,34,13,13,27,29,10,8,1.0,0.8
2026-03-22T1100,2636A,107.0083,33.114,汉中市,鑫源开发区,颗粒物(PM10),60,63,71,34,40,39,39,22,22,22,35,9,9,0.8,0.9
2026-03-22T1100,2637A,107.0072,33.0323,汉中市,南郑大河坎水厂,颗粒物(PM10),52,52,65,30,36,31,31,10,10,22,26,8,5,1.0,0.7
2026-03-22T1100,1223A,120.2073,30.2111,杭州市,滨江,颗粒物(PM10),73,82,68,46,43,50,50,30,30,33,33,8,8,0.9,0.8
2026-03-22T1100,1224A,120.0625,30.2737,杭州市,西溪,颗粒物(PM10),84,97,81,50,45,55,55,32,29,27,24,9,9,0.7,0.7
2026-03-22T1100,1226A,120.3417,30.315,杭州市,下沙,细颗粒物(PM2.5),88,92,77,54,44,58,58,18,18,25,31,9,9,0.7,0.6
2026-03-22T1100,1227A,120.1252,30.2465,杭州市,卧龙桥,颗粒物(PM10),78,89,72,46,43,57,57,30,30,28,27,8,8,0.4,0.3
2026-03-22T1100,1228A,120.1902,30.2691,杭州市,浙江农大,细颗粒物(PM2.5),78,62,67,49,44,52,52,27,27,40,37,7,8,0.7,0.6
2026-03-22T1100,1230A,120.1195,30.3121,杭州市,和睦小学,细颗粒物(PM2.5),101,101,85,61,51,60,60,29,29,20,28,7,8,0.7,0.6
2026-03-22T1100,1231A,120.3076,30.4146,杭州市,临平镇,细颗粒物(PM2.5),107,91,58,67,39,66,66,31,31,32,27,8,7,0.7,0.6
2026-03-22T1100,1232A,120.2753,30.1839,杭州市,城厢镇,细颗粒物(PM2.5),72,74,72,46,46,49,49,27,27,21,24,10,10,0.7,0.6
2026-03-22T1100,1233A,120.0883,30.1808,杭州市,云栖,颗粒物(PM10),75,84,70,39,38,53,53,16,16,34,36,6,6,0.7,0.6
2026-03-22T1100,3557A,119.9463,30.0496,杭州市,镇二中,细颗粒物(PM2.5),98,59,51,59,51,34,34,25,18,37,29,6,5,0.9,0.6
2026-03-22T1100,3558A,119.7184,30.2367,杭州市,市府大楼,细颗粒物(PM2.5),78,55,60,49,42,63,63,40,33,25,23,7,6,0.5,0.3
2026-03-22T1100,3656A,120.1554,30.2863,杭州市,消防大队,细颗粒物(PM2.5),105,85,78,65,53,63,63,27,27,20,30,9,9,0.8,0.7
2026-03-22T1100,1270A,117.1957,31.7845,合肥市,明珠广场,颗粒物(PM10),74,83,82,36,49,88,88,59,58,21,19,7,6,0.7,0.7
2026-03-22T1100,1271A,117.307,31.8765,合肥市,三里街,细颗粒物(PM2.5),78,83,93,49,56,74,74,49,44,32,37,7,6,0.9,0.8
2026-03-22T1100,1272A,117.2587,31.8703,合肥市,琥珀山庄,细颗粒物(PM2.5),66,70,87,43,53,100,100,58,58,30,36,7,7,0.7,0.7
2026-03-22T1100,1275A,117.2593,31.9376,合肥市,庐阳区,颗粒物(PM10),63,68,94,40,54,95,95,59,59,22,35,5,5,0.9,0.9
2026-03-22T1100,1276A,117.345251,31.861615,合肥市,瑶海区,细颗粒物(PM2.5),82,92,96,51,50,70,70,59,53,40,38,7,6,0.8,0.7
2026-03-22T1100,1277A,117.3033,31.7967,合肥市,包河区,颗粒物(PM10),63,68,82,37,43,87,87,61,61,40,42,8,8,0.9,0.9
2026-03-22T1100,1278A,117.278,31.7392,合肥市,滨湖新区,颗粒物(PM10),65,70,80,30,44,92,92,65,63,17,12,4,4,0.8,0.7
2026-03-22T1100,1279A,117.1324,31.8395,合肥市,高新区,颗粒物(PM10),67,73,79,36,58,91,91,70,68,19,22,5,5,0.8,0.8
2026-03-22T1100,3464A,117.3802,31.9148,合肥市,高教基地,细颗粒物(PM2.5),86,88,89,53,50,85,85,62,61,36,31,9,8,0.7,0.6
2026-03-22T1100,4098A,117.2518,31.8404,合肥市,中国科学技术大学,颗粒物(PM10),62,66,81,37,47,96,96,60,59,22,24,6,6,0.8,0.8
2026-03-22T1100,2568A,102.2503,31.8896,阿坝藏族羌族自治州,马师校,,24,19,28,9,10,76,76,53,53,8,9,4,5,0.3,0.3
2026-03-22T1100,3994A,102.2174,31.9016,阿坝藏族羌族自治州,马尔康中学西区,颗粒物(PM10),109,142,22,11,9,75,75,60,60,9,9,3,3,0.4,0.3
2026-03-22T1100,2695A,80.2899,41.1684,阿克苏地区,电视台,细颗粒物(PM2.5),102,118,177,62,78,46,46,25,25,18,30,3,3,0.8,1.1
2026-03-22T1100,2696A,80.2592,41.1541,阿克苏地区,艺术中心,颗粒物(PM10),100,119,176,42,66,54,54,40,40,17,30,3,4,0.3,0.5
2026-03-22T1100,2205A,105.699,38.8409,阿拉善盟,蒙二幼,颗粒物(PM10),73,82,140,22,37,94,94,80,80,5,5,7,7,0.5,0.5
2026-03-22T1100,2206A,105.7198,38.8508,阿拉善盟,环保局新楼,颗粒物(PM10),76,86,128,21,32,88,88,85,84,5,4,7,7,0.3,0.3
2026-03-22T1100,2708A,88.1266,47.8515,阿勒泰地区,市站,,28,18,15,3,3,88,88,84,84,7,10,5,6,0.2,0.2
2026-03-22T1100,4166A,88.1198,47.7931,阿勒泰地区,阿勒泰路33号,,26,8,15,3,2,81,81,83,83,10,8,6,5,0.2,0.2
2026-03-22T1100,2630A,80.1171,32.4999,阿里地区,阿里监测站,,36,10,7,3,3,114,114,120,116,5,3,11,11,0.3,0.3
2026-03-22T1100,3192A,80.0906,32.5029,阿里地区,阿里藏医院,,36,9,5,3,3,115,115,127,124,4,2,7,6,0.2,0.2
2026-03-22T1100,2644A,109.0088,32.6974,安康市,汉滨区检察院,颗粒物(PM10),66,72,77,42,34,46,46,16,16,18,29,8,5,0.6,0.6
2026-03-22T1100,4054A,109.0324,32.6913,安康市,市邮政管理局,颗粒物(PM10),73,81,86,37,34,47,47,20,20,16,28,8,9,0.7,0.7
2026-03-22T1100,2291A,117.0806,30.5181,安庆市,环科院,,42,41,52,29,48,51,51,18,18,20,56,8,7,0.8,0.9
2026-03-22T1100,2292A,117.0331,30.5118,安庆市,马山宾馆,细颗粒物(PM2.5),52,44,47,36,53,34,34,16,16,33,48,5,5,0.9,0.9
2026-03-22T1100,2294A,116.9897,30.6146,安庆市,安庆大学,细颗粒物(PM2.5),54,50,53,37,44,45,45,25,24,31,33,8,4,0.8,0.7
2026-03-22T1100,3173A,117.0598,30.5351,安庆市,市人大,,43,43,50,30,43,50,50,19,19,26,47,7,6,0.8,0.8
2026-03-22T1100,3123A,105.9408,26.2431,安顺市,凤凰山,,20,18,29,14,22,48,48,34,34,15,11,26,14,0.7,0.7
2026-03-22T1100,3124A,105.9443,26.2567,安顺市,金钟山,,18,15,23,12,21,45,45,33,33,11,8,21,11,0.7,0.7
2026-03-22T1100,3125A,105.8983,26.248,安顺市,娄家坡,,22,17,26,15,22,46,46,35,35,13,10,19,12,0.8,0.8
2026-03-22T1100,1819A,114.3552,36.1017,安阳市,红庙街,颗粒物(PM10),95,112,95,55,61,92,92,68,68,17,16,12,4,1.0,0.6
2026-03-22T1100,1820A,114.361,36.0681,安阳市,银杏小区,颗粒物(PM10),97,115,99,51,64,97,97,72,72,15,14,11,4,0.7,0.4
2026-03-22T1100,3141A,114.3921,36.0879,安阳市,信访局,细颗粒物(PM2.5),104,108,103,64,64,100,100,76,76,18,14,12,4,0.7,0.3
2026-03-22T1100,3669A,114.4706,36.0634,安阳市,左辅环卫站,颗粒物(PM10),114,155,122,69,64,96,96,65,65,12,13,11,4,1.0,0.5
2026-03-22T1100,4117A,114.2918,36.0769,安阳市,钢三路198号,颗粒物(PM10),100,119,119,44,62,87,87,64,62,21,19,17,7,1.3,0.7
2026-03-22T1100,1748A,123.0441,41.1201,鞍山市,深沟寺,细颗粒物(PM2.5),123,118,104,85,67,98,98,105,98,19,15,12,10,1.2,0.8
2026-03-22T1100,1749A,123.011,41.0931,鞍山市,太阳城,细颗粒物(PM2.5),128,120,104,90,73,96,96,113,105,22,15,14,9,1.3,0.8
2026-03-22T1100,1750A,123.0483,41.1445,鞍山市,太平,细颗粒物(PM2.5),117,118,108,78,67,85,85,104,95,22,15,12,10,1.0,0.8
2026-03-22T1100,1751A,122.964,41.0968,鞍山市,铁西三道街,细颗粒物(PM2.5),124,124,120,86,74,94,94,104,93,24,24,10,13,1.0,0.9
2026-03-22T1100,1753A,123.0219,41.0822,鞍山市,明达新区,细颗粒物(PM2.5),126,113,104,88,73,95,95,112,104,18,14,11,11,1.0,0.7
2026-03-22T1100,4201A,122.944647,41.082639,鞍山市,兴盛南路290号,细颗粒物(PM2.5),131,130,121,94,76,92,92,101,93,20,21,12,12,1.0,1.2
2026-03-22T1100,2195A,107.4206,40.7609,巴彦淖尔市,附二中,颗粒物(PM10),73,82,167,19,41,76,76,70,67,6,10,19,9,0.3,0.3
2026-03-22T1100,2196A,107.37,40.7372,巴彦淖尔市,市环保大楼,颗粒物(PM10),75,85,171,13,44,81,81,70,63,7,12,7,6,0.4,0.4
2026-03-22T1100,1956A,86.1476,41.7529,巴音郭楞蒙古自治州,孔雀公园,颗粒物(PM10),111,148,157,43,47,57,57,62,58,17,14,10,10,0.3,0.3
2026-03-22T1100,1957A,86.1971,41.7166,巴音郭楞蒙古自治州,棉纺厂,颗粒物(PM10),133,204,189,44,46,70,70,84,76,NA,5,/,/,/,/
2026-03-22T1100,1958A,86.236,41.7172,巴音郭楞蒙古自治州,经济开发区,颗粒物(PM10),113,152,151,44,44,67,67,77,72,7,6,7,7,0.3,0.3
2026-03-22T1100,3181A,106.776805,31.852614,巴中市,市五中,,35,35,29,24,17,14,14,12,8,24,18,9,8,1.0,0.8
2026-03-22T1100,3183A,106.7419,31.8654,巴中市,圣泉水务公司,,25,23,23,17,14,14,14,22,18,17,16,9,9,0.8,0.7
2026-03-22T1100,3616A,106.7617,31.8343,巴中市,市中心医院,,38,38,30,25,18,10,10,8,5,23,20,10,10,0.9,0.8
2026-03-22T1100,2235A,122.7909,45.608,白城市,洮北区环保局,细颗粒物(PM2.5),105,99,205,65,142,116,116,85,85,16,26,4,8,0.4,0.9
2026-03-22T1100,2236A,122.8741,45.5725,白城市,市环保局,细颗粒物(PM2.5),128,166,199,90,143,108,108,77,77,13,24,8,8,0.5,0.8
2026-03-22T1100,2231A,126.4219,41.9172,白山市,喜丰,颗粒物(PM10),73,82,81,42,49,93,93,92,72,36,21,14,13,0.9,0.9
2026-03-22T1100,2232A,126.4082,41.9416,白山市,环保局,颗粒物(PM10),62,66,62,25,49,123,123,85,74,11,15,13,12,0.6,0.7
2026-03-22T1100,2647A,104.1727,36.5448,白银市,第三小学,颗粒物(PM10),134,208,226,73,71,82,82,81,81,14,15,71,43,0.1,0.2
2026-03-22T1100,2648A,104.1467,36.5482,白银市,动力公司,颗粒物(PM10),132,201,236,69,71,81,81,57,57,14,21,70,23,0.5,0.5
2026-03-22T1100,2512A,106.6102,23.901,百色市,市监测站,细颗粒物(PM2.5),101,70,46,61,33,22,22,13,12,24,18,26,20,1.0,0.8
2026-03-22T1100,2513A,106.6524,23.8842,百色市,市中心血站,细颗粒物(PM2.5),120,101,53,81,43,24,24,16,14,32,18,29,19,1.1,0.9
2026-03-22T1100,4133A,106.6273,23.8798,百色市,龙景西路,细颗粒物(PM2.5),115,100,62,76,43,NA,NA,8,5,28,20,30,23,1.1,0.9
2026-03-22T1100,2270A,117.396,32.9389,蚌埠市,工人疗养院,细颗粒物(PM2.5),108,107,109,68,70,88,88,74,58,43,33,7,5,0.6,0.5
2026-03-22T1100,2271A,117.3606,32.9428,蚌埠市,百货大楼,细颗粒物(PM2.5),101,91,95,61,63,103,103,81,64,31,32,9,6,0.6,0.6
2026-03-22T1100,2273A,117.4183,32.8909,蚌埠市,蚌埠学院,细颗粒物(PM2.5),104,78,88,64,64,94,94,73,67,27,28,8,5,0.7,0.6
2026-03-22T1100,2274A,117.3534,32.9672,蚌埠市,淮上区政府,细颗粒物(PM2.5),108,95,95,68,71,90,90,74,60,46,34,10,6,0.6,0.5
2026-03-22T1100,2275A,117.3143,32.8977,蚌埠市,高新区,细颗粒物(PM2.5),106,92,90,66,63,97,97,80,72,31,26,10,7,0.7,0.6
2026-03-22T1100,3715A,117.3091,32.9314,蚌埠市,蚌埠田家炳中学,颗粒物(PM10),104,128,104,61,67,105,105,85,76,29,26,10,6,0.5,0.5
2026-03-22T1100,1585A,109.8761,40.6533,包头市,市环境监测站,,29,27,137,3,32,91,91,76,75,7,19,5,10,0.3,0.5
2026-03-22T1100,1587A,109.9992,40.5843,包头市,包头八中,,30,30,127,9,41,83,83,67,67,6,20,9,10,0.3,0.4
2026-03-22T1100,1589A,109.8641,40.6288,包头市,惠龙物流,,30,30,138,3,36,83,83,73,72,8,17,5,9,0.2,0.4
2026-03-22T1100,1590A,110.0376,40.5546,包头市,东河鸿龙湾,,31,31,133,9,37,84,84,60,60,9,33,9,10,0.3,0.5
2026-03-22T1100,3283A,109.9154,40.5684,包头市,滨河大厦,,27,20,131,11,41,86,86,68,68,6,23,9,11,0.4,0.6
2026-03-22T1100,3419A,109.9449,40.6259,包头市,包头市委党校,,28,19,108,19,33,83,83,69,69,7,20,11,10,0.4,0.5
2026-03-22T1100,3683A,109.8332,40.6577,包头市,昆区政府,,27,22,135,7,37,85,85,73,72,10,23,4,11,0.4,0.6
2026-03-22T1100,1931A,107.0802,34.3129,宝鸡市,竹园沟,颗粒物(PM10),121,174,99,47,37,78,78,57,57,17,19,7,7,0.3,0.4
2026-03-22T1100,1933A,107.1429,34.3549,宝鸡市,监测站,颗粒物(PM10),109,141,101,39,42,54,54,22,22,17,30,9,9,0.2,0.4
2026-03-22T1100,1934A,107.1172,34.3759,宝鸡市,技工学校,颗粒物(PM10),113,152,96,36,38,65,65,28,28,12,24,6,6,0.4,0.5
2026-03-22T1100,1936A,107.2025,34.3518,宝鸡市,文理学院,颗粒物(PM10),103,126,102,36,44,52,52,26,26,16,26,5,7,0.4,0.6
2026-03-22T1100,1937A,107.2396,34.3626,宝鸡市,三迪小学,颗粒物(PM10),103,127,107,40,44,56,56,18,18,19,36,6,7,0.5,0.6
2026-03-22T1100,4155A,107.1721,34.3558,宝鸡市,滨河北路,颗粒物(PM10),104,128,119,42,51,60,60,23,23,14,29,6,8,0.5,0.7
2026-03-22T1100,4308A,107.3898,34.3601,宝鸡市,陈仓区北开路21号,颗粒物(PM10),125,184,130,49,56,64,64,29,29,21,34,29,33,0.4,0.7
2026-03-22T1100,1051A,115.4803,38.8568,保定市,游泳馆,,44,44,122,19,92,82,82,56,56,9,32,11,13,0.5,0.6
2026-03-22T1100,1052A,115.509,38.8895,保定市,华电二区,颗粒物(PM10),53,54,109,7,81,80,80,54,54,6,26,1,3,0.4,0.8
2026-03-22T1100,1053A,115.4588,38.9037,保定市,接待中心,,44,44,115,9,84,85,85,56,56,7,30,3,5,0.2,0.5
2026-03-22T1100,1054A,115.4484,38.8344,保定市,地表水厂,颗粒物(PM10),55,56,130,6,77,83,83,54,54,10,37,6,7,0.2,0.6
2026-03-22T1100,3581A,115.3136,38.9511,保定市,满城区生态环境分局,,48,48,127,6,68,89,89,64,64,7,27,5,9,0.2,0.5
2026-03-22T1100,3582A,115.4709,38.7628,保定市,清苑区第二中学,NA,NA,74,143,11,83,NA,NA,47,46,7,36,6,9,0.3,0.5
2026-03-22T1100,3583A,115.6231,39.0223,保定市,徐水物探局,颗粒物(PM10),75,84,154,23,91,84,84,50,50,7,37,2,4,0.3,0.6
2026-03-22T1100,4004A,115.4199,38.8665,保定市,双鹰农机,颗粒物(PM10),66,72,157,3,90,89,89,56,56,9,34,4,6,0.2,0.6
2026-03-22T1100,4034A,115.515,38.8589,保定市,植保所站,颗粒物(PM10),55,57,136,6,89,80,80,55,55,9,33,3,5,0.1,0.4
2026-03-22T1100,2594A,99.1589,25.1137,保山市,市环境监测站,,49,36,37,34,28,50,50,52,44,22,12,5,5,0.4,0.3
2026-03-22T1100,2595A,99.1616,25.1381,保山市,市环保局,细颗粒物(PM2.5),60,45,41,40,30,52,52,61,51,17,8,4,5,0.5,0.4
2026-03-22T1100,1867A,109.1435,21.4085,北海市,海滩公园,,21,21,29,3,16,47,47,43,43,8,9,8,8,0.5,0.5
2026-03-22T1100,1868A,109.0983,21.466,北海市,新市环保局,,20,20,27,12,16,47,47,44,44,7,9,8,8,0.6,0.6
2026-03-22T1100,1869A,109.1775,21.5232,北海市,北海工业园,NA,NA,20,36,15,20,NA,NA,40,39,4,8,7,7,0.4,0.5
2026-03-22T1100,3400A,109.1844,21.4396,北海市,龙潭自来水厂,,22,22,28,14,14,41,41,37,37,5,7,3,4,0.6,0.6
2026-03-22T1100,1001A,116.3611,39.8786,北京市,万寿西宫,,45,45,134,22,86,71,71,27,27,18,47,3,6,0.5,0.8
2026-03-22T1100,1003A,116.4174,39.9289,北京市,东四,,45,45,136,18,87,72,72,31,31,17,47,7,9,0.3,0.8
2026-03-22T1100,1004A,116.4073,39.8858,北京市,天坛,,48,48,126,22,83,60,60,23,23,22,35,4,5,0.6,0.9
2026-03-22T1100,1005A,116.4622,39.9364,北京市,农展馆,,43,43,139,19,91,70,70,25,25,15,43,6,8,0.4,0.9
2026-03-22T1100,1006A,116.3399,39.9293,北京市,官园,,48,48,128,22,83,57,57,26,26,26,50,3,5,0.3,0.7
2026-03-22T1100,1007A,116.2879,39.9613,北京市,海淀万柳,,44,44,120,19,73,52,52,15,15,15,49,4,6,0.2,0.6
2026-03-22T1100,1008A,116.6635,40.1349,北京市,顺义新城,细颗粒物(PM2.5),143,150,160,107,97,108,108,51,51,13,31,8,9,0.5,0.6
2026-03-22T1100,1009A,116.6275,40.327,北京市,怀柔镇,细颗粒物(PM2.5),139,156,121,102,78,96,96,58,58,18,28,7,8,0.8,0.9
2026-03-22T1100,1010A,116.2295,40.217,北京市,昌平镇,,32,32,104,12,66,67,67,53,53,17,31,3,5,0.4,0.8
2026-03-22T1100,1011A,116.3968,39.982,北京市,奥体中心,,40,40,127,17,80,62,62,15,15,15,54,5,7,0.4,0.9
2026-03-22T1100,3418A,116.8336,40.4095,北京市,密云新城,细颗粒物(PM2.5),139,151,147,102,85,102,102,54,54,11,31,6,5,0.8,0.9
2026-03-22T1100,3671A,116.0879,39.9725,北京市,门头沟三家店,,35,35,119,23,68,74,74,32,32,7,41,5,6,0.3,0.6
2026-03-22T1100,3672A,116.1507,39.8246,北京市,丰台云岗,,48,48,128,24,73,73,73,42,42,14,38,4,5,0.4,0.7
2026-03-22T1100,3674A,115.9578,39.7602,北京市,房山燕山,,23,23,110,8,65,73,73,52,52,5,28,4,6,0.3,0.6
2026-03-22T1100,3675A,116.4669,39.7734,北京市,大兴旧宫,颗粒物(PM10),58,60,143,26,86,65,65,20,20,18,45,5,7,0.4,0.7
2026-03-22T1100,3694A,115.9859,40.4562,北京市,延庆石河营,,39,39,103,15,64,69,69,26,26,13,36,4,4,0.4,0.8
2026-03-22T1100,3695A,116.6151,40.3052,北京市,怀柔新城,细颗粒物(PM2.5),138,148,116,101,79,97,97,62,62,14,20,5,6,0.7,0.8
2026-03-22T1100,3696A,116.2542,39.8764,北京市,丰台小屯,颗粒物(PM10),52,52,134,24,75,66,66,21,21,20,57,5,6,0.3,0.6
2026-03-22T1100,3697A,116.8399,40.3843,北京市,密云镇,细颗粒物(PM2.5),146,148,141,110,90,104,104,42,42,14,42,7,6,0.7,0.8
2026-03-22T1100,4057A,115.9423,40.4431,北京市,延庆百泉,,34,34,101,13,59,59,59,26,24,15,32,3,2,0.4,0.7
2026-03-22T1100,4058A,116.6598,39.9164,北京市,通州新华,细颗粒物(PM2.5),121,144,176,83,106,58,58,16,16,52,56,8,8,0.6,0.8
2026-03-22T1100,4182A,116.1942,39.9158,北京市,石景山八角,颗粒物(PM10),53,53,133,30,74,69,69,25,25,9,41,3,4,0.3,0.7
2026-03-22T1100,4194A,117.078628,40.151726,北京市,平谷新城,细颗粒物(PM2.5),126,127,168,88,112,95,95,53,53,19,26,3,4,0.7,0.9
2026-03-22T1100,1761A,123.8274146,41.31234549,本溪市,大峪,细颗粒物(PM2.5),118,124,96,79,62,75,75,108,96,26,15,11,11,0.8,0.7
2026-03-22T1100,1763A,123.7169,41.3094,本溪市,彩屯,细颗粒物(PM2.5),109,102,100,69,65,80,80,98,91,32,27,19,17,2.5,2.2
2026-03-22T1100,1764A,123.7672166,41.28649327,本溪市,东明,细颗粒物(PM2.5),104,NA,76,64,58,92,92,110,102,17,14,9,10,0.7,0.6
2026-03-22T1100,1765A,123.799345,41.266614,本溪市,新立屯,细颗粒物(PM2.5),90,59,67,55,52,92,92,113,104,16,12,9,8,0.6,0.6
2026-03-22T1100,1766A,123.829144,41.336777,本溪市,威宁,细颗粒物(PM2.5),100,97,93,60,54,72,72,104,91,27,16,9,9,0.7,0.6
2026-03-22T1100,2587A,105.287,27.3133,毕节市,八中,,29,29,35,18,25,62,62,69,68,21,8,14,11,0.6,0.6
2026-03-22T1100,2588A,105.3079,27.2987,毕节市,师专,,26,26,35,14,25,55,55,65,63,20,9,14,10,0.5,0.6
2026-03-22T1100,4263A,105.3688,27.3598,毕节市,工业大道,,26,24,37,11,24,82,82,71,71,9,9,10,10,/,/
2026-03-22T1100,1629A,117.9961,37.3604,滨州市,第二水厂,细颗粒物(PM2.5),132,124,128,95,89,119,119,98,96,15,22,15,14,0.9,0.8
2026-03-22T1100,1630A,117.9789,37.3931,滨州市,北中新校,细颗粒物(PM2.5),138,127,125,101,91,113,113,108,101,18,23,10,13,0.5,0.5
2026-03-22T1100,3514A,117.9379,37.3959,滨州市,中海酒店,细颗粒物(PM2.5),137,134,127,100,89,119,119,107,100,20,24,16,14,0.7,0.7
2026-03-22T1100,3515A,117.9381509,37.35547456,滨州市,开发区一中,细颗粒物(PM2.5),130,134,131,93,88,108,108,91,88,11,16,24,20,0.9,0.9
2026-03-22T1100,3516A,118.0914,37.6938,滨州市,金海六路,细颗粒物(PM2.5),130,117,123,93,92,106,106,90,85,16,31,11,11,0.9,0.9
2026-03-22T1100,4028A,117.9955,37.3752,滨州市,滨州市西街道办事处,细颗粒物(PM2.5),134,127,132,97,88,116,116,96,96,18,23,15,14,0.9,0.8
2026-03-22T1100,2311A,115.8071,33.8399,亳州市,污水处理厂,颗粒物(PM10),79,90,113,49,73,103,103,74,74,14,19,7,7,0.2,0.3
2026-03-22T1100,2312A,115.7789,33.8519,亳州市,三国揽胜宫,颗粒物(PM10),95,112,125,56,74,93,93,71,71,12,15,7,6,0.3,0.3
2026-03-22T1100,3332A,115.7631,33.803,亳州市,亳州学院,细颗粒物(PM2.5),80,90,110,50,69,95,95,80,78,9,13,7,6,0.3,0.3
2026-03-22T1100,2693A,82.0482,44.8553,博尔塔拉蒙古自治州,市党校,颗粒物(PM10),53,54,49,14,19,56,56,52,51,7,4,3,3,0.6,0.3
2026-03-22T1100,2694A,82.0805,44.8966,博尔塔拉蒙古自治州,市环保局,,44,44,42,29,20,31,31,31,28,17,22,1,3,0.4,0.4
2026-03-22T1100,1071A,116.8733,38.2922,沧州市,沧县城建局,颗粒物(PM10),90,105,119,54,85,88,88,63,61,19,23,5,5,0.6,0.7
2026-03-22T1100,1072A,116.8462,38.3189,沧州市,电视转播站,细颗粒物(PM2.5),110,102,111,71,83,85,85,66,60,18,20,2,3,0.5,0.5
2026-03-22T1100,1073A,116.8588,38.3161,沧州市,市环保局,细颗粒物(PM2.5),156,NA,127,119,80,89,89,66,66,15,18,12,11,0.4,0.5
2026-03-22T1100,3324A,116.8011,38.294,沧州市,河北水利电力学院,细颗粒物(PM2.5),115,100,123,76,83,86,86,61,61,15,23,11,11,0.4,0.5
2026-03-22T1100,2622A,97.1813,31.1289,昌都市,昌都监测站,,25,16,8,3,3,80,80,76,67,8,4,4,4,0.6,0.5
2026-03-22T1100,3719A,97.1707,31.1428,昌都市,昌都会议中心,,29,15,8,8,6,90,90,92,83,9,4,5,6,0.4,0.3
2026-03-22T1100,2692A,87.2722,44.0298,昌吉回族自治州,新区政务中心,,48,44,39,33,29,56,56,30,30,21,30,12,7,1.0,0.6
2026-03-22T1100,3613A,87.3069,44.0093,昌吉回族自治州,亚心广场,细颗粒物(PM2.5),66,61,48,43,26,65,65,36,36,25,25,18,11,0.9,0.8
2026-03-22T1100,4164A,87.2057,43.9289,昌吉回族自治州,财政所,,43,43,49,19,22,58,58,40,39,7,10,10,8,0.6,0.5
2026-03-22T1100,1120A,125.2874,43.9024,长春市,客车厂,细颗粒物(PM2.5),140,NA,154,104,111,65,65,64,52,36,33,10,12,0.9,0.9
2026-03-22T1100,1121A,125.2943,43.8508,长春市,邮电学院,细颗粒物(PM2.5),147,NA,159,111,104,56,56,65,50,45,28,11,11,0.9,0.8
2026-03-22T1100,1122A,125.3648,43.8745,长春市,劳动公园,细颗粒物(PM2.5),140,NA,145,104,101,60,60,63,52,35,27,10,10,1.1,0.9
2026-03-22T1100,1123A,125.3233,43.8781,长春市,园林处,细颗粒物(PM2.5),139,NA,145,102,106,57,57,71,59,35,27,9,11,0.9,0.8
2026-03-22T1100,1124A,125.4604,43.7904,长春市,净月潭,细颗粒物(PM2.5),137,101,144,100,108,52,52,87,71,26,21,13,10,0.8,0.7
2026-03-22T1100,1126A,125.38,43.8422,长春市,经开区环卫处,细颗粒物(PM2.5),147,112,160,111,107,53,53,31,26,39,40,8,9,1.0,0.9
2026-03-22T1100,1127A,125.234,43.7761,长春市,高新区管委会,细颗粒物(PM2.5),160,NA,147,122,100,48,48,58,53,43,31,12,10,1.1,0.9
2026-03-22T1100,1128A,125.1695,43.83,长春市,岱山公园,细颗粒物(PM2.5),152,NA,164,116,115,61,61,73,52,35,36,7,8,0.7,0.7
2026-03-22T1100,4281A,125.334645,43.916281,长春市,北亚泰大街1068号,细颗粒物(PM2.5),141,NA,164,105,111,54,54,47,38,43,37,10,12,0.9,0.8
2026-03-22T1100,1335A,113.082,28.2421,长沙市,经开区环保局,,18,16,34,12,19,30,30,20,20,21,31,2,3,0.7,0.6
2026-03-22T1100,1336A,112.8873,28.2202,长沙市,高开区环保局,,17,17,34,9,22,26,26,21,21,28,27,4,4,1.0,0.9
2026-03-22T1100,1337A,113.0785,28.2012,长沙市,马坡岭,,22,22,33,14,21,15,15,7,7,32,31,4,4,0.8,0.8
2026-03-22T1100,1338A,112.9448,28.1894,长沙市,湖南师范大学,,17,17,33,10,21,32,32,24,24,19,23,4,4,1.1,1.1
2026-03-22T1100,1339A,113.0177,28.1322,长沙市,雨花区环保局,,16,13,35,11,25,28,28,17,17,21,29,3,4,1.1,1
2026-03-22T1100,1340A,112.9795,28.2593,长沙市,伍家岭,,19,14,41,13,27,36,36,23,23,15,32,3,3,0.2,0.5
2026-03-22T1100,1341A,113.002,28.1944,长沙市,火车新站,,22,22,37,14,26,33,33,24,24,23,33,3,4,1.0,0.8
2026-03-22T1100,1342A,112.9846,28.1177,长沙市,天心区环保局,,20,20,33,13,26,29,29,21,21,25,31,5,5,0.9,0.9
2026-03-22T1100,1343A,112.8906,28.1307,长沙市,湖南中医药大学,,16,13,33,11,20,40,40,22,22,13,25,5,6,0.8,0.9
2026-03-22T1100,1727A,113.1146,36.1547,长治市,清华站,颗粒物(PM10),89,104,71,29,36,84,84,65,60,15,17,16,11,0.6,0.6
2026-03-22T1100,1730A,113.0887,36.2126,长治市,审计局,颗粒物(PM10),89,104,78,27,37,82,82,65,60,16,16,19,12,0.6,0.7
2026-03-22T1100,1731A,113.0845,36.1856,长治市,长治八中,颗粒物(PM10),110,144,90,36,40,81,81,63,58,12,13,19,12,0.7,0.7
2026-03-22T1100,1433A,104.0594,30.5765,成都市,三瓦窑,细颗粒物(PM2.5),76,NA,59,48,41,51,51,32,32,28,18,2,2,0.9,0.7
2026-03-22T1100,1434A,104.1122,30.6306,成都市,沙河铺,细颗粒物(PM2.5),88,62,55,54,36,41,41,24,21,42,29,5,5,0.7,0.5
2026-03-22T1100,2880A,104.0219,30.6561,成都市,大石西路,细颗粒物(PM2.5),100,NA,65,60,47,55,55,33,32,27,22,8,7,0.8,0.7
2026-03-22T1100,3136A,104.2724,30.559,成都市,龙泉驿区区政府,细颗粒物(PM2.5),66,68,48,43,31,66,66,36,36,17,16,7,7,0.6,0.6
2026-03-22T1100,3357A,104.0028,30.6891,成都市,金博路,细颗粒物(PM2.5),82,NA,54,51,44,61,61,26,26,33,29,6,6,0.8,0.7
2026-03-22T1100,3359A,104.056,30.5228,成都市,华阳,细颗粒物(PM2.5),76,66,58,48,39,55,55,42,42,32,23,4,4,0.6,0.5
2026-03-22T1100,3488A,104.387954,30.746684,成都市,青石路225号,细颗粒物(PM2.5),88,55,54,54,39,52,52,14,14,22,25,7,6,0.8,0.7
2026-03-22T1100,3489A,104.0788,30.4054,成都市,科学城,细颗粒物(PM2.5),86,69,56,53,38,56,56,46,46,17,16,8,8,0.9,0.7
2026-03-22T1100,4011A,103.8505,30.6946,成都市,光华大道三段,细颗粒物(PM2.5),70,49,71,45,46,64,64,37,32,29,26,3,3,0.7,0.6
2026-03-22T1100,4144A,104.3257,30.6406,成都市,八角井街185号,细颗粒物(PM2.5),98,NA,58,59,38,51,51,24,24,24,19,4,4,0.8,0.7
2026-03-22T1100,4224A,104.2433276,30.53529463,成都市,鲸龙路1057号,细颗粒物(PM2.5),74,68,55,47,34,64,64,36,36,17,21,7,6,0.6,0.5
2026-03-22T1100,1062A,117.9531,40.908,承德市,铁路,细颗粒物(PM2.5),128,163,126,90,73,96,96,52,52,27,31,8,6,0.7,0.7
2026-03-22T1100,1063A,117.9397,40.9763,承德市,中国银行,细颗粒物(PM2.5),130,148,119,93,71,99,99,49,49,23,24,5,4,0.7,0.8
2026-03-22T1100,4073A,117.9462,40.95,承德市,杏林街1号,细颗粒物(PM2.5),133,166,125,96,80,104,104,65,65,24,22,7,6,0.7,0.8
2026-03-22T1100,4274A,117.7994,40.9605,承德市,滨河大街98号,颗粒物(PM10),88,103,96,51,74,104,104,55,55,25,27,6,8,0.5,0.7
2026-03-22T1100,2314A,117.4698,30.6617,池州市,池州学院,,35,35,30,21,23,67,67,34,34,21,25,8,4,1.0,0.8
2026-03-22T1100,3237A,117.4918,30.6617,池州市,展览馆,,34,34,33,22,27,68,68,29,29,21,24,8,3,1.2,1
2026-03-22T1100,3333A,117.5626,30.695,池州市,第八中学,,28,28,29,17,21,67,67,35,35,20,27,7,4,1.1,0.8
2026-03-22T1100,3334A,117.5037,30.6242,池州市,第十二中学,,40,37,27,28,21,62,62,20,20,24,32,3,3,0.7,0.9
2026-03-22T1100,1744A,118.9229,42.2816,赤峰市,松山一中,细颗粒物(PM2.5),153,137,82,117,52,122,122,89,89,24,18,8,6,0.7,0.5
2026-03-22T1100,1745A,118.9588,42.2733,赤峰市,哈达街,细颗粒物(PM2.5),163,149,92,124,52,100,100,74,74,27,20,14,11,0.9,0.6
2026-03-22T1100,1746A,118.8792,42.2551,赤峰市,天义路,细颗粒物(PM2.5),133,109,72,96,46,115,115,84,81,22,15,8,6,0.7,0.5
2026-03-22T1100,3058A,119.2656,42.0356,赤峰市,银河街,细颗粒物(PM2.5),219,212,127,169,76,130,130,90,90,24,17,13,17,0.8,0.6
2026-03-22T1100,3286A,118.9359,42.3146,赤峰市,桥北物流园区,细颗粒物(PM2.5),148,137,82,112,49,117,117,85,85,19,14,4,4,0.8,0.6
2026-03-22T1100,2521A,107.3473,22.4137,崇左市,市环保局江州分局,细颗粒物(PM2.5),125,101,76,87,54,27,27,14,14,27,20,12,9,1.1,0.9
2026-03-22T1100,4256A,107.375,22.3736,崇左市,石景林东路7号,细颗粒物(PM2.5),132,114,73,95,60,32,32,16,16,31,22,7,5,1.2,1
2026-03-22T1100,3207A,118.31131,32.3033,滁州市,市政府原办公楼,细颗粒物(PM2.5),131,NA,74,94,66,77,77,61,61,28,24,9,5,0.7,0.5
2026-03-22T1100,3331A,118.3268,32.2633,滁州市,图书馆,细颗粒物(PM2.5),104,93,78,64,48,77,77,60,60,28,24,13,9,0.7,0.5
2026-03-22T1100,4101A,118.3196,32.3335,滁州市,银山路666号,细颗粒物(PM2.5),119,NA,73,80,55,80,80,46,46,26,26,14,10,0.9,0.7
2026-03-22T1100,4102A,118.3426,32.2979,滁州市,黄山路555号,细颗粒物(PM2.5),119,103,93,80,57,81,81,69,61,33,29,10,7,1.0,0.7
2026-03-22T1100,2606A,101.5379,25.0492,楚雄彝族自治州,市经济开发区,,45,42,55,31,37,83,83,64,64,11,14,4,4,0.6,0.6
2026-03-22T1100,4153A,101.5536,25.0343,楚雄彝族自治州,团结路562号,,50,37,44,35,35,86,86,66,66,10,14,2,4,0.5,0.4
2026-03-22T1100,2549A,107.5087,31.2186,达州市,市环境监测站,,43,43,40,17,15,33,33,6,6,21,30,14,6,0.3,0.4
2026-03-22T1100,2550A,107.4988,31.2132,达州市,凤凰小区,,41,41,40,16,17,39,39,8,8,16,30,14,6,0.3,0.4
2026-03-22T1100,2551A,107.5081,31.1987,达州市,达县机关宾馆,,36,36,45,17,21,38,38,8,8,21,34,11,5,0.5,0.6
2026-03-22T1100,2552A,107.4644,31.2124,达州市,市政中心,颗粒物(PM10),51,51,47,17,15,35,35,9,9,25,31,10,5,0.5,0.6
2026-03-22T1100,2614A,100.2168,25.5818,大理白族自治州,大理市环境监测站,,32,29,33,22,24,87,87,88,88,9,8,6,7,0.6,0.5
2026-03-22T1100,2615A,100.1542,25.7055,大理白族自治州,大理古城,,43,31,30,30,23,80,80,85,80,14,9,10,9,0.8,0.6
2026-03-22T1100,1109A,121.6119,38.974,大连市,甘井子,细颗粒物(PM2.5),94,74,98,57,68,97,97,97,94,26,25,8,9,0.6,0.6
2026-03-22T1100,1110A,121.565,38.9509,大连市,周水子,细颗粒物(PM2.5),96,90,108,58,72,89,89,84,79,25,27,10,11,0.7,0.8
2026-03-22T1100,1111A,121.5637,38.8849,大连市,星海三站,细颗粒物(PM2.5),70,62,75,45,60,93,93,86,84,17,20,4,5,0.7,0.7
2026-03-22T1100,1112A,121.6301,38.9117,大连市,青泥洼桥,细颗粒物(PM2.5),74,65,86,47,62,107,107,95,94,12,16,5,5,0.6,0.8
2026-03-22T1100,1113A,121.6248,38.8643,大连市,傅家庄,细颗粒物(PM2.5),78,71,86,49,56,91,91,93,90,23,23,7,7,0.6,0.6
2026-03-22T1100,1114A,121.5117,38.8636,大连市,七贤岭,细颗粒物(PM2.5),74,60,83,47,57,98,98,88,86,17,25,6,7,0.6,0.6
2026-03-22T1100,1116A,121.7507,39.1339,大连市,金州,细颗粒物(PM2.5),90,73,88,55,71,100,100,100,97,20,21,6,8,0.7,0.7
2026-03-22T1100,1117A,121.7811,39.0495,大连市,开发区,细颗粒物(PM2.5),76,69,79,48,61,99,99,90,87,18,24,7,9,0.6,0.7
2026-03-22T1100,1118A,121.9762,39.0631,大连市,双D港,细颗粒物(PM2.5),84,62,83,52,66,91,91,88,85,27,26,6,6,0.7,0.7
2026-03-22T1100,4082A,121.2548,38.8188,大连市,旅顺,细颗粒物(PM2.5),76,67,80,48,59,79,79,84,82,25,22,7,7,0.5,0.5
2026-03-22T1100,1789A,124.8085,46.0381,大庆市,大同区,细颗粒物(PM2.5),111,87,156,72,102,95,95,67,67,12,24,11,13,0.5,0.7
2026-03-22T1100,1790A,125.1166,46.5255,大庆市,龙凤区,细颗粒物(PM2.5),108,80,176,68,126,78,78,49,49,22,42,5,7,0.3,0.8
2026-03-22T1100,1791A,124.8894,46.4007,大庆市,红岗区,NA,NA,NA,127,NA,102,NA,NA,138,50,NA,24,NA,11,NA,0.8
2026-03-22T1100,1792A,125.1391,46.578,大庆市,萨尔图区,细颗粒物(PM2.5),106,97,200,66,133,70,70,46,46,31,45,5,9,0.7,1.1
2026-03-22T1100,1793A,124.9026,46.6217,大庆市,让胡路区,NA,NA,47,140,29,113,149,149,61,61,12,28,NA,8,0.5,0.9
2026-03-22T1100,3481A,125.127,46.6277,大庆市,萨区政府监测点,颗粒物(PM10),88,103,193,46,127,71,71,38,38,22,34,10,11,0.4,0.8
2026-03-22T1100,1723A,113.2926,40.0759,大同市,云冈宾馆,,35,35,112,3,40,75,75,50,50,11,24,5,10,0.5,0.7
2026-03-22T1100,1724A,113.3437,40.0921,大同市,大同大学,颗粒物(PM10),52,52,132,8,38,83,83,54,54,12,29,3,10,0.4,0.6
2026-03-22T1100,1725A,113.2637,40.129,大同市,安家小村,,36,36,135,3,42,77,77,48,48,9,22,13,17,0.4,0.8
2026-03-22T1100,3282A,113.3399,40.0586,大同市,大同市卫生学校,,41,41,134,10,39,84,84,46,46,10,25,3,9,0.3,0.5
2026-03-22T1100,3565A,113.1371,40.1122,大同市,云冈站,,36,36,114,6,30,77,77,46,46,8,18,6,8,0.4,0.5
2026-03-22T1100,3566A,113.1186,40.2556,大同市,图书馆,颗粒物(PM10),51,51,115,3,28,77,77,53,53,7,12,4,7,0.5,0.7
2026-03-22T1100,3567A,113.5931,40.0459,大同市,区一中,颗粒物(PM10),73,81,131,3,40,86,86,63,63,4,17,9,17,0.9,0.9
2026-03-22T1100,4199A,113.2798248,40.09972476,大同市,魏都大道141号,,45,45,141,3,39,78,78,45,45,9,22,7,12,0.4,0.7
2026-03-22T1100,2269A,124.1068,50.4091,大兴安岭地区,科技局,,27,19,21,6,11,84,84,76,76,1,3,6,6,0.4,0.4
2026-03-22T1100,3663A,124.117,50.4279,大兴安岭地区,红旗社区,NA,NA,14,15,6,13,NA,NA,64,64,3,12,11,11,0.4,0.5
2026-03-22T1100,1600A,124.33,40.0625,丹东市,江湾东路,NA,NA,62,56,47,41,NA,NA,109,109,14,14,NA,8,0.9,0.8
2026-03-22T1100,1601A,124.4242,40.1513,丹东市,临江后街,细颗粒物(PM2.5),90,77,78,55,53,121,121,66,66,13,17,15,14,0.6,0.8
2026-03-22T1100,1602A,124.3935,40.1461,丹东市,元宝山,细颗粒物(PM2.5),84,73,65,52,45,119,119,96,96,14,16,9,12,0.6,0.8
2026-03-22T1100,1603A,124.3634,40.1093,丹东市,民主桥,细颗粒物(PM2.5),80,75,74,50,44,127,127,106,106,15,14,7,6,0.4,0.5
2026-03-22T1100,3541A,109.5726195,19.51688767,儋州市,第一中学子站,,18,18,26,8,16,47,47,37,37,3,5,6,6,0.3,0.4
2026-03-22T1100,3542A,109.5567,19.5187,儋州市,东坡学校子站,,19,19,26,10,14,52,52,41,41,2,5,6,7,0.3,0.4
2026-03-22T1100,2616A,98.5611,24.4273,德宏傣族景颇族自治州,德宏州监测站,,49,NA,46,34,44,35,35,24,24,11,16,6,6,1.0,0.9
2026-03-22T1100,3677A,98.5887,24.4366,德宏傣族景颇族自治州,芒市人民政府综合楼,细颗粒物(PM2.5),52,38,71,36,41,40,40,29,29,14,20,2,2,0.9,0.7
2026-03-22T1100,1901A,104.424,31.1209,德阳市,东山公园,细颗粒物(PM2.5),102,74,53,62,42,37,37,22,22,34,23,7,3,0.8,0.7
2026-03-22T1100,1902A,104.3827,31.1318,德阳市,西小区,细颗粒物(PM2.5),103,102,69,63,44,35,35,12,12,41,30,9,6,1.0,0.8
2026-03-22T1100,1904A,104.3553,31.1091,德阳市,耐火材料厂,细颗粒物(PM2.5),102,94,70,62,50,39,39,13,13,38,29,6,3,0.7,0.7
2026-03-22T1100,4145A,104.4144,31.1495,德阳市,市林业局,细颗粒物(PM2.5),109,102,55,69,42,38,38,10,10,36,27,9,6,0.9,0.7
2026-03-22T1100,1622A,116.3034,37.4675,德州市,儿童乐园,颗粒物(PM10),96,114,129,52,74,93,93,82,76,21,21,16,13,0.8,0.8
2026-03-22T1100,1624A,116.2992,37.4449,德州市,监理站,颗粒物(PM10),96,114,127,55,71,101,101,85,77,21,24,9,4,1.1,0.8
2026-03-22T1100,3066A,116.2722,37.438,德州市,九衢泉纯净水厂,颗粒物(PM10),91,107,119,54,72,94,94,68,60,21,28,8,5,0.6,0.6
2026-03-22T1100,3371A,116.3693,37.44,德州市,开发区人民医院,细颗粒物(PM2.5),101,117,127,61,74,89,89,87,80,20,19,10,8,0.7,0.7
2026-03-22T1100,3511A,116.5687,37.3331,德州市,陵城艺术中心,细颗粒物(PM2.5),126,117,121,88,83,91,91,83,77,14,15,11,6,0.9,0.9
2026-03-22T1100,4292A,116.352738,37.420875,德州市,新河东路,细颗粒物(PM2.5),104,114,124,64,71,86,86,81,70,17,17,12,11,0.7,0.7
2026-03-22T1100,2621A,99.7054,27.8319,迪庆藏族自治州,迪庆州站,NA,NA,NA,16,11,11,88,88,94,89,6,7,8,8,NA,0.6
2026-03-22T1100,3180A,99.7122,27.8129,迪庆藏族自治州,质量技术监督局,,30,25,23,9,11,96,96,107,102,6,7,5,6,0.4,0.4
2026-03-22T1100,4257A,104.6092,35.5962,定西市,将台街,颗粒物(PM10),111,148,170,45,55,98,98,90,87,5,9,8,9,0.3,0.3
2026-03-22T1100,4309A,104.6159,35.5701,定西市,正龙路62号,NA,NA,NA,171,NA,43,NA,NA,77,73,6,9,4,6,0.3,0.3
2026-03-22T1100,4071A,114.9883,38.5232,定州市,交通局,颗粒物(PM10),65,70,122,3,68,77,77,61,60,10,26,12,15,0.4,0.7
2026-03-22T1100,4072A,115.0045,38.5136,定州市,第五中学,颗粒物(PM10),63,68,128,6,65,80,80,63,63,9,25,8,10,0.3,0.7
2026-03-22T1100,1390A,113.7943,23.0132,东莞市,东城石井,,33,33,45,18,28,100,100,78,78,17,32,3,4,0.6,0.6
2026-03-22T1100,1391A,113.7384,22.9659,东莞市,南城西平,,31,31,44,18,33,80,80,69,69,20,30,5,5,0.6,0.7
2026-03-22T1100,3319A,113.7283,23.041,东莞市,万江金泰,,29,29,49,18,32,92,92,78,78,16,27,5,5,0.7,0.7
2026-03-22T1100,4129A,113.8666,23.1062,东莞市,裕兴路,,48,48,52,24,28,90,90,76,76,21,22,8,8,0.7,0.8
2026-03-22T1100,4130A,114.0076,22.9739,东莞市,教育路1号,,38,38,49,19,31,96,96,71,67,18,29,6,5,0.7,0.7
2026-03-22T1100,4131A,113.7981,22.8124,东莞市,长怡路1号,,39,39,51,17,28,83,83,74,74,21,32,4,4,0.7,0.7
2026-03-22T1100,1666A,118.6612,37.4313,东营市,市环保局,细颗粒物(PM2.5),146,141,126,110,94,104,104,68,58,29,27,25,17,0.7,0.7
2026-03-22T1100,3036A,118.6903,37.4337,东营市,开发区管委会,细颗粒物(PM2.5),148,128,122,112,90,101,101,78,68,46,35,25,17,0.8,0.8
2026-03-22T1100,3365A,118.5721,37.5654,东营市,垦利区民丰路,细颗粒物(PM2.5),135,102,120,98,96,122,122,82,76,20,26,6,5,0.9,1
2026-03-22T1100,3498A,118.5063,37.8606,东营市,河口城区,细颗粒物(PM2.5),127,107,143,89,103,125,125,77,77,14,27,13,15,0.8,0.9
2026-03-22T1100,3646A,118.4979,37.4623,东营市,胜利站,细颗粒物(PM2.5),126,153,136,88,91,107,107,65,59,18,29,13,13,1.0,1.1
2026-03-22T1100,3734A,118.5753,37.4405,东营市,理想之城,细颗粒物(PM2.5),134,136,133,97,90,121,121,72,65,31,35,18,10,1.0,1
2026-03-22T1100,1591A,110.0024,39.8127,鄂尔多斯市,综合楼,颗粒物(PM10),58,61,221,3,37,82,82,67,67,8,16,7,7,0.3,0.3
2026-03-22T1100,1592A,109.9485,39.8259,鄂尔多斯市,巴音孟克林场办事处,颗粒物(PM10),56,58,211,7,32,81,81,59,58,8,15,8,6,0.4,0.3
2026-03-22T1100,1593A,109.7734,39.5987,鄂尔多斯市,康泽苑,颗粒物(PM10),58,61,163,3,39,77,77,73,72,17,10,10,7,0.3,0.3
2026-03-22T1100,1594A,109.8121,39.5987,鄂尔多斯市,华泰汽车城,颗粒物(PM10),56,58,217,10,39,85,85,63,62,11,13,7,6,0.4,0.3
2026-03-22T1100,1595A,109.9734,39.7884,鄂尔多斯市,奥林花园,颗粒物(PM10),58,61,215,8,33,79,79,59,59,13,19,8,6,0.4,0.3
2026-03-22T1100,2436A,114.894,30.3989,鄂州市,市政府,细颗粒物(PM2.5),92,70,59,56,38,50,50,42,36,28,24,14,9,1.0,0.7
2026-03-22T1100,2437A,114.8986,30.3714,鄂州市,赵家坝,细颗粒物(PM2.5),92,68,62,56,39,58,58,44,35,20,19,11,7,1.1,0.9
2026-03-22T1100,3654A,114.8093,30.4091,鄂州市,精准医疗中心,细颗粒物(PM2.5),74,75,72,47,45,62,62,41,41,18,24,12,17,1.0,1
2026-03-22T1100,2454A,109.4978,30.2979,恩施土家族苗族自治州,湖北民院,,38,38,39,16,23,17,17,10,10,12,17,6,7,0.6,0.7
2026-03-22T1100,3549A,109.5061,30.3771,恩施土家族苗族自治州,龙凤新区,,39,36,35,27,19,21,21,10,10,11,10,8,7,0.5,0.4
2026-03-22T1100,2499A,108.3411,21.6159,防城港市,沙万,,43,43,57,21,36,16,16,12,9,24,18,7,6,0.5,0.9
2026-03-22T1100,2500A,108.3515,21.7733,防城港市,防城档案局,细颗粒物(PM2.5),92,78,66,56,40,16,16,11,11,23,17,7,6,1.1,0.8
2026-03-22T1100,2501A,108.3506,21.6414,防城港市,大海花园,颗粒物(PM10),53,54,52,24,43,19,19,14,11,23,20,9,8,0.7,0.8
2026-03-22T1100,1371A,113.1293,23.0065,佛山市,湾梁,,41,41,33,19,31,62,62,35,35,21,36,/,/,/,/
2026-03-22T1100,1372A,113.1082,23.0477,佛山市,华材职中,,34,34,35,19,34,63,63,39,39,23,40,7,7,0.3,0.6
2026-03-22T1100,1373A,113.1439,23.045,佛山市,南海气象局,,44,44,37,18,31,61,61,30,30,24,35,/,/,/,/
2026-03-22T1100,1374A,113.2879,22.8094,佛山市,顺德苏岗,,42,42,33,15,22,78,78,54,54,19,36,/,/,0.5,0.7
2026-03-22T1100,1376A,112.8384,22.8678,佛山市,高明孔堂,颗粒物(PM10),51,51,36,26,27,48,48,54,47,22,37,/,/,/,/
2026-03-22T1100,1377A,112.8835,23.1584,佛山市,三水监测站,颗粒物(PM10),55,56,38,30,36,47,47,21,21,29,44,3,4,0.5,0.8
2026-03-22T1100,1378A,112.8668,23.185,佛山市,三水云东海,颗粒物(PM10),59,62,57,26,35,44,44,9,9,30,34,/,/,/,/
2026-03-22T1100,3625A,113.2568,22.7629,佛山市,容桂街道办,,34,34,29,15,27,72,72,55,55,19,39,/,/,/,/
2026-03-22T1100,1282A,119.2681,26.0506,福州市,师大,,45,45,38,28,27,63,63,48,47,22,25,3,4,0.5,0.4
2026-03-22T1100,1283A,119.2983,26.1028,福州市,五四北路,,48,40,35,33,32,67,67,47,47,23,23,4,4,0.7,0.6
2026-03-22T1100,1284A,119.2648,26.0769,福州市,杨桥西路,,33,27,36,23,28,77,77,51,51,14,21,4,4,/,/
2026-03-22T1100,3048A,119.5799,26.0937,福州市,九龙,,46,NA,21,32,17,80,80,46,46,18,16,6,4,0.6,0.4
2026-03-22T1100,3526A,119.5188,25.9666,福州市,吴航,,27,24,27,17,18,86,86,47,47,17,18,6,5,0.7,0.6
2026-03-22T1100,4104A,119.3106,26.0648,福州市,路通桥巷6号,,39,39,38,25,32,73,73,44,44,16,19,/,/,/,/
2026-03-22T1100,1755A,123.7974,41.8494,抚顺市,望花区,细颗粒物(PM2.5),119,105,107,80,63,65,65,114,96,36,18,30,19,1.1,0.9
2026-03-22T1100,1756A,123.9161,41.8827,抚顺市,顺城区,细颗粒物(PM2.5),119,81,81,80,62,75,75,112,93,27,18,16,12,1.1,0.8
2026-03-22T1100,1757A,124.0437,41.8615,抚顺市,东洲区,细颗粒物(PM2.5),119,105,90,80,56,82,82,118,102,14,13,12,11,0.7,0.6
2026-03-22T1100,1758A,123.9246,41.8638,抚顺市,新抚区,细颗粒物(PM2.5),117,94,110,78,61,62,62,102,75,31,21,12,11,1.0,0.7
2026-03-22T1100,1759A,124.0972,41.8961,抚顺市,大伙房水库,细颗粒物(PM2.5),147,NA,83,111,58,93,93,127,113,15,10,12,12,0.8,0.6
2026-03-22T1100,1760A,123.708,41.8386,抚顺市,沈抚新城,细颗粒物(PM2.5),110,96,104,71,67,68,68,105,87,27,20,15,11,0.9,0.8
2026-03-22T1100,2377A,116.3544,27.9833,抚州市,市站,细颗粒物(PM2.5),64,49,46,42,38,12,12,26,17,20,13,15,8,1.1,1
2026-03-22T1100,2378A,116.3562,27.9631,抚州市,血防站,细颗粒物(PM2.5),56,43,48,38,36,13,13,23,18,23,17,10,5,1.0,0.9
2026-03-22T1100,2379A,116.3561,28.0007,抚州市,采茶剧团,颗粒物(PM10),63,67,52,38,37,22,22,19,15,23,16,11,6,0.9,0.8
2026-03-22T1100,2380A,116.3854,27.9648,抚州市,医学分院,细颗粒物(PM2.5),60,59,50,40,30,29,29,26,23,22,14,16,7,1.4,1.2
2026-03-22T1100,2207A,121.6095,41.9978,阜新市,工业园区,细颗粒物(PM2.5),196,168,125,147,108,85,85,91,77,19,24,9,14,1.1,0.9
2026-03-22T1100,2208A,121.6567,42.0188,阜新市,长青街,细颗粒物(PM2.5),193,164,116,145,106,81,81,95,80,19,23,6,13,1.1,0.9
2026-03-22T1100,2209A,121.6672,42.07,阜新市,农业园区,细颗粒物(PM2.5),183,207,154,138,107,85,85,95,81,20,24,6,10,1.0,0.8
2026-03-22T1100,2211A,121.6343,42.0455,阜新市,玉龙新城,细颗粒物(PM2.5),198,197,135,148,109,85,85,84,74,19,24,10,13,1.1,1
2026-03-22T1100,2301A,115.8276,32.8929,阜阳市,市监测站,颗粒物(PM10),77,87,107,38,61,107,107,89,88,13,21,7,6,0.6,0.6
2026-03-22T1100,2303A,115.8551,32.8606,阜阳市,开发区,颗粒物(PM10),81,93,123,38,61,112,112,90,86,12,20,7,6,0.7,0.6
2026-03-22T1100,2875A,115.783962,32.889217,阜阳市,阜阳职业技术学院,颗粒物(PM10),68,74,88,32,52,109,109,108,98,13,17,9,8,0.8,0.8
2026-03-22T1100,3468A,115.79,32.8614,阜阳市,市规划展馆,颗粒物(PM10),84,97,103,42,60,116,116,98,96,11,19,9,8,0.6,0.6
2026-03-22T1100,3469A,115.835101,32.918568,阜阳市,枣园社区,颗粒物(PM10),83,95,106,40,60,107,107,92,88,11,19,7,6,0.5,0.5
2026-03-22T1100,2669A,102.9097,34.9841,甘南藏族自治州,州政府,颗粒物(PM10),68,74,73,20,30,75,75,85,84,2,2,5,5,0.3,0.3
2026-03-22T1100,3380A,102.8915,34.9618,甘南藏族自治州,甘肃民族师范学院,颗粒物(PM10),71,79,89,22,27,91,91,99,96,3,7,1,3,0.4,0.4
2026-03-22T1100,2570A,101.96,30.048,甘孜藏族自治州,水桥子,,23,11,18,3,6,72,72,76,72,11,7,6,6,0.3,0.3
2026-03-22T1100,3065A,101.9534,29.9976,甘孜藏族自治州,州环保局,,27,9,12,3,6,85,85,94,91,22,14,6,6,0.8,0.7
2026-03-22T1100,2363A,114.9368,25.8663,赣州市,地委,,40,38,26,28,12,28,28,7,7,29,23,5,4,1.0,1.2
2026-03-22T1100,2364A,114.946,25.8483,赣州市,气象台,,42,42,33,29,18,44,44,22,22,32,28,6,5,0.9,0.7
2026-03-22T1100,2365A,114.932,25.8332,赣州市,市图书馆,,42,42,25,28,16,43,43,26,26,31,23,5,4,1.0,0.8
2026-03-22T1100,2366A,114.8905,25.8472,赣州市,华坚鞋城,,50,50,30,28,14,48,48,21,20,23,23,10,6,0.6,0.5
2026-03-22T1100,3109A,115.0094,25.8614,赣州市,赣县区卫计委,,42,42,24,17,11,35,35,16,16,24,23,3,2,0.8,0.8
2026-03-22T1100,2684A,106.2753,36.0057,固原市,监测站,颗粒物(PM10),100,120,203,30,54,92,92,71,71,4,18,9,9,0.2,0.4
2026-03-22T1100,2685A,106.2384,36.0189,固原市,新区,颗粒物(PM10),102,123,196,36,52,97,97,75,75,4,21,7,8,0.2,0.4
2026-03-22T1100,2544A,106.6307,30.4577,广安市,市委,细颗粒物(PM2.5),52,45,36,36,24,51,51,31,24,14,17,8,6,0.6,0.6
2026-03-22T1100,2545A,106.6266,30.4662,广安市,友谊中学,,40,40,31,26,17,52,52,38,28,16,15,3,6,0.9,0.8
2026-03-22T1100,2547A,106.6386,30.4551,广安市,广电花园,细颗粒物(PM2.5),60,47,39,40,24,52,52,26,22,14,18,6,5,0.8,0.8
2026-03-22T1100,2902A,106.6347,30.4868,广安市,北辰小学,细颗粒物(PM2.5),52,45,34,36,23,38,38,34,26,19,12,7,6,0.9,0.8
2026-03-22T1100,2524A,105.8211,32.4444,广元市,老城,颗粒物(PM10),56,58,44,22,16,17,17,18,16,38,31,18,11,0.9,0.7
2026-03-22T1100,2526A,105.8629,32.429,广元市,监测站,,40,40,35,21,15,17,17,30,23,38,26,7,5,0.8,0.6
2026-03-22T1100,3617A,105.8047,32.4167,广元市,经开区,颗粒物(PM10),56,58,40,31,24,13,13,13,6,37,31,21,8,0.9,0.7
2026-03-22T1100,1345A,113.2346,23.1423,广州市,广雅中学,,34,34,44,21,26,53,53,35,35,27,43,2,2,0.7,0.9
2026-03-22T1100,1346A,113.2611,23.105,广州市,市五中,,36,32,37,25,29,59,59,37,37,28,43,7,6,/,/
2026-03-22T1100,1348A,113.3477,23.0916,广州市,广东商学院,,32,32,41,20,28,57,57,28,28,24,42,6,5,0.9,0.9
2026-03-22T1100,1349A,113.4332,23.105,广州市,市八十六中,,31,31,38,17,26,64,64,46,46,30,46,6,5,/,/
2026-03-22T1100,1350A,113.3506,22.9488,广州市,番禺中学,,30,30,33,14,24,82,82,49,49,13,32,3,3,0.8,0.9
2026-03-22T1100,1351A,113.2147,23.3918,广州市,花都师范,,45,43,49,31,31,47,47,12,12,36,42,6,6,0.8,1
2026-03-22T1100,1352A,113.2599,23.1329,广州市,市监测站,,36,36,38,20,25,55,55,35,35,24,37,1,1,/,/
2026-03-22T1100,1353A,113.5618,23.3119,广州市,九龙镇镇龙,,41,41,47,28,30,76,76,46,46,22,24,6,6,0.5,0.6
2026-03-22T1100,1354A,113.2764,23.1544,广州市,麓湖,,31,31,34,20,24,61,61,30,30,21,36,3,2,0.7,0.9
2026-03-22T1100,2846A,113.3209,23.1323,广州市,体育西,,33,33,40,17,24,60,60,35,35,29,46,6,6,0.7,0.9
2026-03-22T1100,3298A,113.5718,23.5493,广州市,从化街口,,38,35,50,26,34,71,71,16,16,11,27,6,6,0.6,1
2026-03-22T1100,3299A,113.3463,23.369,广州市,白云竹料,,44,44,52,30,34,54,54,22,22,26,29,4,3,0.7,0.9
2026-03-22T1100,3300A,113.2981,23.2365,广州市,白云嘉禾,,40,40,56,22,35,61,61,21,21,28,44,8,7,/,/
2026-03-22T1100,3301A,113.4256,23.1716,广州市,黄埔科学城,,36,34,48,25,38,68,68,31,31,29,37,11,8,0.7,0.7
2026-03-22T1100,3302A,113.3942,23.0485,广州市,番禺大学城,NA,NA,NA,52,NA,37,NA,NA,34,NA,NA,43,NA,7,NA,0.7
2026-03-22T1100,3303A,113.4923,22.8169,广州市,南沙黄阁,,35,35,38,17,23,92,92,82,82,20,32,6,6,/,/
2026-03-22T1100,3304A,113.534,22.7893,广州市,南沙街,,36,36,36,17,23,88,88,75,75,17,24,8,8,0.5,0.6
2026-03-22T1100,3443A,113.2905,23.5541,广州市,花都梯面,,40,39,38,28,27,62,62,35,35,19,17,7,9,/,/
2026-03-22T1100,3445A,113.786,23.7479,广州市,从化良口,,35,35,23,24,16,41,41,11,11,15,16,4,4,/,/
2026-03-22T1100,3446A,113.805,23.2614,广州市,增城荔城,NA,NA,39,44,25,29,NA,NA,66,66,NA,20,NA,5,NA,0.5
2026-03-22T1100,2506A,109.604387,23.066791,贵港市,江南子站,颗粒物(PM10),80,92,104,42,39,24,24,4,4,27,35,14,9,1.0,1.2
2026-03-22T1100,2508A,109.5669,23.1065,贵港市,荷城子站,细颗粒物(PM2.5),82,80,75,51,48,28,28,11,11,31,33,19,9,0.9,1
2026-03-22T1100,3405A,109.5886,23.1172,贵港市,新世纪学校,细颗粒物(PM2.5),102,92,70,62,46,33,33,13,13,33,31,/,/,0.9,1
2026-03-22T1100,4260A,109.5933,23.095,贵港市,中山路155-3号,细颗粒物(PM2.5),106,103,89,66,54,21,21,8,8,30,29,/,/,1.0,1.1
2026-03-22T1100,1439A,106.6863,26.6035,贵阳市,马鞍山,,29,22,32,20,23,22,22,13,12,16,14,8,6,/,/
2026-03-22T1100,1441A,106.6241,26.6266,贵阳市,鉴湖路,,27,27,38,9,19,37,37,27,27,17,15,6,5,0.8,0.5
2026-03-22T1100,1442A,106.7468,26.6344,贵阳市,燕子冲,,34,34,35,18,23,24,24,16,16,17,15,15,8,1.5,1.3
2026-03-22T1100,1443A,106.6556,26.4362,贵阳市,碧云窝,,34,34,34,20,19,20,20,18,17,18,13,14,9,/,/
2026-03-22T1100,1445A,106.6963,26.6063,贵阳市,红边门,,39,39,42,19,23,25,25,16,16,19,20,18,11,/,/
2026-03-22T1100,1446A,106.7162383,26.56964667,贵阳市,新华路,,36,36,47,19,22,29,29,19,19,16,19,14,8,0.6,0.6
2026-03-22T1100,1447A,106.6742,26.542,贵阳市,太慈桥,,40,31,38,28,24,19,19,12,11,21,18,8,5,/,/
2026-03-22T1100,4230A,106.688212,26.56952,贵阳市,花果园大街66号,,29,29,35,20,24,15,15,14,13,22,18,6,3,/,/
2026-03-22T1100,4231A,106.687268,26.516892,贵阳市,漓江路57号,,32,31,31,22,23,17,17,12,11,23,20,14,10,1.1,0.8
2026-03-22T1100,1864A,110.3091,25.2705,桂林市,龙隐路小学,,46,38,30,32,24,5,5,19,13,29,20,3,3,1.0,0.9
2026-03-22T1100,1865A,110.2849361,25.22909545,桂林市,八中,,34,34,34,18,17,6,6,14,10,29,25,3,3,1.2,1
2026-03-22T1100,3531A,110.296,25.1254,桂林市,旅游学院,,43,37,35,30,23,19,19,16,16,13,17,5,5,0.9,1
2026-03-22T1100,4222A,110.1835,25.2444,桂林市,环湖路276号,细颗粒物(PM2.5),68,56,34,44,24,5,5,16,11,34,23,15,12,1.1,1
2026-03-22T1100,4301A,110.2803,25.2773,桂林市,信义路13号,,38,29,30,26,27,5,5,14,8,29,25,3,4,1.4,1.3
2026-03-22T1100,2674A,100.2262,34.4854,果洛藏族自治州,玛沁县大武镇,,38,37,34,26,16,73,73,57,52,11,3,11,7,0.5,0.4
2026-03-22T1100,1130A,126.5557,45.8109,哈尔滨市,松北商大,细颗粒物(PM2.5),285,289,227,235,178,69,69,46,46,29,31,20,14,1.4,1.2
2026-03-22T1100,1132A,126.6162,45.719,哈尔滨市,南岗学府路,细颗粒物(PM2.5),263,274,243,213,154,58,58,60,59,36,35,15,14,0.6,0.5
2026-03-22T1100,1133A,126.6894,45.7733,哈尔滨市,太平宏伟公园,细颗粒物(PM2.5),285,281,221,235,160,68,68,57,57,36,33,14,8,1.3,1.1
2026-03-22T1100,1134A,126.6361,45.7672,哈尔滨市,道外承德广场,细颗粒物(PM2.5),277,326,283,227,167,67,67,54,54,36,41,14,16,1.3,1
2026-03-22T1100,1136A,126.644,45.7261,哈尔滨市,动力和平路,细颗粒物(PM2.5),272,293,250,222,166,67,67,54,54,34,37,14,19,1.9,1.6
2026-03-22T1100,1137A,126.5933,45.7479,哈尔滨市,道里建国路,细颗粒物(PM2.5),257,253,233,207,166,62,62,50,50,34,44,17,18,1.3,1
2026-03-22T1100,1138A,126.6127,45.6119,哈尔滨市,平房东轻厂,细颗粒物(PM2.5),285,319,210,235,159,56,56,41,41,73,82,64,56,1.0,0.8
2026-03-22T1100,1139A,126.5875,45.9827,哈尔滨市,呼兰师专,细颗粒物(PM2.5),289,292,253,239,181,69,69,38,38,32,43,14,15,1.2,1.1
2026-03-22T1100,1140A,126.6299,45.6799,哈尔滨市,省农科院,细颗粒物(PM2.5),284,306,283,234,166,61,61,42,42,35,44,14,15,1.2,1
2026-03-22T1100,4282A,126.6769,45.7379,哈尔滨市,华山路1号,细颗粒物(PM2.5),269,293,240,219,155,62,62,54,54,45,39,13,11,1.5,1.2
2026-03-22T1100,4283A,126.9717,45.5356,哈尔滨市,解放大街52号,颗粒物(PM10),263,394,231,196,127,119,119,62,62,32,26,15,11,0.5,0.3
2026-03-22T1100,2688A,93.5124,42.8176,哈密市,地区监测站,颗粒物(PM10),56,58,50,17,13,54,54,57,53,18,12,6,5,0.2,0.2
2026-03-22T1100,2689A,93.5014,42.8312,哈密市,哈密师范学校,,43,43,42,9,15,63,63,48,48,24,28,8,7,0.4,0.4
2026-03-22T1100,2671A,100.9016,36.9464,海北藏族自治州,海晏县西海镇,颗粒物(PM10),104,130,107,44,34,87,87,85,84,3,4,9,10,0.5,0.5
2026-03-22T1100,3867A,102.074,36.5056,海东市,平安区公安局北苑,颗粒物(PM10),106,135,149,56,52,91,91,97,92,12,10,17,18,1.6,0.8
2026-03-22T1100,4163A,102.0984,36.5119,海东市,滨河路,颗粒物(PM10),116,160,165,50,52,71,71,72,63,20,25,16,16,0.8,0.9
2026-03-22T1100,1410A,110.3189,20.0596,海口市,海南大学,,21,21,24,14,17,65,65,46,46,5,6,5,5,0.4,0.3
2026-03-22T1100,1411A,110.2827,20.0051,海口市,秀英海南医院,,38,38,29,11,18,59,59,38,38,5,9,7,8,0.3,0.3
2026-03-22T1100,1412A,110.3391,19.9979,海口市,海南师范大学,,29,29,26,13,17,67,67,42,42,5,8,6,6,0.4,0.4
2026-03-22T1100,1413A,110.3303,20.0359,海口市,龙华路环保局宿舍,,23,23,24,15,18,68,68,46,46,6,8,/,/,0.5,0.5
2026-03-22T1100,3539A,110.5111,19.9737,海口市,桂林洋子站,,22,22,29,13,18,65,65,42,42,5,6,/,/,/,/
2026-03-22T1100,4134A,110.1952,20.0451,海口市,长滨二路9号,,22,22,22,13,19,62,62,41,41,4,5,/,/,/,/
2026-03-22T1100,2673A,100.6158,36.2985,海南藏族自治州,共和县恰卜恰镇,颗粒物(PM10),83,95,74,47,32,83,83,93,86,11,7,13,13,0.3,0.3
2026-03-22T1100,2676A,97.373,37.376,海西蒙古族藏族自治州,德令哈市,颗粒物(PM10),64,69,37,31,16,122,122,124,124,5,3,15,14,0.5,0.4
2026-03-22T1100,1049A,114.492,36.5712,邯郸市,矿院,颗粒物(PM10),75,84,89,6,47,90,90,72,72,6,12,4,4,0.4,0.5
2026-03-22T1100,1050A,114.4839,36.6136,邯郸市,丛台公园,颗粒物(PM10),75,84,96,16,60,89,89,74,74,4,11,3,5,0.3,0.5
2026-03-22T1100,3458A,114.7893,36.5592,邯郸市,香泉濮院小区,颗粒物(PM10),100,119,112,32,39,97,97,63,58,13,13,5,2,0.6,0.5
2026-03-22T1100,3580A,114.1998,36.4439,邯郸市,峰峰矿区临水派出所,颗粒物(PM10),66,72,87,13,42,91,91,81,81,2,10,7,7,0.6,0.7
2026-03-22T1100,3614A,79.9241,37.0878,和田地区,地区环保局,颗粒物(PM10),168,285,238,66,58,64,64,68,66,12,9,1,2,0.6,0.4
2026-03-22T1100,3615A,79.9132,37.1137,和田地区,市环保局,颗粒物(PM10),156,262,227,65,63,54,54,52,46,16,15,10,3,0.9,0.7
2026-03-22T1100,2517A,108.0496,24.6957,河池市,市环保站,,34,34,28,22,20,16,16,16,15,9,7,5,6,0.7,0.6
2026-03-22T1100,4302A,108.0901,24.6945,河池市,上任中路54号,,35,35,31,17,20,10,10,13,9,10,9,6,9,0.8,0.7
2026-03-22T1100,1697A,114.6962,23.7538,河源市,东埔,细颗粒物(PM2.5),56,47,26,38,20,76,76,54,54,12,14,5,5,0.8,0.9
2026-03-22T1100,1698A,114.6895,23.7232,河源市,老城,细颗粒物(PM2.5),56,44,24,38,20,76,76,64,64,12,13,6,6,0.8,0.9
2026-03-22T1100,3374A,115.5562,35.089,菏泽市,定陶老年大学,细颗粒物(PM2.5),131,139,125,94,82,106,106,84,80,19,17,6,5,0.5,0.5
2026-03-22T1100,4114A,115.4239,35.2593,菏泽市,黄河路600号,细颗粒物(PM2.5),121,155,139,83,78,99,99,83,83,16,16,7,4,0.6,0.6
2026-03-22T1100,4115A,115.5025,35.2727,菏泽市,菏泽市人社局,NA,NA,NA,122,NA,76,NA,NA,86,72,16,19,8,4,0.6,0.5
2026-03-22T1100,4184A,115.479691,35.244011,菏泽市,永昌路1号,细颗粒物(PM2.5),125,135,131,87,78,116,116,95,93,17,20,7,3,0.5,0.4
2026-03-22T1100,4193A,115.471542,35.280012,菏泽市,长城路999号,细颗粒物(PM2.5),120,136,124,82,75,106,106,94,87,14,15,14,7,0.5,0.5
2026-03-22T1100,2514A,111.5264,24.4178,贺州市,环保小区,颗粒物(PM10),59,62,40,35,26,9,9,15,12,30,22,6,5,1.1,0.9
2026-03-22T1100,2515A,111.561,24.4074,贺州市,政协大楼,NA,NA,46,43,43,28,NA,NA,0,0,41,28,9,5,1.1,1
2026-03-22T1100,3534A,111.4744,24.455,贺州市,西湾,细颗粒物(PM2.5),56,56,44,38,26,7,7,10,8,23,21,6,6,1.1,0.9
2026-03-22T1100,2385A,114.17,35.9019,鹤壁市,市监测站,颗粒物(PM10),90,105,102,46,60,86,86,70,67,20,19,12,9,1.0,1
2026-03-22T1100,2386A,114.2953,35.7512,鹤壁市,市交警支队,颗粒物(PM10),108,139,114,56,55,86,86,56,56,21,24,15,9,1.0,0.7
2026-03-22T1100,2387A,114.2877,35.7302,鹤壁市,迎宾馆,颗粒物(PM10),116,160,118,62,57,89,89,60,60,16,19,14,10,1.0,0.6
2026-03-22T1100,3474A,114.2616,35.6824,鹤壁市,大新区,颗粒物(PM10),104,130,99,50,62,92,92,58,58,16,23,12,7,1.2,0.9
2026-03-22T1100,3596A,114.1573,35.9607,鹤壁市,南山宾馆,颗粒物(PM10),109,141,119,37,62,87,87,72,71,14,15,12,11,1.1,0.9
2026-03-22T1100,2244A,130.2537,47.3416,鹤岗市,哈啤分公司,,29,26,67,10,68,92,92,85,84,9,13,10,11,0.3,0.5
2026-03-22T1100,2245A,130.2683,47.3087,鹤岗市,斯达机电,,30,30,78,14,71,95,95,84,84,7,16,9,11,0.5,0.7
2026-03-22T1100,2246A,130.3114,47.3388,鹤岗市,东山纸板厂,,36,36,121,21,80,93,93,60,60,6,30,8,12,0.4,1.1
2026-03-22T1100,2263A,127.4832,50.2524,黑河市,交通局,颗粒物(PM10),57,59,35,23,19,66,66,63,62,31,18,11,8,0.5,0.4
2026-03-22T1100,2264A,127.5146,50.2339,黑河市,环保局,,45,45,44,31,34,65,65,45,45,27,33,10,9,0.6,0.6
2026-03-22T1100,1074A,115.6839,37.754,衡水市,电机北厂,颗粒物(PM10),95,112,116,24,64,81,81,70,67,15,22,5,3,0.4,0.6
2026-03-22T1100,1075A,115.6303,37.7318,衡水市,市监测站,颗粒物(PM10),81,93,110,20,63,75,75,66,61,15,18,5,6,0.3,0.6
2026-03-22T1100,3188A,115.6684,37.7216,衡水市,市城管局,颗粒物(PM10),96,114,119,20,63,81,81,70,64,13,17,9,6,0.4,0.6
2026-03-22T1100,3459A,115.599,37.5491,衡水市,地表水厂,颗粒物(PM10),84,97,119,43,73,83,83,58,58,11,18,6,5,0.4,0.5
2026-03-22T1100,2457A,112.6209,26.9268,衡阳市,衡阳化工总厂,,35,35,32,23,23,30,30,14,12,8,13,6,5,1.1,1
2026-03-22T1100,2458A,112.621,26.8957,衡阳市,珠晖区环保局,,35,32,34,24,24,22,22,11,11,19,22,6,6,1.2,1.1
2026-03-22T1100,2459A,112.628,26.8654,衡阳市,市委党校,,35,30,33,24,24,24,24,14,14,13,14,8,7,1.3,1.2
2026-03-22T1100,2460A,112.6007,26.8977,衡阳市,市监测站,,40,36,37,28,22,25,25,13,13,20,23,8,8,1.0,0.9
2026-03-22T1100,2461A,112.5658,26.9013,衡阳市,真空机电公司,,48,NA,36,33,28,21,21,13,12,19,22,7,7,1.4,1.3
2026-03-22T1100,3399A,112.6703,26.8817,衡阳市,师范学院,,39,39,34,27,21,26,26,17,16,13,13,7,7,1.1,1
2026-03-22T1100,3038A,103.3757,23.3679,红河哈尼族彝族自治州,州图书馆,,35,32,33,24,29,81,81,76,75,6,7,4,5,0.5,0.5
2026-03-22T1100,4154A,103.401,23.3561,红河哈尼族彝族自治州,蒙自市朝阳路,,29,26,28,20,27,88,88,80,79,6,8,9,9,0.4,0.4
2026-03-22T1100,1090A,111.6506,40.7517,呼和浩特市,呼市一监,,26,22,94,3,25,81,81,73,73,8,15,8,10,0.3,0.4
2026-03-22T1100,1094A,111.7516,40.8369,呼和浩特市,如意水处理厂,,27,21,78,7,26,84,84,75,74,6,15,9,10,0.2,0.3
2026-03-22T1100,1095A,111.727798,40.806187,呼和浩特市,二十九中,,24,23,90,3,22,74,74,67,66,7,15,8,10,0.3,0.4
2026-03-22T1100,1097A,111.717,40.7617,呼和浩特市,化肥厂生活区,,25,22,88,3,28,80,80,68,67,7,19,6,8,0.2,0.3
2026-03-22T1100,3699A,111.6519,40.8389,呼和浩特市,海东办,,24,14,93,6,25,76,76,70,69,8,14,5,6,0.2,0.3
2026-03-22T1100,4275A,111.591512,40.827312,呼和浩特市,成吉思汗西街8号,,24,24,97,8,24,74,74,64,63,9,17,4,5,0.3,0.3
2026-03-22T1100,4276A,111.6597,40.8077,呼和浩特市,公园东路75号,,24,24,100,7,26,76,76,69,69,10,16,9,10,0.3,0.4
2026-03-22T1100,4277A,111.5427,40.7846,呼和浩特市,金海路35号,,24,21,93,6,24,74,74,66,62,7,16,6,9,0.2,0.3
2026-03-22T1100,3061A,119.7511,49.1576,呼伦贝尔市,国华电力东,,30,29,36,16,24,95,95,89,88,13,14,5,5,0.3,0.3
2026-03-22T1100,4279A,119.7569,49.2222,呼伦贝尔市,伊敏大街东7号,,42,37,34,29,23,85,85,94,89,20,15,7,6,0.4,0.3
2026-03-22T1100,1250A,120.075,30.867,湖州市,城西水厂,细颗粒物(PM2.5),96,76,55,58,39,77,77,58,50,33,22,8,6,0.5,0.5
2026-03-22T1100,2873A,120.083,30.8929,湖州市,仁皇山新区,细颗粒物(PM2.5),82,82,58,51,36,73,73,50,47,33,24,6,5,0.7,0.6
2026-03-22T1100,2907A,120.1846,30.8592,湖州市,吴兴区站,细颗粒物(PM2.5),90,97,62,55,34,79,79,66,58,24,18,8,6,0.6,0.4
2026-03-22T1100,3562A,120.4146,30.8538,湖州市,南浔区站,细颗粒物(PM2.5),76,74,52,48,34,66,66,71,61,26,19,6,5,0.6,0.6
2026-03-22T1100,1607A,120.904878,40.721091,葫芦岛市,龙港区,细颗粒物(PM2.5),98,100,113,59,90,93,93,96,88,15,17,13,10,0.8,0.9
2026-03-22T1100,1608A,120.8382,40.7521,葫芦岛市,化工街,细颗粒物(PM2.5),146,166,141,110,105,70,70,74,64,33,32,22,17,0.9,0.8
2026-03-22T1100,1609A,120.8339,40.7078,葫芦岛市,新区,细颗粒物(PM2.5),130,97,110,93,107,83,83,86,78,18,21,10,10,0.8,0.8
2026-03-22T1100,1610A,120.8697,40.7679,葫芦岛市,东城区,细颗粒物(PM2.5),138,117,107,101,107,75,75,80,68,29,29,24,13,1.1,1
2026-03-22T1100,2483A,109.9297,27.5383,怀化市,河西地税局,,15,10,13,8,14,45,45,42,39,10,12,3,4,/,/
2026-03-22T1100,2484A,109.9783,27.5342,怀化市,市四医院,,20,20,24,12,14,33,33,43,40,20,11,6,7,0.5,0.5
2026-03-22T1100,2485A,109.9971,27.5579,怀化市,监测楼,,19,16,21,13,15,39,39,44,42,13,7,3,4,0.5,0.4
2026-03-22T1100,1210A,119.0566,33.5991,淮安市,钵池山,细颗粒物(PM2.5),118,92,72,79,50,66,66,42,42,33,28,11,8,0.7,0.4
2026-03-22T1100,1211A,119.0083,33.578,淮安市,北京南路,细颗粒物(PM2.5),119,83,73,80,54,61,61,37,37,25,21,14,9,0.9,0.5
2026-03-22T1100,1212A,118.9938,33.6083,淮安市,市监测站,细颗粒物(PM2.5),125,88,66,87,58,65,65,42,42,33,24,16,7,1.7,0.4
2026-03-22T1100,1213A,119.135,33.5038,淮安市,楚州区监测站,细颗粒物(PM2.5),122,95,74,84,53,57,57,33,33,28,24,9,7,0.8,0.7
2026-03-22T1100,3426A,118.8757,33.2897,淮安市,新华书店,细颗粒物(PM2.5),106,112,94,66,59,63,63,30,30,18,26,10,9,0.7,0.6
2026-03-22T1100,4092A,119.119691,33.550006,淮安市,枚皋中路89号,细颗粒物(PM2.5),127,114,80,89,56,65,65,44,44,25,20,13,10,1.0,0.7
2026-03-22T1100,4206A,119.028838,33.631911,淮安市,承德北路606号,细颗粒物(PM2.5),117,117,90,78,51,66,66,41,41,28,22,12,9,0.8,0.4
2026-03-22T1100,2282A,116.8005,33.9749,淮北市,监测站,细颗粒物(PM2.5),112,126,128,73,82,121,121,100,92,23,22,10,8,0.8,0.8
2026-03-22T1100,2283A,116.8094,33.9008,淮北市,烈山区政府,细颗粒物(PM2.5),117,103,118,78,82,105,105,89,81,25,22,11,7,0.6,0.6
2026-03-22T1100,4017A,116.7926,33.9534,淮北市,市博物馆,细颗粒物(PM2.5),116,122,124,77,85,114,114,90,82,22,21,8,5,0.8,0.8
2026-03-22T1100,4100A,116.8322,33.9884,淮北市,杜集区第一实验学校,细颗粒物(PM2.5),115,127,127,76,82,103,103,92,82,23,19,10,8,0.7,0.7
2026-03-22T1100,2277A,116.8304,32.7726,淮南市,潘集区政府,颗粒物(PM10),83,95,104,46,53,94,94,67,67,24,24,9,8,0.6,0.7
2026-03-22T1100,2279A,116.8569,32.5949,淮南市,谢家集区政府,NA,NA,NA,84,NA,53,NA,NA,134,NA,NA,25,NA,9,NA,0.6
2026-03-22T1100,2280A,116.8279,32.6333,淮南市,八公山区政府,颗粒物(PM10),60,64,87,32,55,113,113,78,76,9,16,13,13,0.6,0.6
2026-03-22T1100,2894A,117.0561,32.6536,淮南市,经济技术开发区消防队,颗粒物(PM10),77,87,90,45,54,100,100,76,73,25,25,13,9,0.6,0.6
2026-03-22T1100,3329A,117.011,32.5891,淮南市,山南新区,细颗粒物(PM2.5),84,92,94,52,53,105,105,84,78,22,23,9,8,0.6,0.6
2026-03-22T1100,4209A,117.003137,32.644456,淮南市,国庆中路369号,细颗粒物(PM2.5),68,69,81,44,54,93,93,74,68,18,17,13,10,0.6,0.7
2026-03-22T1100,2446A,114.9021,30.474,黄冈市,职工中心,细颗粒物(PM2.5),82,69,59,51,41,58,58,56,49,25,15,10,6,1.4,1
2026-03-22T1100,2929A,114.8858,30.4519,黄冈市,红卫路,细颗粒物(PM2.5),98,69,56,59,40,57,57,52,47,23,16,6,4,0.9,0.5
2026-03-22T1100,3398A,114.9134,30.4446,黄冈市,市林业局,细颗粒物(PM2.5),94,75,66,57,41,69,69,58,52,19,16,4,4,1.0,0.7
2026-03-22T1100,2672A,102.02,35.5101,黄南藏族自治州,同仁县隆务镇,颗粒物(PM10),76,86,93,34,36,91,91,87,84,5,4,11,11,0.4,0.4
2026-03-22T1100,2295A,118.2905,29.6965,黄山市,延安路89号,,45,39,28,31,19,19,19,9,9,16,12,5,4,0.5,0.5
2026-03-22T1100,2297A,118.1369,30.2755,黄山市,黄山区政府5号楼,,30,30,26,13,9,42,42,23,23,12,13,3,3,0.6,0.6
2026-03-22T1100,4210A,118.335445,29.720283,黄山市,滨江东路7-2号,,45,45,41,31,18,15,15,11,9,22,17,/,/,/,/
2026-03-22T1100,2423A,115.0547,30.2332,黄石市,沈家营,细颗粒物(PM2.5),100,84,70,60,37,44,44,30,28,36,29,6,12,1.1,1
2026-03-22T1100,2426A,114.899,30.211,黄石市,铁山,细颗粒物(PM2.5),101,NA,45,61,45,51,51,38,36,20,15,17,9,1.4,1.2
2026-03-22T1100,2427A,115.0259,30.2108,黄石市,团城山,细颗粒物(PM2.5),78,70,58,49,40,48,48,38,36,25,18,15,12,1.2,1
2026-03-22T1100,3149A,115.0174,30.1591,黄石市,笔架山北路,细颗粒物(PM2.5),86,95,85,53,44,57,57,45,41,16,13,7,9,1.2,1.2
2026-03-22T1100,4185A,115.078022,30.21118,黄石市,磁湖东路29号,细颗粒物(PM2.5),88,81,70,54,42,44,44,18,17,25,30,7,6,1.3,1.3
2026-03-22T1100,1392A,114.4181,23.0528,惠州市,河南岸金山湖子站,,36,36,40,24,26,106,106,95,95,10,12,8,8,0.6,0.7
2026-03-22T1100,1393A,114.4055,23.0824,惠州市,下埔横江三路子站,,41,41,46,23,26,109,109,96,96,11,12,5,6,0.7,0.7
2026-03-22T1100,1395A,114.4645,22.7832,惠州市,惠阳区承修路船湖子站,,40,40,34,23,18,103,103,95,95,11,9,7,7,0.6,0.6
2026-03-22T1100,1396A,114.5316,22.7423,惠州市,大亚湾管委会子站,,40,40,35,23,18,100,100,89,89,8,9,4,4,0.6,0.6
2026-03-22T1100,3314A,114.4334,22.8134,惠州市,惠阳秋长,,35,31,29,19,18,110,110,97,97,9,10,/,/,/,/
2026-03-22T1100,3452A,114.6521,22.7755,惠州市,大亚湾霞涌,,32,28,26,20,16,100,100,104,100,10,9,/,/,/,/
2026-03-22T1100,4300A,114.4089,23.1147,惠州市,文华一路1号,,42,42,39,25,26,111,111,96,96,13,14,/,/,/,/
2026-03-22T1100,2240A,130.9618,45.2926,鸡西市,环保局,细颗粒物(PM2.5),129,156,124,91,85,61,61,28,28,44,42,14,13,0.7,0.8
2026-03-22T1100,2243A,130.9294,45.2959,鸡西市,第一中学,细颗粒物(PM2.5),121,120,100,83,80,94,94,58,58,12,29,5,6,0.3,0.4
2026-03-22T1100,3707A,131.0069,45.2988,鸡西市,欧美日汽修厂,细颗粒物(PM2.5),127,142,157,89,90,55,55,28,28,52,43,13,16,1.1,1.1
2026-03-22T1100,2367A,114.9753,27.0803,吉安市,红声器材厂,,44,44,46,25,28,15,15,16,16,24,23,8,6,1.0,0.9
2026-03-22T1100,2369A,114.9903,27.1313,吉安市,市环境监测站,细颗粒物(PM2.5),56,39,38,38,25,18,18,26,23,17,15,8,8,/,/
2026-03-22T1100,2370A,115.009527,27.096792,吉安市,青原区法院,,43,38,43,30,24,16,16,18,18,26,23,9,4,0.6,0.6
2026-03-22T1100,1772A,126.54,43.8622,吉林市,哈达湾,细颗粒物(PM2.5),140,134,96,103,73,89,89,108,104,24,17,9,9,0.9,0.7
2026-03-22T1100,1773A,126.5843,43.8358,吉林市,东局子,细颗粒物(PM2.5),195,NA,97,146,85,85,85,112,106,26,16,8,7,0.9,0.7
2026-03-22T1100,1774A,126.5051,43.8243,吉林市,电力学院,细颗粒物(PM2.5),139,150,100,102,74,103,103,109,107,20,21,9,8,1.0,0.8
2026-03-22T1100,1775A,126.6133,43.8971,吉林市,江北,细颗粒物(PM2.5),153,135,96,117,69,76,76,111,103,35,18,10,8,0.8,0.6
2026-03-22T1100,1776A,126.5549,43.8304,吉林市,江南公园,细颗粒物(PM2.5),131,124,94,94,69,90,90,110,106,23,18,10,10,0.9,0.7
2026-03-22T1100,2868A,126.4737,43.953,吉林市,九站,细颗粒物(PM2.5),141,138,115,105,81,76,76,105,84,30,28,11,10,1.0,0.8
2026-03-22T1100,1299A,116.9866,36.6118,济南市,科干所,细颗粒物(PM2.5),111,119,112,72,74,120,120,136,131,20,15,8,7,0.8,0.7
2026-03-22T1100,1300A,116.9379,36.6652,济南市,农科所,细颗粒物(PM2.5),117,112,117,78,84,118,118,121,118,20,19,8,6,0.6,0.6
2026-03-22T1100,1301A,117.1265,36.6736,济南市,开发区,细颗粒物(PM2.5),110,103,101,70,70,128,128,137,134,18,16,6,4,0.8,0.8
2026-03-22T1100,1303A,117.0616,36.6865,济南市,省种子仓库,细颗粒物(PM2.5),110,112,113,70,70,124,124,132,128,18,16,6,4,0.7,0.7
2026-03-22T1100,1304A,116.9495185,36.644937,济南市,机床二厂,细颗粒物(PM2.5),113,110,120,74,81,121,121,124,121,17,17,8,6,0.7,0.7
2026-03-22T1100,1305A,117.0496,36.6629,济南市,市监测站,细颗粒物(PM2.5),107,120,115,67,70,124,124,134,130,17,15,6,4,0.6,0.7
2026-03-22T1100,1306A,116.7674,36.5458,济南市,长清党校,细颗粒物(PM2.5),112,127,126,73,80,121,121,118,117,20,23,6,5,0.7,0.6
2026-03-22T1100,1961A,117.5323,36.6865,济南市,东山小学,细颗粒物(PM2.5),101,117,126,61,76,133,133,131,128,20,20,5,5,0.7,0.7
2026-03-22T1100,3059A,117.7181,36.205,济南市,泰兴公司,细颗粒物(PM2.5),120,129,137,81,87,137,137,94,94,16,27,16,42,1.4,0.9
2026-03-22T1100,3064A,117.6861,36.2172,济南市,莱芜战役纪念馆,细颗粒物(PM2.5),119,129,125,80,79,142,142,131,129,23,21,13,20,1.4,0.8
2026-03-22T1100,3494A,117.1673,36.9782,济南市,济阳区政府,细颗粒物(PM2.5),111,103,123,72,83,105,105,104,98,17,20,10,7,0.6,0.6
2026-03-22T1100,3495A,117.1168,36.6299,济南市,锦屏中学,细颗粒物(PM2.5),107,103,106,67,75,117,117,128,124,18,16,10,9,0.7,0.8
2026-03-22T1100,4108A,117.7107,36.2385,济南市,山财大街5号,细颗粒物(PM2.5),118,127,126,79,82,136,136,113,113,24,25,16,31,0.8,0.7
2026-03-22T1100,4109A,116.9744,36.6889,济南市,无影山路12号,细颗粒物(PM2.5),109,90,102,69,79,113,113,118,114,18,17,6,5,0.8,0.8
2026-03-22T1100,1653A,116.6229,35.4288,济宁市,火炬城,细颗粒物(PM2.5),121,91,104,83,84,117,117,95,94,19,18,3,3,0.8,0.8
2026-03-22T1100,3500A,116.5808,35.3703,济宁市,北湖一中,细颗粒物(PM2.5),121,NA,94,83,86,123,123,104,99,18,16,9,7,0.7,0.6
2026-03-22T1100,3501A,116.8251,35.5592,济宁市,服务中心,细颗粒物(PM2.5),126,135,139,88,92,119,119,101,96,18,17,5,3,0.8,0.8
2026-03-22T1100,3678A,116.5907,35.4054,济宁市,市第七中学,细颗粒物(PM2.5),119,NA,95,80,83,129,129,104,102,19,18,8,6,0.8,0.8
2026-03-22T1100,4111A,116.6075,35.4566,济宁市,任和路,细颗粒物(PM2.5),122,137,135,84,83,126,126,106,104,18,17,8,6,0.8,0.8
2026-03-22T1100,4112A,116.5648,35.3921,济宁市,文体南路1号,细颗粒物(PM2.5),120,132,132,81,85,123,123,105,103,22,22,6,4,0.7,0.7
2026-03-22T1100,4122A,112.6071,35.1015,济源市,市委党校,颗粒物(PM10),149,245,177,28,66,85,85,59,59,12,25,7,10,0.3,0.7
2026-03-22T1100,4123A,112.596,35.0702,济源市,沁园中路1号,颗粒物(PM10),161,271,155,33,66,87,87,46,46,12,26,6,8,0.4,0.8
2026-03-22T1100,2255A,130.2749,46.8028,佳木斯市,佳纺,细颗粒物(PM2.5),128,111,109,90,90,79,79,36,36,17,34,5,6,0.7,0.7
2026-03-22T1100,2257A,130.3258,46.7975,佳木斯市,环保局,细颗粒物(PM2.5),134,108,105,97,90,78,78,43,43,19,32,5,4,0.6,0.6
2026-03-22T1100,4285A,130.363,46.806,佳木斯市,顺和街,细颗粒物(PM2.5),135,102,105,98,100,75,75,50,50,16,33,6,5,0.6,0.6
2026-03-22T1100,4286A,130.3952,46.8268,佳木斯市,长安路196号,细颗粒物(PM2.5),130,99,101,93,92,78,78,43,43,14,26,6,5,0.6,0.5
2026-03-22T1100,1252A,120.7439,30.778,嘉兴市,清河小学,,38,38,41,25,20,72,72,67,59,22,21,7,6,0.3,0.5
2026-03-22T1100,1253A,120.7261,30.7477,嘉兴市,嘉兴学院,,43,43,40,21,20,71,71,70,62,27,23,7,6,0.5,0.5
2026-03-22T1100,2872A,120.7845,30.7524,嘉兴市,南湖区残联,,32,30,29,22,22,74,74,72,65,22,20,6,5,0.6,0.6
2026-03-22T1100,3407A,120.6915,30.7741,嘉兴市,秀洲住建,,45,45,44,23,20,66,66,74,65,31,21,10,8,0.5,0.4
2026-03-22T1100,1945A,98.291,39.7705,嘉峪关市,气象局,颗粒物(PM10),79,90,86,28,26,76,76,83,76,21,11,69,18,1.0,0.4
2026-03-22T1100,2884A,98.2672,39.7978,嘉峪关市,酒钢宾馆,颗粒物(PM10),91,107,89,28,25,62,62,85,73,33,13,100,24,2.0,0.6
2026-03-22T1100,3248A,98.2644,39.7723,嘉峪关市,雄关区,颗粒物(PM10),77,87,73,28,22,67,67,79,70,29,13,82,12,1.5,0.3
2026-03-22T1100,1383A,113.1063,22.6058,江门市,北街,,40,40,32,17,25,60,60,45,45,18,31,/,/,/,/
2026-03-22T1100,1384A,113.073,22.5835,江门市,西区,,33,33,29,19,25,66,66,60,56,18,25,/,/,/,/
2026-03-22T1100,1385A,113.0218,22.531,江门市,圭峰西,,34,34,32,17,23,73,73,61,61,12,14,/,/,/,/
2026-03-22T1100,1386A,113.0826,22.5947,江门市,东湖,,29,29,33,18,28,67,67,48,44,16,24,6,6,0.5,0.6
2026-03-22T1100,3311A,113.1077,22.5647,江门市,江海富民,颗粒物(PM10),62,66,54,17,25,75,75,63,61,16,22,/,/,0.4,0.5
2026-03-22T1100,3449A,113.0496,22.4669,江门市,新会银湖,,36,36,33,16,22,70,70,39,39,17,24,6,6,0.4,0.4
2026-03-22T1100,3335A,113.3137,35.2643,焦作市,马村街道办,颗粒物(PM10),102,124,123,36,62,76,76,58,58,19,24,9,10,0.7,0.8
2026-03-22T1100,3336A,113.2464,35.2374,焦作市,焦作技师学院,NA,NA,NA,124,NA,56,NA,NA,53,53,NA,20,NA,9,NA,0.7
2026-03-22T1100,3477A,113.1656,35.2536,焦作市,中站许衡医院,颗粒物(PM10),103,126,116,34,51,84,84,80,80,16,17,11,10,0.7,0.7
2026-03-22T1100,3981A,113.2456,35.18,焦作市,原李万街道办,颗粒物(PM10),90,105,118,29,57,81,81,49,49,11,18,15,13,0.7,0.7
2026-03-22T1100,4264A,113.234,35.219,焦作市,新安路1731号,颗粒物(PM10),105,133,131,36,60,86,86,60,60,18,23,22,12,0.9,0.8
2026-03-22T1100,4295A,113.2722,35.2121,焦作市,人民路3066号,颗粒物(PM10),104,128,126,37,62,89,89,56,56,28,35,21,11,0.6,0.5
2026-03-22T1100,1708A,116.3701,23.5345,揭阳市,新兴,细颗粒物(PM2.5),52,47,41,36,25,81,81,73,72,16,19,6,8,0.7,0.7
2026-03-22T1100,1709A,116.3261,23.5442,揭阳市,西马,细颗粒物(PM2.5),58,52,46,39,25,79,79,70,70,16,17,5,7,0.7,0.7
2026-03-22T1100,1710A,116.361,23.5627,揭阳市,东兴,,49,49,41,34,26,83,83,74,71,13,17,4,8,/,/
2026-03-22T1100,1711A,116.4151,23.5295,揭阳市,渔湖,NA,NA,48,40,42,26,94,94,86,82,NA,12,4,5,/,/
2026-03-22T1100,3320A,116.4028,23.5699,揭阳市,曲溪,颗粒物(PM10),55,56,42,33,24,82,82,82,77,16,15,5,9,0.6,0.5
2026-03-22T1100,1944A,102.1691,38.5166,金昌市,天庆家园,颗粒物(PM10),136,212,104,62,34,79,79,91,86,14,7,2,16,0.7,0.7
2026-03-22T1100,4022A,102.1648,38.5369,金昌市,金川区人防中心,颗粒物(PM10),127,189,110,67,36,78,78,90,84,16,8,40,20,0.7,0.5
2026-03-22T1100,4239A,102.193042,38.531887,金昌市,长春路96号,颗粒物(PM10),127,190,105,54,33,73,73,88,81,15,6,26,15,0.9,0.8
2026-03-22T1100,1262A,119.6478,29.0773,金华市,十五中,,25,25,28,14,19,71,71,54,54,13,18,3,4,0.5,0.5
2026-03-22T1100,1263A,119.6859,29.1032,金华市,监测站,,21,21,22,14,16,44,44,35,31,30,24,4,4,0.6,0.6
2026-03-22T1100,3659A,119.656,29.1132,金华市,气象局,,24,24,25,13,16,32,32,24,20,21,20,3,3,0.6,0.6
2026-03-22T1100,1767A,121.1114,41.0879,锦州市,南山,细颗粒物(PM2.5),150,NA,110,115,103,60,60,87,71,34,28,12,13,0.8,0.9
2026-03-22T1100,1768A,121.060361,40.842794,锦州市,开发区,细颗粒物(PM2.5),123,90,124,85,103,81,81,88,82,18,22,6,9,0.6,0.8
