,O3H8_level,regioncode,O3,latitude,CO_level,SYWRW,PM10H24,NO2,O3H8,O3_level,PM10_color,PM25_color,SO2,sitename,O3H8_color,AQI,NO2_level,AQI_level,PM10H24_level,districtcode,SO2_color,longitude,NO2_color,PM25,PM10_level,CO,PM25_level,CO_color,PM25H24_color,sitecode,PM25H24_level,AQI_color,districtname,O3_color,SO2_level,PM10,PM25H24,PM10H24_color,sort,time
0,优,331127,99,28.002222,优,--,22,5,98,优,#00E400,#00E400,5,红星小学,#00E400,31,优,优,优,331100,#00E400,119.636389,#00E400,8,优,0.4,优,#00E400,#00E400,331127003,优,#00E400,丽水市,#00E400,优,17,12,#00E400,1,2026-05-06 17:00:00
1,优,331127,98,27.9772,优,--,20,5,96,优,#00E400,#00E400,4,景宁县政府,#00E400,31,优,优,优,331100,#00E400,119.6311,#00E400,4,优,0.4,优,#00E400,#00E400,331127002,优,#00E400,丽水市,#00E400,优,10,13,#00E400,1,2026-05-06 17:00:00
2,良,330327,103,27.503889,优,--,30,9,110,优,#00E400,#00E400,9,灵溪,#FFFF00,33,优,优,优,330300,#00E400,120.395278,#00E400,10,优,0.4,优,#00E400,#00E400,330327001,优,#00E400,温州市,#00E400,优,20,16,#00E400,3,2026-05-06 17:00:00
3,优,331124,103,28.4516,优,--,25,5,95,优,#00E400,#00E400,5,和平水厂,#00E400,33,优,优,优,331100,#00E400,119.4699,#00E400,6,优,0.3,优,#00E400,#00E400,331124002,优,#00E400,丽水市,#00E400,优,13,13,#00E400,3,2026-05-06 17:00:00
4,良,331126,105,27.629585,优,--,16,5,102,优,#00E400,#00E400,6,庆元监测楼,#FFFF00,33,优,优,优,331100,#00E400,119.054809,#00E400,11,优,0.3,优,#00E400,#00E400,331126001,优,#00E400,丽水市,#00E400,优,16,10,#00E400,3,2026-05-06 17:00:00
5,良,330324,106,28.044335,优,--,28,16,115,优,#00E400,#00E400,6,瓯北,#FFFF00,34,优,优,优,330300,#00E400,120.654963,#00E400,10,优,0.4,优,#00E400,#00E400,330324002,优,#00E400,温州市,#00E400,优,25,15,#00E400,6,2026-05-06 17:00:00
6,良,330326,108,27.6653,优,--,18,4,115,优,#00E400,#00E400,5,平阳县政府,#FFFF00,34,优,优,优,330300,#00E400,120.5611,#00E400,2,优,0.5,优,#00E400,#00E400,330326002,优,#00E400,温州市,#00E400,优,8,12,#00E400,6,2026-05-06 17:00:00
7,良,330922,106,30.7269,优,--,20,9,111,优,#00E400,#00E400,8,嵊泗菜园,#FFFF00,34,优,优,优,330900,#00E400,122.4464,#00E400,9,优,0.3,优,#00E400,#00E400,330922001,优,#00E400,舟山市,#00E400,优,16,11,#00E400,6,2026-05-06 17:00:00
8,良,331124,108,28.4505,优,--,23,8,105,优,#00E400,#00E400,4,松阳监测楼,#FFFF00,34,优,优,优,331100,#00E400,119.4799,#00E400,9,优,0.3,优,#00E400,#00E400,331124001,优,#00E400,丽水市,#00E400,优,14,14,#00E400,6,2026-05-06 17:00:00
9,良,331181,107,28.08007,优,--,27,5,103,优,#00E400,#00E400,8,龙泉环保大楼,#FFFF00,34,优,优,优,331100,#00E400,119.1328,#00E400,7,优,0.4,优,#00E400,#00E400,331181001,优,#00E400,丽水市,#00E400,优,15,15,#00E400,6,2026-05-06 17:00:00
10,良,330329,110,27.557,优,--,19,7,108,优,#00E400,#00E400,5,罗阳,#FFFF00,35,优,优,优,330300,#00E400,119.7084,#00E400,18,优,0.5,优,#00E400,#00E400,330329001,优,#00E400,温州市,#00E400,优,21,14,#00E400,11,2026-05-06 17:00:00
11,良,330329,112,27.5438,优,--,17,5,103,优,#00E400,#00E400,6,泰顺实验中学,#FFFF00,35,优,优,优,330300,#00E400,119.716111,#00E400,11,优,0.3,优,#00E400,#00E400,330329002,优,#00E400,温州市,#00E400,优,19,13,#00E400,11,2026-05-06 17:00:00
12,良,330881,111,28.7282,优,--,30,9,113,优,#00E400,#00E400,7,人民医院,#FFFF00,35,优,优,优,330800,#00E400,118.6227,#00E400,17,优,0.4,优,#00E400,#00E400,330881002,优,#00E400,衢州市,#00E400,优,25,16,#00E400,11,2026-05-06 17:00:00
13,良,331122,109,28.6574,优,--,18,9,106,优,#00E400,#00E400,9,缙云中学,#FFFF00,35,优,优,优,331100,#00E400,120.0696,#00E400,11,优,0.3,优,#00E400,#00E400,331122001,优,#00E400,丽水市,#00E400,优,9,12,#00E400,11,2026-05-06 17:00:00
14,良,331122,109,28.6628,优,--,23,7,108,优,#00E400,#00E400,7,信访大楼,#FFFF00,35,优,优,优,331100,#00E400,120.0856,#00E400,12,优,0.4,优,#00E400,#00E400,331122002,优,#00E400,丽水市,#00E400,优,13,11,#00E400,11,2026-05-06 17:00:00
15,良,331126,109,27.6211,优,--,19,6,106,优,#00E400,#00E400,4,庆元气象局,#FFFF00,35,优,优,优,331100,#00E400,119.0788,#00E400,10,优,0.4,优,#00E400,#00E400,331126002,优,#00E400,丽水市,#00E400,优,17,12,#00E400,11,2026-05-06 17:00:00
16,良,331181,112,28.076,优,--,26,6,108,优,#00E400,#00E400,8,粮食大楼,#FFFF00,35,优,优,优,331100,#00E400,119.1217,#00E400,9,优,0.3,优,#00E400,#00E400,331181002,优,#00E400,丽水市,#00E400,优,18,13,#00E400,11,2026-05-06 17:00:00
17,良,330784,113,28.90016,优,--,31,6,110,优,#00E400,#00E400,6,西城供电所,#FFFF00,36,优,优,优,330700,#00E400,120.01452,#00E400,7,优,0.2,优,#00E400,#00E400,330784002,优,#00E400,金华市,#00E400,优,23,14,#00E400,18,2026-05-06 17:00:00
18,良,330822,114,28.901,优,--,--,6,116,优,#00E400,#00E400,5,常山环保大楼,#FFFF00,36,优,优,--,330800,#00E400,118.5196,#00E400,4,优,0.3,优,#00E400,--,330822001,--,#00E400,衢州市,#00E400,优,18,--,--,18,2026-05-06 17:00:00
19,良,330822,115,28.9012,优,--,29,3,115,优,#00E400,#00E400,5,图书馆大楼,#FFFF00,36,优,优,优,330800,#00E400,118.5062,#00E400,4,优,0.2,优,#00E400,#00E400,330822002,优,#00E400,衢州市,#00E400,优,15,12,#00E400,18,2026-05-06 17:00:00
20,良,330381,117,27.782284,优,--,18,6,123,优,#00E400,#00E400,10,安阳新区,#FFFF00,37,优,优,优,330300,#00E400,120.650915,#00E400,6,优,0.4,优,#00E400,#00E400,330381002,优,#00E400,温州市,#00E400,优,8,13,#00E400,21,2026-05-06 17:00:00
21,良,330327,116,27.522222,优,--,31,10,128,优,#00E400,#00E400,9,苍南中学,#FFFF00,37,优,优,优,330300,#00E400,120.416111,#00E400,8,优,0.4,优,#00E400,#00E400,330327004,优,#00E400,温州市,#00E400,优,18,18,#00E400,21,2026-05-06 17:00:00
22,良,330383,117,27.5812,优,--,25,16,123,优,#00E400,#00E400,9,龙港,#FFFF00,37,优,优,优,330300,#00E400,120.5489,#00E400,13,优,0.4,优,#00E400,#00E400,330327002,优,#00E400,温州市,#00E400,优,21,16,#00E400,21,2026-05-06 17:00:00
23,良,331024,118,28.7403,优,--,18,9,115,优,#00E400,#00E400,5,新生中学,#FFFF00,37,优,优,优,331000,#00E400,120.4728,#00E400,7,优,0.4,优,#00E400,#00E400,331024002,优,#00E400,台州市,#00E400,优,13,10,#00E400,21,2026-05-06 17:00:00
24,良,331123,117,28.5991,优,--,22,4,109,优,#00E400,#00E400,4,遂昌民政局,#FFFF00,37,优,优,优,331100,#00E400,119.2622,#00E400,7,优,0.4,优,#00E400,#00E400,331123001,优,#00E400,丽水市,#00E400,优,12,13,#00E400,21,2026-05-06 17:00:00
25,良,331125,117,28.1173,优,--,17,11,110,优,#00E400,#00E400,7,云和监测楼,#FFFF00,37,优,优,优,331100,#00E400,119.5626,#00E400,7,优,0.3,优,#00E400,#00E400,331125001,优,#00E400,丽水市,#00E400,优,14,10,#00E400,21,2026-05-06 17:00:00
26,良,330324,121,28.158269,优,--,26,10,120,优,#00E400,#00E400,5,上塘,#FFFF00,38,优,优,优,330300,#00E400,120.694244,#00E400,12,优,0.4,优,#00E400,#00E400,330324001,优,#00E400,温州市,#00E400,优,25,14,#00E400,27,2026-05-06 17:00:00
27,良,330784,121,28.8854,优,--,24,6,120,优,#00E400,#00E400,7,永康一中,#FFFF00,38,优,优,优,330700,#00E400,120.0439,#00E400,4,优,0.4,优,#00E400,#00E400,330784001,优,#00E400,金华市,#00E400,优,18,11,#00E400,27,2026-05-06 17:00:00
28,良,330921,120,30.2517,优,--,23,13,112,优,#00E400,#00E400,8,岱山高亭,#FFFF00,38,优,优,优,330900,#00E400,122.1958,#00E400,11,优,0.5,优,#00E400,#00E400,330921002,优,#00E400,舟山市,#00E400,优,24,11,#00E400,27,2026-05-06 17:00:00
29,良,331081,119,28.37558,优,--,18,10,116,优,#00E400,#00E400,5,温岭环监站,#FFFF00,38,优,优,优,331000,#00E400,121.36579,#00E400,7,优,0.2,优,#00E400,#00E400,331081001,优,#00E400,台州市,#00E400,优,13,15,#00E400,27,2026-05-06 17:00:00
30,良,331125,120,28.1062,优,--,--,9,113,优,#00E400,#00E400,7,云和三中,#FFFF00,38,优,优,--,331100,#00E400,119.5728,#00E400,9,优,0.3,优,#00E400,#00E400,331125002,优,#00E400,丽水市,#00E400,优,32,24,--,27,2026-05-06 17:00:00
31,良,330781,123,29.229931,优,--,29,11,115,优,#00E400,#00E400,10,兰溪八中,#FFFF00,39,优,优,优,330700,#00E400,119.475172,#00E400,15,优,0.4,优,#00E400,#00E400,330781002,优,#00E400,金华市,#00E400,优,23,17,#00E400,32,2026-05-06 17:00:00
32,良,330881,124,28.7465,优,--,36,8,111,优,#00E400,#00E400,4,江山环保大楼,#FFFF00,39,优,优,优,330800,#00E400,118.6301,#00E400,16,优,0.4,优,#00E400,#00E400,330881001,优,#00E400,衢州市,#00E400,优,27,20,#00E400,32,2026-05-06 17:00:00
33,良,331123,122,28.5839,优,--,22,6,117,优,#00E400,#00E400,7,遂昌中学,#FFFF00,39,优,优,优,331100,#00E400,119.2656,#00E400,11,优,0.3,优,#00E400,#00E400,331123002,优,#00E400,丽水市,#00E400,优,15,12,#00E400,32,2026-05-06 17:00:00
34,良,331024,128,28.8589,优,--,21,10,112,优,#00E400,#00E400,8,仙居环监站,#FFFF00,40,优,优,优,331000,#00E400,120.7248,#00E400,18,优,0.4,优,#00E400,#00E400,331024001,优,#00E400,台州市,#00E400,优,29,10,#00E400,35,2026-05-06 17:00:00
35,良,331022,127,29.11779,优,--,25,10,119,优,#00E400,#00E400,6,三门环监楼,#FFFF00,40,优,优,优,331000,#00E400,121.382189,#00E400,10,优,0.4,优,#00E400,#00E400,331022001,优,#00E400,台州市,#00E400,优,21,15,#00E400,35,2026-05-06 17:00:00
36,良,330122,131,29.7955,优,--,33,8,130,优,#00E400,#00E400,6,桐庐江南,#FFFF00,41,优,优,优,330100,#00E400,119.6874,#00E400,11,优,0.3,优,#00E400,#00E400,330122001,优,#00E400,杭州市,#00E400,优,16,20,#00E400,37,2026-05-06 17:00:00
37,良,330305,130,27.8342,优,--,21,5,118,优,#00E400,#00E400,8,洞头气象局,#FFFF00,41,优,优,优,330300,#00E400,121.1502,#00E400,9,优,0.4,优,#00E400,#00E400,330305001,优,#00E400,温州市,#00E400,优,13,15,#00E400,37,2026-05-06 17:00:00
38,良,330382,129,28.0297,优,--,23,10,131,优,#00E400,#00E400,5,柳市,#FFFF00,41,优,优,优,330300,#00E400,120.891,#00E400,4,优,0.4,优,#00E400,#00E400,330382002,优,#00E400,温州市,#00E400,优,11,12,#00E400,37,2026-05-06 17:00:00
39,良,330781,129,29.216166,优,--,25,16,122,优,#00E400,#00E400,9,兰溪监测站,#FFFF00,41,优,优,优,330700,#00E400,119.459992,#00E400,13,优,0.4,优,#00E400,#00E400,330781001,优,#00E400,金华市,#00E400,优,20,16,#00E400,37,2026-05-06 17:00:00
40,良,330921,131,30.2669,优,--,23,19,116,优,#00E400,#00E400,7,岱山环保大楼,#FFFF00,41,优,优,优,330900,#00E400,122.2199,#00E400,11,优,0.3,优,#00E400,#00E400,330921001,优,#00E400,舟山市,#00E400,优,24,12,#00E400,37,2026-05-06 17:00:00
41,良,330383,131,27.5617,优,--,24,10,144,优,#00E400,#00E400,10,龙港实验中学,#FFFF00,41,优,优,优,330300,#00E400,120.5355,#00E400,8,优,0.3,优,#00E400,#00E400,330303101,优,#00E400,温州市,#00E400,优,16,14,#00E400,37,2026-05-06 17:00:00
42,良,330213,132,29.6774,优,--,23,14,138,优,#00E400,#00E400,5,大桥市场,#FFFF00,42,优,优,优,330200,#00E400,121.4237,#00E400,9,优,0.4,优,#00E400,#00E400,330213001,优,#00E400,宁波市,#00E400,优,21,11,#00E400,43,2026-05-06 17:00:00
43,良,330421,133,30.836,优,--,32,8,137,优,#00E400,#00E400,8,嘉善监测大楼,#FFFF00,42,优,优,优,330400,#00E400,120.9226,#00E400,13,优,0.3,优,#00E400,#00E400,330421001,优,#00E400,嘉兴市,#00E400,优,32,15,#00E400,43,2026-05-06 17:00:00
44,良,330624,134,29.4938,优,--,23,8,126,优,#00E400,#00E400,5,城东站,#FFFF00,42,优,优,优,330600,#00E400,120.9109,#00E400,9,优,0.3,优,#00E400,#00E400,330624002,优,#00E400,绍兴市,#00E400,优,21,14,#00E400,43,2026-05-06 17:00:00
45,良,330122,136,29.8058,优,--,40,5,130,优,#00E400,#00E400,5,桐庐江北,#FFFF00,43,优,优,优,330100,#00E400,119.669,#00E400,7,优,0.4,优,#00E400,#00E400,330122002,优,#00E400,杭州市,#00E400,优,16,20,#00E400,46,2026-05-06 17:00:00
46,良,330182,136,29.4638,优,--,29,6,133,优,#00E400,#00E400,6,第二中学,#FFFF00,43,优,优,优,330100,#00E400,119.2821,#00E400,14,优,0.4,优,#00E400,#00E400,330182002,优,#00E400,杭州市,#00E400,优,23,17,#00E400,46,2026-05-06 17:00:00
47,良,330282,135,30.1636,优,--,28,26,146,优,#00E400,#00E400,7,慈溪环保大楼,#FFFF00,43,优,优,优,330200,#00E400,121.2677,#00E400,16,优,0.6,优,#00E400,#00E400,330282001,优,#00E400,宁波市,#00E400,优,39,12,#00E400,46,2026-05-06 17:00:00
48,良,330824,136,29.1343,优,--,26,4,122,优,#00E400,#00E400,6,开化气象局,#FFFF00,43,优,优,优,330800,#00E400,118.402,#00E400,8,优,0.2,优,#00E400,#00E400,330824001,优,#00E400,衢州市,#00E400,优,25,11,#00E400,46,2026-05-06 17:00:00
49,良,331022,135,29.1028,优,--,27,9,128,优,#00E400,#00E400,6,心湖站,#FFFF00,43,优,优,优,331000,#00E400,121.3918,#00E400,10,优,0.3,优,#00E400,#00E400,331022002,优,#00E400,台州市,#00E400,优,26,13,#00E400,46,2026-05-06 17:00:00
50,良,331081,136,28.39136,优,--,18,3,132,优,#00E400,#00E400,3,之江高级中学,#FFFF00,43,优,优,优,331000,#00E400,121.37696,#00E400,6,优,0.4,优,#00E400,#00E400,331081002,优,#00E400,台州市,#00E400,优,11,10,#00E400,46,2026-05-06 17:00:00
51,良,330182,139,29.4769,优,--,31,7,133,优,#00E400,#00E400,9,建德监测大楼,#FFFF00,44,优,优,优,330100,#00E400,119.2711,#00E400,11,优,0.4,优,#00E400,#00E400,330182T_2,优,#00E400,杭州市,#00E400,优,30,16,#00E400,52,2026-05-06 17:00:00
52,良,330424,138,30.5042,优,--,28,20,142,优,#00E400,#00E400,6,高级中学,#FFFF00,44,优,优,优,330400,#00E400,120.9413,#00E400,9,优,0.3,优,#00E400,#00E400,330424001,优,#00E400,嘉兴市,#00E400,优,23,14,#00E400,52,2026-05-06 17:00:00
53,良,330683,138,29.5663,优,--,27,13,123,优,#00E400,#00E400,5,丽湖小区,#FFFF00,44,优,优,优,330600,#00E400,120.8173,#00E400,11,优,0.3,优,#00E400,#00E400,330683002,优,#00E400,绍兴市,#00E400,优,26,15,#00E400,52,2026-05-06 17:00:00
54,良,330213,143,29.693,优,--,24,8,135,优,#00E400,#00E400,5,溪口政府大楼,#FFFF00,45,优,优,优,330200,#00E400,121.2774,#00E400,11,优,0.3,优,#00E400,#00E400,330283T_1,优,#00E400,宁波市,#00E400,优,23,14,#00E400,55,2026-05-06 17:00:00
55,良,330424,142,30.5299,优,--,27,9,145,优,#00E400,#00E400,5,海盐商贸学校,#FFFF00,45,优,优,优,330400,#00E400,120.9293,#00E400,10,优,0.3,优,#00E400,#00E400,330424002,优,#00E400,嘉兴市,#00E400,优,21,14,#00E400,55,2026-05-06 17:00:00
56,良,330723,142,28.896108,优,--,30,16,147,优,#00E400,#00E400,9,武义县政府,#FFFF00,45,优,优,优,330700,#00E400,119.811352,#00E400,10,优,0.4,优,#00E400,#00E400,330723001,优,#00E400,金华市,#00E400,优,22,15,#00E400,55,2026-05-06 17:00:00
57,良,330783,144,29.30093,优,--,32,8,130,优,#00E400,#00E400,6,广厦学院,#FFFF00,45,优,优,优,330700,#00E400,120.24157,#00E400,8,优,0.4,优,#00E400,#00E400,330783001,优,#00E400,金华市,#00E400,优,20,14,#00E400,55,2026-05-06 17:00:00
58,良,330783,143,29.27739,优,--,26,10,131,优,#00E400,#00E400,7,东阳环保大楼,#FFFF00,45,优,优,优,330700,#00E400,120.23692,#00E400,8,优,0.4,优,#00E400,#00E400,330783002,优,#00E400,金华市,#00E400,优,16,17,#00E400,55,2026-05-06 17:00:00
59,良,330824,142,29.1478,优,--,21,6,125,优,#00E400,#00E400,8,开化监测大楼,#FFFF00,45,优,优,优,330800,#00E400,118.4108,#00E400,9,优,0.2,优,#00E400,#00E400,330824002,优,#00E400,衢州市,#00E400,优,17,13,#00E400,55,2026-05-06 17:00:00
60,良,331083,143,28.2221,优,--,25,10,132,优,#00E400,#00E400,5,楚门中心小学,#FFFF00,45,优,优,优,331000,#00E400,121.2846,#00E400,21,优,0.3,优,#00E400,#00E400,331021002,优,#00E400,台州市,#00E400,优,29,13,#00E400,55,2026-05-06 17:00:00
61,良,331023,143,29.1342,优,--,26,16,124,优,#00E400,#00E400,6,天台实验中学,#FFFF00,45,优,优,优,331000,#00E400,121.0349,#00E400,18,优,0.2,优,#00E400,#00E400,331023002,优,#00E400,台州市,#00E400,优,39,13,#00E400,55,2026-05-06 17:00:00
62,良,330212,143,29.7736,优,--,17,5,137,优,#00E400,#00E400,4,钱湖水厂,#FFFF00,45,优,优,优,330200,#00E400,121.6330,#00E400,10,优,0.4,优,#00E400,#00E400,2013302120001,优,#00E400,宁波市,#00E400,优,20,9,#00E400,55,2026-05-06 17:00:00
63,良,330127,146,29.5995,优,--,25,4,125,优,#00E400,#00E400,12,淳安环保大楼,#FFFF00,46,优,优,优,330100,#00E400,119.0481,#00E400,13,优,0.5,优,#00E400,#00E400,330127001,优,#00E400,杭州市,#00E400,优,24,14,#00E400,64,2026-05-06 17:00:00
64,良,330213,145,29.6506,优,--,25,10,138,优,#00E400,#00E400,10,奉化教育局,#FFFF00,46,优,优,优,330200,#00E400,121.4042,#00E400,14,优,0.2,优,#00E400,#00E400,330283005,优,#00E400,宁波市,#00E400,优,31,12,#00E400,64,2026-05-06 17:00:00
65,良,330328,147,27.7838,优,--,27,8,107,优,#00E400,#00E400,6,大峃,#FFFF00,46,优,优,优,330300,#00E400,120.085,#00E400,27,优,0.3,优,#00E400,#00E400,330328001,优,#00E400,温州市,#00E400,优,32,16,#00E400,64,2026-05-06 17:00:00
66,良,330726,147,29.439787,优,--,36,11,142,优,#00E400,#00E400,4,浦江中学,#FFFF00,46,优,优,优,330700,#00E400,119.924638,#00E400,11,优,0.2,优,#00E400,#00E400,330726002,优,#00E400,金华市,#00E400,优,29,16,#00E400,64,2026-05-06 17:00:00
67,良,330727,146,29.039869,优,--,22,11,136,优,#00E400,#00E400,6,南园初中,#FFFF00,46,优,优,优,330700,#00E400,120.440622,#00E400,15,优,0.4,优,#00E400,#00E400,330727003,优,#00E400,金华市,#00E400,优,21,11,#00E400,64,2026-05-06 17:00:00
68,良,331023,146,29.1504,优,--,24,11,122,优,#00E400,#00E400,6,育青中学,#FFFF00,46,优,优,优,331000,#00E400,121.0091,#00E400,15,优,0.3,优,#00E400,#00E400,331023001,优,#00E400,台州市,#00E400,优,24,13,#00E400,64,2026-05-06 17:00:00
69,良,330723,145,28.9178,优,--,27,12,156,优,#00E400,#00E400,8,武义北岭幼儿园,#FFFF00,46,优,优,优,330700,#00E400,119.8022,#00E400,12,优,0.4,优,#00E400,#00E400,330723003,优,#00E400,金华市,#00E400,优,15,18,#00E400,64,2026-05-06 17:00:00
70,良,330282,145,30.1786,优,--,29,21,156,优,#00E400,#00E400,7,慈溪实验小学,#FFFF00,47,优,优,优,330200,#00E400,121.2525,#00E400,17,优,0.5,优,#00E400,#00E400,330282002,优,#00E400,宁波市,#00E400,优,47,12,#00E400,71,2026-05-06 17:00:00
71,良,330226,149,29.2878,优,--,24,8,137,优,#00E400,#00E400,6,宁海城南站,#FFFF00,47,优,优,优,330200,#00E400,121.4201,#00E400,10,优,0.2,优,#00E400,#00E400,330226002,优,#00E400,宁波市,#00E400,优,22,13,#00E400,71,2026-05-06 17:00:00
72,良,330225,149,29.4767,优,--,21,7,136,优,#00E400,#00E400,8,文峰小学,#FFFF00,47,优,优,优,330200,#00E400,121.8864,#00E400,10,优,0.4,优,#00E400,#00E400,330225001,优,#00E400,宁波市,#00E400,优,19,11,#00E400,71,2026-05-06 17:00:00
73,良,330225,150,29.2003,优,--,22,12,146,优,#00E400,#00E400,6,石浦新港小学,#FFFF00,47,优,优,优,330200,#00E400,121.934,#00E400,6,优,0.4,优,#00E400,#00E400,330225002,优,#00E400,宁波市,#00E400,优,11,13,#00E400,71,2026-05-06 17:00:00
74,良,330328,148,27.804722,优,--,22,7,116,优,#00E400,#00E400,8,文成中学,#FFFF00,47,优,优,优,330300,#00E400,120.077222,#00E400,14,优,0.4,优,#00E400,#00E400,330328002,优,#00E400,温州市,#00E400,优,40,11,#00E400,71,2026-05-06 17:00:00
75,良,330683,149,29.5901,优,--,26,8,130,优,#00E400,#00E400,5,马寅初初中,#FFFF00,47,优,优,优,330600,#00E400,120.8249,#00E400,10,优,0.3,优,#00E400,#00E400,330683001,优,#00E400,绍兴市,#00E400,优,17,14,#00E400,71,2026-05-06 17:00:00
76,良,330726,148,29.465746,优,--,28,12,142,优,#00E400,#00E400,6,浦江实验中学,#FFFF00,47,优,优,优,330700,#00E400,119.875227,#00E400,12,优,0.3,优,#00E400,#00E400,330726001,优,#00E400,金华市,#00E400,优,20,15,#00E400,71,2026-05-06 17:00:00
77,良,330727,149,29.051486,优,--,18,10,136,优,#00E400,#00E400,8,国税大楼,#FFFF00,47,优,优,优,330700,#00E400,120.438346,#00E400,4,优,0.4,优,#00E400,#00E400,330727002,优,#00E400,金华市,#00E400,优,18,8,#00E400,71,2026-05-06 17:00:00
78,良,330825,148,29.0392,优,--,34,6,146,优,#00E400,#00E400,6,建设大楼,#FFFF00,47,优,优,优,330800,#00E400,119.1675,#00E400,10,优,0.3,优,#00E400,#00E400,330825001,优,#00E400,衢州市,#00E400,优,19,17,#00E400,71,2026-05-06 17:00:00
79,良,330226,152,29.3125,优,--,22,8,137,优,#00E400,#00E400,6,宁海水利局,#FFFF00,48,优,优,优,330200,#00E400,121.4306,#00E400,9,优,0.3,优,#00E400,#00E400,330226001,优,#00E400,宁波市,#00E400,优,18,13,#00E400,80,2026-05-06 17:00:00
80,良,330624,152,29.5036,优,--,24,8,143,优,#00E400,#00E400,4,钟楼站,#FFFF00,48,优,优,优,330600,#00E400,120.8938,#00E400,9,优,0.4,优,#00E400,#00E400,330624001,优,#00E400,绍兴市,#00E400,优,23,12,#00E400,80,2026-05-06 17:00:00
81,良,331082,151,28.873,优,--,25,11,135,优,#00E400,#00E400,7,临海环保大楼,#FFFF00,48,优,优,优,331000,#00E400,121.1769,#00E400,13,优,0.3,优,#00E400,#00E400,331082001,优,#00E400,台州市,#00E400,优,28,13,#00E400,80,2026-05-06 17:00:00
82,良,331082,151,28.84326,优,--,29,14,137,优,#00E400,#00E400,5,巾山实验小学,#FFFF00,48,优,优,优,331000,#00E400,121.136,#00E400,18,优,0.4,优,#00E400,#00E400,331082002,优,#00E400,台州市,#00E400,优,37,15,#00E400,80,2026-05-06 17:00:00
83,良,330127,154,29.605,优,--,25,4,143,优,#00E400,#00E400,13,老年活动中心,#FFFF00,49,优,优,优,330100,#00E400,119.0372,#00E400,31,优,0.6,优,#00E400,#00E400,330127T_4,优,#00E400,杭州市,#00E400,优,46,14,#00E400,84,2026-05-06 17:00:00
84,良,330281,156,30.0497,优,--,26,11,144,优,#00E400,#00E400,6,龙山公园,#FFFF00,49,优,优,优,330200,#00E400,121.1475,#00E400,15,优,0.4,优,#00E400,#00E400,330281001,优,#00E400,宁波市,#00E400,优,30,14,#00E400,84,2026-05-06 17:00:00
85,良,330281,155,30.0358,优,--,25,18,145,优,#00E400,#00E400,8,姚江小学,#FFFF00,49,优,优,优,330200,#00E400,121.1221,#00E400,14,优,0.3,优,#00E400,#00E400,330281002,优,#00E400,宁波市,#00E400,优,27,15,#00E400,84,2026-05-06 17:00:00
86,良,330523,156,30.6422,优,--,41,12,140,优,#00E400,#00E400,8,安吉实验小学,#FFFF00,49,优,优,优,330500,#00E400,119.6768,#00E400,9,优,0.3,优,#00E400,#00E400,330523001,优,#00E400,湖州市,#00E400,优,30,19,#00E400,84,2026-05-06 17:00:00
87,良,330482,160,30.7292,优,--,28,11,146,优,#00E400,#00E400,10,陆家桥村,#FFFF00,50,优,优,优,330400,#00E400,120.9953,#00E400,13,优,0.4,优,#00E400,#00E400,330482002,优,#00E400,嘉兴市,#00E400,优,28,15,#00E400,88,2026-05-06 17:00:00
88,良,330421,159,30.8307,优,--,30,6,154,优,#00E400,#00E400,11,气象观测台,#FFFF00,50,优,优,优,330400,#00E400,120.9356,#00E400,17,优,0.4,优,#00E400,#00E400,330421002,优,#00E400,嘉兴市,#00E400,优,36,15,#00E400,88,2026-05-06 17:00:00
89,良,330483,157,30.6488,优,--,40,16,141,优,#00E400,#00E400,6,茅盾小学,#FFFF00,50,优,优,优,330400,#00E400,120.5498,#00E400,17,优,0.4,优,#00E400,#00E400,330483001,优,#00E400,嘉兴市,#00E400,优,40,20,#00E400,88,2026-05-06 17:00:00
90,良,330483,157,30.625,优,--,38,18,142,优,#00E400,#00E400,6,振东新六中站,#FFFF00,50,优,优,优,330400,#00E400,120.5613,#00E400,17,优,0.4,优,#00E400,#00E400,330483002,优,#00E400,嘉兴市,#00E400,优,38,19,#00E400,88,2026-05-06 17:00:00
91,良,330681,160,29.6818,优,--,26,5,141,优,#00E400,#00E400,5,杨树畈,#FFFF00,50,优,优,优,330600,#00E400,120.2359,#00E400,18,优,0.2,优,#00E400,#00E400,330681001,优,#00E400,绍兴市,#00E400,优,39,16,#00E400,88,2026-05-06 17:00:00
92,良,331083,158,28.12715,优,--,18,9,142,优,#00E400,#00E400,9,玉环环监站,#FFFF00,50,优,优,优,331000,#00E400,121.2339,#00E400,9,优,0.6,优,#00E400,#00E400,331021001,优,#00E400,台州市,#00E400,优,22,11,#00E400,88,2026-05-06 17:00:00
93,良,330481,161,30.5137,优,O₃,38,9,145,良,#00E400,#00E400,8,硖石街道,#FFFF00,52,优,良,优,330400,#00E400,120.7082,#00E400,12,优,0.4,优,#00E400,#00E400,330481002,优,#FFFF00,嘉兴市,#FFFF00,优,32,18,#00E400,94,2026-05-06 17:00:00
94,良,330782,161,29.335473,优,O₃,28,12,149,良,#00E400,#00E400,5,北苑,#FFFF00,52,优,良,优,330700,#00E400,120.078609,#00E400,10,优,0.3,优,#00E400,#00E400,330782001,优,#FFFF00,金华市,#FFFF00,优,21,17,#00E400,94,2026-05-06 17:00:00
95,良,330523,162,30.5974,优,O₃,28,4,144,良,#00E400,#00E400,6,安吉城东,#FFFF00,53,优,良,优,330500,#00E400,119.6953,#00E400,17,优,0.3,优,#00E400,#00E400,330523002,优,#FFFF00,湖州市,#FFFF00,优,20,17,#00E400,96,2026-05-06 17:00:00
96,良,330825,162,29.0464,优,O₃,38,6,146,良,#00E400,#00E400,5,龙游二高,#FFFF00,53,优,良,优,330800,#00E400,119.204,#00E400,10,优,0.3,优,#00E400,#00E400,330825002,优,#FFFF00,衢州市,#FFFF00,优,23,20,#00E400,96,2026-05-06 17:00:00
97,良,330782,163,29.305096,优,O₃,34,12,160,良,#00E400,#00E400,6,江东,#FFFF00,54,优,良,优,330700,#00E400,120.090442,#00E400,12,优,0.4,优,#00E400,#00E400,330782002,优,#FFFF00,金华市,#FFFF00,优,24,16,#00E400,98,2026-05-06 17:00:00
98,良,330681,166,29.7257,优,O₃,25,6,146,良,#00E400,#00E400,7,城新小学,#FFFF00,58,优,良,优,330600,#00E400,120.272,#00E400,14,优,0.2,优,#00E400,#00E400,330681505,优,#FFFF00,绍兴市,#FFFF00,优,21,14,#00E400,99,2026-05-06 17:00:00
99,良,330481,166,30.5261,优,O₃,38,8,148,良,#00E400,#00E400,7,海宁监测大楼,#FFFF00,58,优,良,优,330400,#00E400,120.6739,#00E400,12,优,0.2,优,#00E400,#00E400,330481001,优,#FFFF00,嘉兴市,#FFFF00,优,31,18,#00E400,99,2026-05-06 17:00:00
100,良,331121,166,28.1341,优,O₃,28,9,130,良,#00E400,#00E400,6,塔山小学,#FFFF00,58,优,良,优,331100,#00E400,120.2936,#00E400,22,优,0.4,优,#00E400,#00E400,331121001,优,#FFFF00,丽水市,#FFFF00,优,39,16,#00E400,99,2026-05-06 17:00:00
101,良,330681,169,29.726389,优,O₃,31,7,142,良,#00E400,#00E400,6,青少年宫,#FFFF00,62,优,良,优,330600,#00E400,120.199722,#00E400,18,优,0.2,优,#00E400,#00E400,330681002,优,#FFFF00,绍兴市,#FFFF00,优,26,16,#00E400,102,2026-05-06 17:00:00
102,良,330483,170,30.6355,优,O₃,34,14,147,良,#00E400,#00E400,11,文化中心,#FFFF00,63,优,良,优,330400,#00E400,120.5795,#00E400,16,优,0.4,优,#00E400,#00E400,330483003,优,#FFFF00,嘉兴市,#FFFF00,优,34,17,#00E400,103,2026-05-06 17:00:00
103,良,330521,171,30.5231,优,O₃,39,9,148,良,#00E400,#00E400,7,地信科创园,#FFFF00,64,优,良,优,330500,#00E400,119.9781,#00E400,13,优,0.4,优,#00E400,#00E400,330521001,优,#FFFF00,湖州市,#FFFF00,优,31,19,#00E400,104,2026-05-06 17:00:00
104,良,330110,172,30.2635,优,O₃,38,13,154,良,#00E400,#00E400,7,海辰小学,#FFFF00,65,优,良,优,330100,#00E400,119.9842,#00E400,10,优,0.4,优,#00E400,#00E400,2013301100001,优,#FFFF00,杭州市,#FFFF00,优,23,20,#00E400,105,2026-05-06 17:00:00
105,良,330482,173,30.6937,优,O₃,28,13,156,良,#00E400,#00E400,10,平湖幼儿园,#FFFF00,67,优,良,优,330400,#00E400,121.0259,#00E400,12,优,0.3,优,#00E400,#00E400,330482001,优,#FFFF00,嘉兴市,#FFFF00,优,27,14,#00E400,106,2026-05-06 17:00:00
106,良,330803,174,28.9844,优,O₃,32,7,156,良,#00E400,#00E400,8,衢州三中（市）,#FFFF00,68,优,良,优,330800,#00E400,118.9628,#00E400,11,优,0.4,优,#00E400,#00E400,330803704,优,#FFFF00,衢州市,#FFFF00,优,20,19,#00E400,107,2026-05-06 17:00:00
107,良,330522,175,31.0263,优,O₃,40,13,142,良,#00E400,#00E400,7,龙山新区,#FFFF00,69,优,良,优,330500,#00E400,119.9046,#00E400,13,优,0.3,优,#00E400,#00E400,330522002,优,#FFFF00,湖州市,#FFFF00,优,27,21,#00E400,108,2026-05-06 17:00:00
108,良,330782,175,29.3686,优,O₃,33,12,159,良,#00E400,#00E400,7,第五中学,#FFFF00,69,优,良,优,330700,#00E400,120.1345,#00E400,14,优,0.4,优,#00E400,#00E400,330782003,优,#FFFF00,金华市,#FFFF00,优,24,15,#00E400,108,2026-05-06 17:00:00
109,良,330481,181,30.5524,优,O₃,35,12,159,良,#00E400,#00E400,8,胜利社区,#FFFF00,77,优,良,优,330400,#00E400,120.6713,#00E400,12,优,0.4,优,#00E400,#00E400,330481003,优,#FFFF00,嘉兴市,#FFFF00,优,31,18,#00E400,110,2026-05-06 17:00:00
110,良,330782,181,29.2637,优,O₃,--,11,152,良,#00E400,#00E400,4,儿童公园,#FFFF00,77,优,良,--,330700,#00E400,120.0321,#00E400,17,优,0.3,优,#00E400,--,330782004,--,#FFFF00,金华市,#FFFF00,优,32,--,--,110,2026-05-06 17:00:00
111,良,330521,181,30.548493,优,O₃,38,6,156,良,#00E400,#00E400,6,春晖小学,#FFFF00,77,优,良,优,330500,#00E400,119.9505,#00E400,15,优,0.4,优,#00E400,#00E400,330521003,优,#FFFF00,湖州市,#FFFF00,优,28,21,#00E400,110,2026-05-06 17:00:00
112,良,330522,184,31.0143,优,O₃,38,16,156,良,#00E400,#00E400,7,职教中心,#FFFF00,80,优,良,优,330500,#00E400,119.8935,#00E400,15,优,0.3,优,#00E400,#00E400,330522001,优,#FFFF00,湖州市,#FFFF00,优,29,21,#00E400,113,2026-05-06 17:00:00
113,轻度污染,330483,186,30.7369,优,O₃,38,12,165,良,#00E400,#00E400,8,植材小学,#FF7E00,83,优,良,优,330400,#00E400,120.4902,#00E400,16,优,0.5,优,#00E400,#00E400,330483509,优,#FFFF00,嘉兴市,#FFFF00,优,40,18,#00E400,114,2026-05-06 17:00:00
114,良,330382,131,28.1209,优,--,19,8,127,优,--,--,5,乐成,#FFFF00,--,优,--,优,330300,#00E400,120.9659,#00E400,--,--,0.3,--,#00E400,#00E400,330382001,优,--,温州市,#00E400,优,--,10,#00E400,115,2026-05-06 17:00:00
115,--,330381,--,27.791645,--,--,--,--,--,--,--,--,--,花园桥,--,--,--,--,--,330300,--,120.62372,--,--,--,--,--,--,--,330381001,--,--,温州市,--,--,--,--,--,115,2026-05-06 17:00:00
116,良,330326,110,27.6593,优,--,17,2,116,优,#00E400,#00E400,--,平阳监测站,#FFFF00,--,优,--,优,330300,--,120.5705,#00E400,3,优,0.6,优,#00E400,#00E400,330326001,优,--,温州市,#00E400,--,4,12,#00E400,115,2026-05-06 17:00:00
117,良,331121,177,28.1094,--,--,29,12,129,良,#00E400,#00E400,5,青田中学,#FFFF00,--,优,--,优,331100,#00E400,120.3161,#00E400,22,优,--,优,--,#00E400,331121002,优,--,丽水市,#FFFF00,优,45,16,#00E400,115,2026-05-06 17:00:00
