,O3H8_level,regioncode,O3,latitude,CO_level,SYWRW,PM10H24,NO2,O3H8,O3_level,PM10_color,PM25_color,SO2,sitename,O3H8_color,AQI,NO2_level,AQI_level,PM10H24_level,districtcode,SO2_color,longitude,NO2_color,PM25,PM10_level,CO,PM25_level,CO_color,PM25H24_color,sitecode,PM25H24_level,AQI_color,districtname,O3_color,SO2_level,PM10,PM25H24,PM10H24_color,sort,time
0,优,331125,42,28.1173,优,--,16,10,63,优,#00E400,#00E400,6,云和监测楼,#00E400,14,优,优,优,331100,#00E400,119.5626,#00E400,9,优,0.4,优,#00E400,#00E400,331125001,优,#00E400,丽水市,#00E400,优,13,12,#00E400,1,2026-05-09 22:00:00
1,优,331127,30,28.002222,优,--,14,11,57,优,#00E400,#00E400,6,红星小学,#00E400,17,优,优,优,331100,#00E400,119.636389,#00E400,9,优,0.4,优,#00E400,#00E400,331127003,优,#00E400,丽水市,#00E400,优,17,8,#00E400,2,2026-05-09 22:00:00
2,优,331126,33,27.6211,优,--,12,7,56,优,#00E400,#00E400,4,庆元气象局,#00E400,17,优,优,优,331100,#00E400,119.0788,#00E400,11,优,0.7,优,#00E400,#00E400,331126002,优,#00E400,丽水市,#00E400,优,17,9,#00E400,2,2026-05-09 22:00:00
3,优,330328,55,27.804722,优,--,13,5,84,优,#00E400,#00E400,7,文成中学,#00E400,18,优,优,优,330300,#00E400,120.077222,#00E400,9,优,0.3,优,#00E400,#00E400,330328002,优,#00E400,温州市,#00E400,优,14,8,#00E400,4,2026-05-09 22:00:00
4,优,331024,55,28.7403,优,--,10,20,80,优,#00E400,#00E400,5,新生中学,#00E400,18,优,优,优,331000,#00E400,120.4728,#00E400,7,优,0.3,优,#00E400,#00E400,331024002,优,#00E400,台州市,#00E400,优,15,5,#00E400,4,2026-05-09 22:00:00
5,优,331127,28,27.9772,优,--,15,18,57,优,#00E400,#00E400,4,景宁县政府,#00E400,18,优,优,优,331100,#00E400,119.6311,#00E400,12,优,0.5,优,#00E400,#00E400,331127002,优,#00E400,丽水市,#00E400,优,13,9,#00E400,4,2026-05-09 22:00:00
6,优,331124,55,28.4505,优,--,17,20,74,优,#00E400,#00E400,5,松阳监测楼,#00E400,19,优,优,优,331100,#00E400,119.4799,#00E400,10,优,0.4,优,#00E400,#00E400,331124001,优,#00E400,丽水市,#00E400,优,19,13,#00E400,7,2026-05-09 22:00:00
7,优,331123,20,28.5991,优,--,18,19,50,优,#00E400,#00E400,4,遂昌民政局,#00E400,20,优,优,优,331100,#00E400,119.2622,#00E400,11,优,0.5,优,#00E400,#00E400,331123001,优,#00E400,丽水市,#00E400,优,20,10,#00E400,8,2026-05-09 22:00:00
8,优,331123,21,28.5839,优,--,17,11,43,优,#00E400,#00E400,7,遂昌中学,#00E400,20,优,优,优,331100,#00E400,119.2656,#00E400,14,优,0.4,优,#00E400,#00E400,331123002,优,#00E400,丽水市,#00E400,优,20,12,#00E400,8,2026-05-09 22:00:00
9,优,331124,62,28.4516,优,--,20,18,80,优,#00E400,#00E400,6,和平水厂,#00E400,20,优,优,优,331100,#00E400,119.4699,#00E400,10,优,0.4,优,#00E400,#00E400,331124002,优,#00E400,丽水市,#00E400,优,17,11,#00E400,8,2026-05-09 22:00:00
10,良,330182,55,29.4638,优,--,26,39,113,优,#00E400,#00E400,4,第二中学,#FFFF00,21,优,优,优,330100,#00E400,119.2821,#00E400,12,优,0.5,优,#00E400,#00E400,330182002,优,#00E400,杭州市,#00E400,优,21,16,#00E400,11,2026-05-09 22:00:00
11,优,330326,67,27.6593,优,--,24,3,99,优,#00E400,#00E400,10,平阳监测站,#00E400,21,优,优,优,330300,#00E400,120.5705,#00E400,7,优,0.4,优,#00E400,#00E400,330326001,优,#00E400,温州市,#00E400,优,15,8,#00E400,11,2026-05-09 22:00:00
12,优,330327,67,27.503889,优,--,14,17,98,优,#00E400,#00E400,9,灵溪,#00E400,21,优,优,优,330300,#00E400,120.395278,#00E400,13,优,0.4,优,#00E400,#00E400,330327001,优,#00E400,温州市,#00E400,优,19,9,#00E400,11,2026-05-09 22:00:00
13,良,330782,59,29.335473,优,--,22,23,107,优,#00E400,#00E400,5,北苑,#FFFF00,21,优,优,优,330700,#00E400,120.078609,#00E400,14,优,0.4,优,#00E400,#00E400,330782001,优,#00E400,金华市,#00E400,优,21,11,#00E400,11,2026-05-09 22:00:00
14,优,330784,66,28.90016,优,--,23,12,76,优,#00E400,#00E400,7,西城供电所,#00E400,21,优,优,优,330700,#00E400,120.01452,#00E400,6,优,0.3,优,#00E400,#00E400,330784002,优,#00E400,金华市,#00E400,优,18,13,#00E400,11,2026-05-09 22:00:00
15,优,330825,66,29.0464,优,--,28,11,84,优,#00E400,#00E400,6,龙游二高,#00E400,21,优,优,优,330800,#00E400,119.204,#00E400,9,优,0.3,优,#00E400,#00E400,330825002,优,#00E400,衢州市,#00E400,优,17,18,#00E400,11,2026-05-09 22:00:00
16,良,330681,70,29.6818,优,--,19,18,109,优,#00E400,#00E400,5,杨树畈,#FFFF00,22,优,优,优,330600,#00E400,120.2359,#00E400,3,优,0.3,优,#00E400,#00E400,330681001,优,#00E400,绍兴市,#00E400,优,21,5,#00E400,17,2026-05-09 22:00:00
17,优,330727,68,29.051486,优,--,9,18,98,优,#00E400,#00E400,7,国税大楼,#00E400,22,优,优,优,330700,#00E400,120.438346,#00E400,7,优,0.5,优,#00E400,#00E400,330727002,优,#00E400,金华市,#00E400,优,15,6,#00E400,17,2026-05-09 22:00:00
18,优,330727,60,29.039869,优,--,12,20,97,优,#00E400,#00E400,5,南园初中,#00E400,22,优,优,优,330700,#00E400,120.440622,#00E400,10,优,0.5,优,#00E400,#00E400,330727003,优,#00E400,金华市,#00E400,优,22,6,#00E400,17,2026-05-09 22:00:00
19,优,330783,68,29.27739,优,--,20,10,94,优,#00E400,#00E400,7,东阳环保大楼,#00E400,22,优,优,优,330700,#00E400,120.23692,#00E400,7,优,0.5,优,#00E400,#00E400,330783002,优,#00E400,金华市,#00E400,优,13,12,#00E400,17,2026-05-09 22:00:00
20,良,330782,58,29.3686,优,--,26,25,111,优,#00E400,#00E400,7,第五中学,#FFFF00,22,优,优,优,330700,#00E400,120.1345,#00E400,9,优,0.6,优,#00E400,#00E400,330782003,优,#00E400,金华市,#00E400,优,22,12,#00E400,17,2026-05-09 22:00:00
21,良,330382,72,28.1209,优,--,16,15,109,优,#00E400,#00E400,5,乐成,#FFFF00,23,优,优,优,330300,#00E400,120.9659,#00E400,9,优,0.3,优,#00E400,#00E400,330382001,优,#00E400,温州市,#00E400,优,21,8,#00E400,22,2026-05-09 22:00:00
22,优,330781,71,29.216166,优,--,17,11,92,优,#00E400,#00E400,7,兰溪监测站,#00E400,23,优,优,优,330700,#00E400,119.459992,#00E400,6,优,0.4,优,#00E400,#00E400,330781001,优,#00E400,金华市,#00E400,优,14,12,#00E400,22,2026-05-09 22:00:00
23,优,330781,72,29.229931,优,--,18,8,88,优,#00E400,#00E400,8,兰溪八中,#00E400,23,优,优,优,330700,#00E400,119.475172,#00E400,8,优,0.3,优,#00E400,#00E400,330781002,优,#00E400,金华市,#00E400,优,10,8,#00E400,22,2026-05-09 22:00:00
24,良,330182,61,29.4769,优,--,27,13,106,优,#00E400,#00E400,8,建德监测大楼,#FFFF00,24,优,优,优,330100,#00E400,119.2711,#00E400,14,优,0.5,优,#00E400,#00E400,330182T_2,优,#00E400,杭州市,#00E400,优,24,16,#00E400,25,2026-05-09 22:00:00
25,良,330783,75,29.30093,优,--,24,9,103,优,#00E400,#00E400,6,广厦学院,#FFFF00,24,优,优,优,330700,#00E400,120.24157,#00E400,6,优,0.5,优,#00E400,#00E400,330783001,优,#00E400,金华市,#00E400,优,18,14,#00E400,25,2026-05-09 22:00:00
26,良,330213,70,29.693,优,--,21,29,116,优,#00E400,#00E400,5,溪口政府大楼,#FFFF00,25,优,优,优,330200,#00E400,121.2774,#00E400,13,优,0.3,优,#00E400,#00E400,330283T_1,优,#00E400,宁波市,#00E400,优,25,11,#00E400,27,2026-05-09 22:00:00
27,优,330329,57,27.5438,优,--,11,8,74,优,#00E400,#00E400,6,泰顺实验中学,#00E400,25,优,优,优,330300,#00E400,119.716111,#00E400,17,优,0.3,优,#00E400,#00E400,330329002,优,#00E400,温州市,#00E400,优,25,7,#00E400,27,2026-05-09 22:00:00
28,良,330726,78,29.465746,优,--,16,12,123,优,#00E400,#00E400,6,浦江实验中学,#FFFF00,25,优,优,优,330700,#00E400,119.875227,#00E400,5,优,0.3,优,#00E400,#00E400,330726001,优,#00E400,金华市,#00E400,优,9,8,#00E400,27,2026-05-09 22:00:00
29,优,330784,77,28.8854,优,--,20,10,85,优,#00E400,#00E400,7,永康一中,#00E400,25,优,优,优,330700,#00E400,120.0439,#00E400,6,优,0.5,优,#00E400,#00E400,330784001,优,#00E400,金华市,#00E400,优,11,13,#00E400,27,2026-05-09 22:00:00
30,优,330824,38,29.1478,优,--,22,23,90,优,#00E400,#00E400,7,开化监测大楼,#00E400,25,优,优,优,330800,#00E400,118.4108,#00E400,16,优,0.5,优,#00E400,#00E400,330824002,优,#00E400,衢州市,#00E400,优,25,15,#00E400,27,2026-05-09 22:00:00
31,良,331083,80,28.12715,优,--,19,15,110,优,#00E400,#00E400,9,玉环环监站,#FFFF00,25,优,优,优,331000,#00E400,121.2339,#00E400,11,优,0.6,优,#00E400,--,331021001,--,#00E400,台州市,#00E400,优,25,--,#00E400,27,2026-05-09 22:00:00
32,优,331081,79,28.37558,优,--,19,12,97,优,#00E400,#00E400,6,温岭环监站,#00E400,25,优,优,优,331000,#00E400,121.36579,#00E400,6,优,0.2,优,#00E400,#00E400,331081001,优,#00E400,台州市,#00E400,优,14,11,#00E400,27,2026-05-09 22:00:00
33,良,330483,77,30.6355,优,--,27,20,121,优,#00E400,#00E400,10,文化中心,#FFFF00,25,优,优,优,330400,#00E400,120.5795,#00E400,9,优,0.5,优,#00E400,#00E400,330483003,优,#00E400,嘉兴市,#00E400,优,23,12,#00E400,27,2026-05-09 22:00:00
34,良,330127,81,29.5995,优,--,19,11,112,优,#00E400,#00E400,12,淳安环保大楼,#FFFF00,26,优,优,优,330100,#00E400,119.0481,#00E400,13,优,0.5,优,#00E400,#00E400,330127001,优,#00E400,杭州市,#00E400,优,24,12,#00E400,35,2026-05-09 22:00:00
35,良,330381,54,27.791645,优,--,21,31,101,优,#00E400,#00E400,6,花园桥,#FFFF00,26,优,优,优,330300,#00E400,120.62372,#00E400,10,优,0.3,优,#00E400,#00E400,330381001,优,#00E400,温州市,#00E400,优,26,10,#00E400,35,2026-05-09 22:00:00
36,优,330723,81,28.896108,优,--,19,10,92,优,#00E400,#00E400,8,武义县政府,#00E400,26,优,优,优,330700,#00E400,119.811352,#00E400,7,优,0.4,优,#00E400,#00E400,330723001,优,#00E400,金华市,#00E400,优,13,12,#00E400,35,2026-05-09 22:00:00
37,良,330726,82,29.439787,优,--,20,9,122,优,#00E400,#00E400,3,浦江中学,#FFFF00,26,优,优,优,330700,#00E400,119.924638,#00E400,7,优,0.2,优,#00E400,#00E400,330726002,优,#00E400,金华市,#00E400,优,8,9,#00E400,35,2026-05-09 22:00:00
38,优,330803,45,28.9844,优,--,31,27,84,优,#00E400,#00E400,11,衢州三中（市）,#00E400,27,优,优,优,330800,#00E400,118.9628,#00E400,15,优,0.5,优,#00E400,#00E400,330803704,优,#00E400,衢州市,#00E400,优,27,20,#00E400,39,2026-05-09 22:00:00
39,良,330281,85,30.0358,优,--,23,24,115,优,#00E400,#00E400,8,姚江小学,#FFFF00,27,优,优,优,330200,#00E400,121.1221,#00E400,12,优,0.4,优,#00E400,#00E400,330281002,优,#00E400,宁波市,#00E400,优,23,13,#00E400,39,2026-05-09 22:00:00
40,良,330481,85,30.5137,优,--,27,14,115,优,#00E400,#00E400,9,硖石街道,#FFFF00,27,优,优,优,330400,#00E400,120.7082,#00E400,8,优,0.2,优,#00E400,#00E400,330481002,优,#00E400,嘉兴市,#00E400,优,23,10,#00E400,39,2026-05-09 22:00:00
41,良,330782,52,29.305096,优,--,20,26,104,优,#00E400,#00E400,7,江东,#FFFF00,27,优,优,优,330700,#00E400,120.090442,#00E400,11,优,0.6,优,#00E400,#00E400,330782002,优,#00E400,金华市,#00E400,优,27,12,#00E400,39,2026-05-09 22:00:00
42,优,331181,27,28.076,优,--,18,15,50,优,#00E400,#00E400,8,粮食大楼,#00E400,27,优,优,优,331100,#00E400,119.1217,#00E400,15,优,0.4,优,#00E400,#00E400,331181002,优,#00E400,丽水市,#00E400,优,27,11,#00E400,39,2026-05-09 22:00:00
43,优,330723,85,28.9178,优,--,18,8,91,优,#00E400,#00E400,7,武义北岭幼儿园,#00E400,27,优,优,优,330700,#00E400,119.8022,#00E400,5,优,0.4,优,#00E400,#00E400,330723003,优,#00E400,金华市,#00E400,优,6,13,#00E400,39,2026-05-09 22:00:00
44,良,330281,87,30.0497,优,--,25,18,114,优,#00E400,#00E400,6,龙山公园,#FFFF00,28,优,优,优,330200,#00E400,121.1475,#00E400,10,优,0.4,优,#00E400,#00E400,330281001,优,#00E400,宁波市,#00E400,优,20,15,#00E400,45,2026-05-09 22:00:00
45,良,330326,89,27.6653,优,--,18,5,111,优,#00E400,#00E400,7,平阳县政府,#FFFF00,28,优,优,优,330300,#00E400,120.5611,#00E400,3,优,0.5,优,#00E400,#00E400,330326002,优,#00E400,温州市,#00E400,优,13,10,#00E400,45,2026-05-09 22:00:00
46,良,330522,88,31.0263,优,--,30,26,135,优,#00E400,#00E400,6,龙山新区,#FFFF00,28,优,优,优,330500,#00E400,119.9046,#00E400,11,优,0.3,优,#00E400,#00E400,330522002,优,#00E400,湖州市,#00E400,优,22,15,#00E400,45,2026-05-09 22:00:00
47,优,331125,35,28.1062,优,--,21,21,68,优,#00E400,#00E400,6,云和三中,#00E400,28,优,优,优,331100,#00E400,119.5728,#00E400,16,优,0.5,优,#00E400,#00E400,331125002,优,#00E400,丽水市,#00E400,优,28,12,#00E400,45,2026-05-09 22:00:00
48,优,331181,24,28.08007,优,--,22,11,50,优,#00E400,#00E400,7,龙泉环保大楼,#00E400,28,优,优,优,331100,#00E400,119.1328,#00E400,17,优,0.4,优,#00E400,#00E400,331181001,优,#00E400,丽水市,#00E400,优,28,13,#00E400,45,2026-05-09 22:00:00
49,良,330122,91,29.7955,优,--,25,25,124,优,#00E400,#00E400,6,桐庐江南,#FFFF00,29,优,优,优,330100,#00E400,119.6874,#00E400,13,优,0.4,优,#00E400,#00E400,330122001,优,#00E400,杭州市,#00E400,优,25,15,#00E400,50,2026-05-09 22:00:00
50,良,330127,92,29.605,优,--,20,12,131,优,#00E400,#00E400,12,老年活动中心,#FFFF00,29,优,优,优,330100,#00E400,119.0372,#00E400,17,优,0.6,优,#00E400,#00E400,330127T_4,优,#00E400,杭州市,#00E400,优,25,14,#00E400,50,2026-05-09 22:00:00
51,良,330381,90,27.782284,优,--,18,13,112,优,#00E400,#00E400,11,安阳新区,#FFFF00,29,优,优,优,330300,#00E400,120.650915,#00E400,8,优,0.4,优,#00E400,#00E400,330381002,优,#00E400,温州市,#00E400,优,14,11,#00E400,50,2026-05-09 22:00:00
52,良,330324,91,28.044335,优,--,19,21,106,优,#00E400,#00E400,7,瓯北,#FFFF00,29,优,优,优,330300,#00E400,120.654963,#00E400,7,优,0.4,优,#00E400,#00E400,330324002,优,#00E400,温州市,#00E400,优,21,10,#00E400,50,2026-05-09 22:00:00
53,良,330327,90,27.522222,优,--,18,19,115,优,#00E400,#00E400,8,苍南中学,#FFFF00,29,优,优,优,330300,#00E400,120.416111,#00E400,12,优,0.4,优,#00E400,#00E400,330327004,优,#00E400,温州市,#00E400,优,26,9,#00E400,50,2026-05-09 22:00:00
54,良,330482,90,30.6937,优,--,19,18,126,优,#00E400,#00E400,10,平湖幼儿园,#FFFF00,29,优,优,优,330400,#00E400,121.0259,#00E400,8,优,0.3,优,#00E400,#00E400,330482001,优,#00E400,嘉兴市,#00E400,优,23,7,#00E400,50,2026-05-09 22:00:00
55,良,330482,90,30.7292,优,--,19,21,120,优,#00E400,#00E400,10,陆家桥村,#FFFF00,29,优,优,优,330400,#00E400,120.9953,#00E400,9,优,0.1,优,#00E400,#00E400,330482002,优,#00E400,嘉兴市,#00E400,优,21,8,#00E400,50,2026-05-09 22:00:00
56,良,330521,91,30.5231,优,--,27,20,133,优,#00E400,#00E400,7,地信科创园,#FFFF00,29,优,优,优,330500,#00E400,119.9781,#00E400,13,优,0.3,优,#00E400,#00E400,330521001,优,#00E400,湖州市,#00E400,优,29,12,#00E400,50,2026-05-09 22:00:00
57,优,331122,90,28.6574,优,--,14,14,91,优,#00E400,#00E400,8,缙云中学,#00E400,29,优,优,优,331100,#00E400,120.0696,#00E400,8,优,0.5,优,#00E400,#00E400,331122001,优,#00E400,丽水市,#00E400,优,17,8,#00E400,50,2026-05-09 22:00:00
58,优,331122,92,28.6628,优,--,12,15,91,优,#00E400,#00E400,7,信访大楼,#00E400,29,优,优,优,331100,#00E400,120.0856,#00E400,8,优,0.4,优,#00E400,#00E400,331122002,优,#00E400,丽水市,#00E400,优,18,10,#00E400,50,2026-05-09 22:00:00
59,良,330483,92,30.7369,优,--,27,24,138,优,#00E400,#00E400,9,植材小学,#FFFF00,29,优,优,优,330400,#00E400,120.4902,#00E400,8,优,0.6,优,#00E400,#00E400,330483509,优,#00E400,嘉兴市,#00E400,优,18,9,#00E400,50,2026-05-09 22:00:00
60,良,330481,93,30.5261,优,--,30,16,120,优,#00E400,#00E400,7,海宁监测大楼,#FFFF00,30,优,优,优,330400,#00E400,120.6739,#00E400,10,优,0.3,优,#00E400,#00E400,330481001,优,#00E400,嘉兴市,#00E400,优,26,12,#00E400,61,2026-05-09 22:00:00
61,良,330421,94,30.836,优,--,23,19,121,优,#00E400,#00E400,4,嘉善监测大楼,#FFFF00,30,优,优,优,330400,#00E400,120.9226,#00E400,8,优,0.2,优,#00E400,#00E400,330421001,优,#00E400,嘉兴市,#00E400,优,22,9,#00E400,61,2026-05-09 22:00:00
62,良,330424,93,30.5042,优,--,21,19,116,优,#00E400,#00E400,7,高级中学,#FFFF00,30,优,优,优,330400,#00E400,120.9413,#00E400,12,优,0.2,优,#00E400,#00E400,330424001,优,#00E400,嘉兴市,#00E400,优,25,9,#00E400,61,2026-05-09 22:00:00
63,良,330424,93,30.5299,优,--,20,19,122,优,#00E400,#00E400,6,海盐商贸学校,#FFFF00,30,优,优,优,330400,#00E400,120.9293,#00E400,11,优,0.2,优,#00E400,#00E400,330424002,优,#00E400,嘉兴市,#00E400,优,28,8,#00E400,61,2026-05-09 22:00:00
64,良,330825,93,29.0392,优,--,26,13,105,优,#00E400,#00E400,6,建设大楼,#FFFF00,30,优,优,优,330800,#00E400,119.1675,#00E400,7,优,0.3,优,#00E400,#00E400,330825001,优,#00E400,衢州市,#00E400,优,14,15,#00E400,61,2026-05-09 22:00:00
65,良,331023,96,29.1342,优,--,18,22,112,优,#00E400,#00E400,7,天台实验中学,#FFFF00,30,优,优,优,331000,#00E400,121.0349,#00E400,10,优,0.3,优,#00E400,#00E400,331023002,优,#00E400,台州市,#00E400,优,20,10,#00E400,61,2026-05-09 22:00:00
66,良,331022,94,29.1028,优,--,22,12,114,优,#00E400,#00E400,6,心湖站,#FFFF00,30,优,优,优,331000,#00E400,121.3918,#00E400,12,优,0.3,优,#00E400,#00E400,331022002,优,#00E400,台州市,#00E400,优,24,12,#00E400,61,2026-05-09 22:00:00
67,良,330481,94,30.5524,优,--,27,14,129,优,#00E400,#00E400,8,胜利社区,#FFFF00,30,优,优,优,330400,#00E400,120.6713,#00E400,11,优,0.5,优,#00E400,#00E400,330481003,优,#00E400,嘉兴市,#00E400,优,28,12,#00E400,61,2026-05-09 22:00:00
68,优,330782,47,29.2637,优,--,23,29,94,优,#00E400,#00E400,4,儿童公园,#00E400,30,优,优,优,330700,#00E400,120.0321,#00E400,14,优,0.4,优,#00E400,#00E400,330782004,优,#00E400,金华市,#00E400,优,30,11,#00E400,61,2026-05-09 22:00:00
69,优,330324,63,28.158269,优,--,19,17,97,优,#00E400,#00E400,5,上塘,#00E400,31,优,优,优,330300,#00E400,120.694244,#00E400,15,优,0.5,优,#00E400,#00E400,330324001,优,#00E400,温州市,#00E400,优,31,10,#00E400,70,2026-05-09 22:00:00
70,良,330421,97,30.8307,优,--,25,24,129,优,#00E400,#00E400,8,气象观测台,#FFFF00,31,优,优,优,330400,#00E400,120.9356,#00E400,14,优,0.3,优,#00E400,#00E400,330421002,优,#00E400,嘉兴市,#00E400,优,26,12,#00E400,70,2026-05-09 22:00:00
71,良,330522,98,31.0143,优,--,31,25,145,优,#00E400,#00E400,7,职教中心,#FFFF00,31,优,优,优,330500,#00E400,119.8935,#00E400,10,优,0.2,优,#00E400,#00E400,330522001,优,#00E400,湖州市,#00E400,优,26,15,#00E400,70,2026-05-09 22:00:00
72,良,331083,97,28.2221,优,--,21,15,116,优,#00E400,#00E400,6,楚门中心小学,#FFFF00,31,优,优,优,331000,#00E400,121.2846,#00E400,12,优,0.6,优,#00E400,#00E400,331021002,优,#00E400,台州市,#00E400,优,23,12,#00E400,70,2026-05-09 22:00:00
73,良,331024,99,28.8589,优,--,13,15,114,优,#00E400,#00E400,10,仙居环监站,#FFFF00,31,优,优,优,331000,#00E400,120.7248,#00E400,17,优,0.4,优,#00E400,#00E400,331024001,优,#00E400,台州市,#00E400,优,19,7,#00E400,70,2026-05-09 22:00:00
74,良,330282,101,30.1636,优,--,27,11,118,优,#00E400,#00E400,5,慈溪环保大楼,#FFFF00,32,优,优,优,330200,#00E400,121.2677,#00E400,7,优,0.4,优,#00E400,#00E400,330282001,优,#00E400,宁波市,#00E400,优,17,13,#00E400,75,2026-05-09 22:00:00
75,良,330483,85,30.625,优,--,31,34,120,优,#00E400,#00E400,5,振东新六中站,#FFFF00,32,优,优,优,330400,#00E400,120.5613,#00E400,12,优,0.4,优,#00E400,#00E400,330483002,优,#00E400,嘉兴市,#00E400,优,32,14,#00E400,75,2026-05-09 22:00:00
76,良,330624,102,29.4938,优,--,20,8,109,优,#00E400,#00E400,5,城东站,#FFFF00,32,优,优,优,330600,#00E400,120.9109,#00E400,10,优,0.2,优,#00E400,#00E400,330624002,优,#00E400,绍兴市,#00E400,优,19,11,#00E400,75,2026-05-09 22:00:00
77,良,331023,100,29.1504,优,--,17,14,115,优,#00E400,#00E400,6,育青中学,#FFFF00,32,优,优,优,331000,#00E400,121.0091,#00E400,10,优,0.3,优,#00E400,#00E400,331023001,优,#00E400,台州市,#00E400,优,14,11,#00E400,75,2026-05-09 22:00:00
78,良,331022,100,29.11779,优,--,22,13,108,优,#00E400,#00E400,6,三门环监楼,#FFFF00,32,优,优,优,331000,#00E400,121.382189,#00E400,10,优,0.4,优,#00E400,#00E400,331022001,优,#00E400,台州市,#00E400,优,22,12,#00E400,75,2026-05-09 22:00:00
79,优,331126,28,27.629585,优,--,12,12,50,优,#00E400,#00E400,6,庆元监测楼,#00E400,32,优,优,优,331100,#00E400,119.054809,#00E400,22,优,0.8,优,#00E400,#00E400,331126001,优,#00E400,丽水市,#00E400,优,26,8,#00E400,75,2026-05-09 22:00:00
80,良,330212,101,29.7736,优,--,24,13,114,优,#00E400,#00E400,4,钱湖水厂,#FFFF00,32,优,优,优,330200,#00E400,121.6330,#00E400,6,优,0.3,优,#00E400,#00E400,2013302120001,优,#00E400,宁波市,#00E400,优,13,13,#00E400,75,2026-05-09 22:00:00
81,良,330213,103,29.6506,优,--,25,14,115,优,#00E400,#00E400,9,奉化教育局,#FFFF00,33,优,优,优,330200,#00E400,121.4042,#00E400,10,优,0.2,优,#00E400,#00E400,330283005,优,#00E400,宁波市,#00E400,优,23,12,#00E400,82,2026-05-09 22:00:00
82,良,330282,103,30.1786,优,--,27,10,120,优,#00E400,#00E400,5,慈溪实验小学,#FFFF00,33,优,优,优,330200,#00E400,121.2525,#00E400,6,优,0.4,优,#00E400,#00E400,330282002,优,#00E400,宁波市,#00E400,优,16,12,#00E400,82,2026-05-09 22:00:00
83,良,330225,103,29.4767,优,--,21,12,111,优,#00E400,#00E400,8,文峰小学,#FFFF00,33,优,优,优,330200,#00E400,121.8864,#00E400,6,优,0.3,优,#00E400,#00E400,330225001,优,#00E400,宁波市,#00E400,优,17,8,#00E400,82,2026-05-09 22:00:00
84,优,330328,64,27.7838,优,--,17,12,92,优,#00E400,#00E400,7,大峃,#00E400,33,优,优,优,330300,#00E400,120.085,#00E400,22,优,0.3,优,#00E400,#00E400,330328001,优,#00E400,温州市,#00E400,优,33,9,#00E400,82,2026-05-09 22:00:00
85,良,330383,103,27.5812,优,--,17,13,111,优,#00E400,#00E400,8,龙港,#FFFF00,33,优,优,优,330300,#00E400,120.5489,#00E400,7,优,0.3,优,#00E400,#00E400,330327002,优,#00E400,温州市,#00E400,优,17,9,#00E400,82,2026-05-09 22:00:00
86,良,330683,105,29.5901,优,--,20,13,116,优,#00E400,#00E400,5,马寅初初中,#FFFF00,33,优,优,优,330600,#00E400,120.8249,#00E400,7,优,0.4,优,#00E400,#00E400,330683001,优,#00E400,绍兴市,#00E400,优,19,11,#00E400,82,2026-05-09 22:00:00
87,良,330683,103,29.5663,优,--,23,21,115,优,#00E400,#00E400,5,丽湖小区,#FFFF00,33,优,优,优,330600,#00E400,120.8173,#00E400,13,优,0.4,优,#00E400,#00E400,330683002,优,#00E400,绍兴市,#00E400,优,19,11,#00E400,82,2026-05-09 22:00:00
88,良,330624,103,29.5036,优,--,21,11,114,优,#00E400,#00E400,5,钟楼站,#FFFF00,33,优,优,优,330600,#00E400,120.8938,#00E400,13,优,0.4,优,#00E400,#00E400,330624001,优,#00E400,绍兴市,#00E400,优,31,10,#00E400,82,2026-05-09 22:00:00
89,良,331081,74,28.39136,优,--,17,10,108,优,#00E400,#00E400,3,之江高级中学,#FFFF00,33,优,优,优,331000,#00E400,121.37696,#00E400,17,优,0.3,优,#00E400,#00E400,331081002,优,#00E400,台州市,#00E400,优,33,15,#00E400,82,2026-05-09 22:00:00
90,良,330122,107,29.8058,优,--,26,16,127,优,#00E400,#00E400,6,桐庐江北,#FFFF00,34,优,优,优,330100,#00E400,119.669,#00E400,12,优,0.5,优,#00E400,#00E400,330122002,优,#00E400,杭州市,#00E400,优,22,14,#00E400,91,2026-05-09 22:00:00
91,良,330213,106,29.6774,优,--,27,14,115,优,#00E400,#00E400,4,大桥市场,#FFFF00,34,优,优,优,330200,#00E400,121.4237,#00E400,8,优,0.3,优,#00E400,#00E400,330213001,优,#00E400,宁波市,#00E400,优,21,13,#00E400,91,2026-05-09 22:00:00
92,良,330382,106,28.0297,优,--,23,14,120,优,#00E400,#00E400,4,柳市,#FFFF00,34,优,优,优,330300,#00E400,120.891,#00E400,3,优,0.2,优,#00E400,#00E400,330382002,优,#00E400,温州市,#00E400,优,11,11,#00E400,91,2026-05-09 22:00:00
93,良,330921,108,30.2517,优,--,15,13,102,优,#00E400,#00E400,8,岱山高亭,#FFFF00,34,优,优,优,330900,#00E400,122.1958,#00E400,6,优,0.3,优,#00E400,#00E400,330921002,优,#00E400,舟山市,#00E400,优,15,7,#00E400,91,2026-05-09 22:00:00
94,良,331082,107,28.873,优,--,20,18,117,优,#00E400,#00E400,6,临海环保大楼,#FFFF00,34,优,优,优,331000,#00E400,121.1769,#00E400,8,优,0.3,优,#00E400,#00E400,331082001,优,#00E400,台州市,#00E400,优,22,9,#00E400,91,2026-05-09 22:00:00
95,良,330226,110,29.2878,优,--,21,12,130,优,#00E400,#00E400,6,宁海城南站,#FFFF00,35,优,优,优,330200,#00E400,121.4201,#00E400,9,优,0.3,优,#00E400,#00E400,330226002,优,#00E400,宁波市,#00E400,优,22,10,#00E400,96,2026-05-09 22:00:00
96,良,330225,110,29.2003,优,--,19,13,125,优,#00E400,#00E400,6,石浦新港小学,#FFFF00,35,优,优,优,330200,#00E400,121.934,#00E400,5,优,0.3,优,#00E400,#00E400,330225002,优,#00E400,宁波市,#00E400,优,14,6,#00E400,96,2026-05-09 22:00:00
97,良,330305,111,27.8342,优,--,16,7,116,优,#00E400,#00E400,7,洞头气象局,#FFFF00,35,优,优,优,330300,#00E400,121.1502,#00E400,4,优,0.3,优,#00E400,#00E400,330305001,优,#00E400,温州市,#00E400,优,14,5,#00E400,96,2026-05-09 22:00:00
98,优,330329,60,27.557,优,--,11,10,81,优,#00E400,#00E400,5,罗阳,#00E400,35,优,优,优,330300,#00E400,119.7084,#00E400,24,优,0.5,优,#00E400,#00E400,330329001,优,#00E400,温州市,#00E400,优,22,10,#00E400,96,2026-05-09 22:00:00
99,良,330483,84,30.6488,优,--,31,31,122,优,#00E400,#00E400,5,茅盾小学,#FFFF00,35,优,优,优,330400,#00E400,120.5498,#00E400,10,优,0.3,优,#00E400,#00E400,330483001,优,#00E400,嘉兴市,#00E400,优,35,12,#00E400,96,2026-05-09 22:00:00
100,优,330824,33,29.1343,优,--,24,23,87,优,#00E400,#00E400,5,开化气象局,#00E400,35,优,优,优,330800,#00E400,118.402,#00E400,24,优,0.4,优,#00E400,#00E400,330824001,优,#00E400,衢州市,#00E400,优,33,12,#00E400,96,2026-05-09 22:00:00
101,良,330681,83,29.7257,优,--,23,19,112,优,#00E400,#00E400,7,城新小学,#FFFF00,36,优,优,优,330600,#00E400,120.272,#00E400,20,优,0.3,优,#00E400,#00E400,330681505,优,#00E400,绍兴市,#00E400,优,36,13,#00E400,102,2026-05-09 22:00:00
102,良,331082,98,28.84326,优,--,24,19,120,优,#00E400,#00E400,4,巾山实验小学,#FFFF00,36,优,优,优,331000,#00E400,121.136,#00E400,16,优,0.4,优,#00E400,#00E400,331082002,优,#00E400,台州市,#00E400,优,36,12,#00E400,102,2026-05-09 22:00:00
103,良,330383,115,27.5617,优,--,17,9,115,优,#00E400,#00E400,8,龙港实验中学,#FFFF00,36,优,优,优,330300,#00E400,120.5355,#00E400,4,优,0.3,优,#00E400,#00E400,330303101,优,#00E400,温州市,#00E400,优,15,8,#00E400,102,2026-05-09 22:00:00
104,良,330921,118,30.2669,优,--,17,21,107,优,#00E400,#00E400,7,岱山环保大楼,#FFFF00,37,优,优,优,330900,#00E400,122.2199,#00E400,7,优,0.3,优,#00E400,--,330921001,--,#00E400,舟山市,#00E400,优,19,--,#00E400,105,2026-05-09 22:00:00
105,优,331121,87,28.1094,优,--,23,17,93,优,#00E400,#00E400,5,青田中学,#00E400,37,优,优,优,331100,#00E400,120.3161,#00E400,16,优,0.4,优,#00E400,#00E400,331121002,优,#00E400,丽水市,#00E400,优,37,12,#00E400,105,2026-05-09 22:00:00
106,良,330226,122,29.3125,优,--,21,10,130,优,#00E400,#00E400,5,宁海水利局,#FFFF00,39,优,优,优,330200,#00E400,121.4306,#00E400,4,优,0.3,优,#00E400,#00E400,330226001,优,#00E400,宁波市,#00E400,优,14,10,#00E400,107,2026-05-09 22:00:00
107,良,330523,122,30.5974,优,--,17,17,146,优,#00E400,#00E400,6,安吉城东,#FFFF00,39,优,优,优,330500,#00E400,119.6953,#00E400,17,优,0.3,优,#00E400,#00E400,330523002,优,#00E400,湖州市,#00E400,优,27,11,#00E400,107,2026-05-09 22:00:00
108,良,330523,121,30.6422,优,--,30,17,146,优,#00E400,#00E400,8,安吉实验小学,#FFFF00,41,优,优,优,330500,#00E400,119.6768,#00E400,15,优,0.4,优,#00E400,#00E400,330523001,优,#00E400,湖州市,#00E400,优,41,11,#00E400,109,2026-05-09 22:00:00
109,良,330922,129,30.7269,优,--,12,7,120,优,#00E400,#00E400,8,嵊泗菜园,#FFFF00,41,优,优,优,330900,#00E400,122.4464,#00E400,10,优,0.4,优,#00E400,#00E400,330922001,优,#00E400,舟山市,#00E400,优,21,5,#00E400,109,2026-05-09 22:00:00
110,优,331121,85,28.1341,优,--,26,21,99,优,#00E400,#00E400,7,塔山小学,#00E400,41,优,优,优,331100,#00E400,120.2936,#00E400,19,优,0.4,优,#00E400,#00E400,331121001,优,#00E400,丽水市,#00E400,优,41,13,#00E400,109,2026-05-09 22:00:00
111,优,330822,41,28.901,优,--,25,36,79,优,#00E400,#00E400,4,常山环保大楼,#00E400,43,优,优,优,330800,#00E400,118.5196,#00E400,26,优,0.6,优,#00E400,#00E400,330822001,优,#00E400,衢州市,#00E400,优,43,14,#00E400,112,2026-05-09 22:00:00
112,良,330521,59,30.548493,优,--,28,50,135,优,#00E400,#00E400,5,春晖小学,#FFFF00,45,优,优,优,330500,#00E400,119.9505,#00E400,22,优,0.4,优,#00E400,#00E400,330521003,优,#00E400,湖州市,#00E400,优,45,14,#00E400,113,2026-05-09 22:00:00
113,优,330822,43,28.9012,优,--,27,34,82,优,#00E400,#00E400,4,图书馆大楼,#00E400,46,优,优,优,330800,#00E400,118.5062,#00E400,21,优,0.3,优,#00E400,#00E400,330822002,优,#00E400,衢州市,#00E400,优,46,14,#00E400,114,2026-05-09 22:00:00
114,优,330881,23,28.7465,优,--,39,28,70,优,#00E400,#00E400,4,江山环保大楼,#00E400,47,优,优,优,330800,#00E400,118.6301,#00E400,29,优,0.8,优,#00E400,#00E400,330881001,优,#00E400,衢州市,#00E400,优,47,26,#00E400,115,2026-05-09 22:00:00
115,优,330881,29,28.7282,优,PM₂.₅,42,35,73,优,#00E400,#FFFF00,5,人民医院,#00E400,54,优,良,优,330800,#00E400,118.6227,#00E400,37,优,0.7,良,#00E400,#00E400,330881002,优,#FFFF00,衢州市,#00E400,优,50,29,#00E400,116,2026-05-09 22:00:00
116,良,330110,70,30.2635,优,PM₁₀,31,50,127,优,#FFFF00,#00E400,7,海辰小学,#FFFF00,58,优,良,优,330100,#00E400,119.9842,#00E400,25,良,0.7,优,#00E400,#00E400,2013301100001,优,#FFFF00,杭州市,#00E400,优,60,14,#00E400,117,2026-05-09 22:00:00
117,良,330681,71,29.726389,优,--,25,25,118,优,--,#00E400,6,青少年宫,#FFFF00,--,优,--,优,330600,#00E400,120.199722,#00E400,12,--,0.3,优,#00E400,#00E400,330681002,优,--,绍兴市,#00E400,优,--,13,#00E400,118,2026-05-09 22:00:00
