,O3H8_level,regioncode,O3,latitude,CO_level,SYWRW,PM10H24,NO2,O3H8,O3_level,PM10_color,PM25_color,SO2,sitename,O3H8_color,AQI,NO2_level,AQI_level,PM10H24_level,districtcode,SO2_color,longitude,NO2_color,PM25,PM10_level,CO,PM25_level,CO_color,PM25H24_color,sitecode,PM25H24_level,AQI_color,districtname,O3_color,SO2_level,PM10,PM25H24,PM10H24_color,sort,time
0,优,330922,38,30.7269,优,--,11,11,50,优,#00E400,#00E400,7,嵊泗菜园,#00E400,22,优,优,优,330900,#00E400,122.4464,#00E400,15,优,0.4,优,#00E400,#00E400,330922001,优,#00E400,舟山市,#00E400,优,21,7,#00E400,1,2026-06-03 06:00:00
1,优,331083,71,28.2221,优,--,32,12,64,优,#00E400,#00E400,7,楚门中心小学,#00E400,25,优,优,优,331000,#00E400,121.2846,#00E400,17,优,0.7,优,#00E400,#00E400,331021002,优,#00E400,台州市,#00E400,优,10,21,#00E400,2,2026-06-03 06:00:00
2,优,331081,52,28.39136,优,--,31,10,61,优,#00E400,#00E400,4,之江高级中学,#00E400,29,优,优,优,331000,#00E400,121.37696,#00E400,16,优,0.4,优,#00E400,#00E400,331081002,优,#00E400,台州市,#00E400,优,29,20,#00E400,3,2026-06-03 06:00:00
3,优,331126,16,27.629585,优,--,30,7,23,优,#00E400,#00E400,4,庆元监测楼,#00E400,29,优,优,优,331100,#00E400,119.054809,#00E400,20,优,0.5,优,#00E400,#00E400,331126001,优,#00E400,丽水市,#00E400,优,26,24,#00E400,3,2026-06-03 06:00:00
4,优,330305,82,27.8342,优,--,28,9,68,优,#00E400,#00E400,8,洞头气象局,#00E400,30,优,优,优,330300,#00E400,121.1502,#00E400,13,优,0.5,优,#00E400,#00E400,330305001,优,#00E400,温州市,#00E400,优,30,17,#00E400,5,2026-06-03 06:00:00
5,优,330921,52,30.2669,优,--,22,23,46,优,#00E400,#00E400,5,岱山环保大楼,#00E400,30,优,优,优,330900,#00E400,122.2199,#00E400,20,优,0.4,优,#00E400,#00E400,330921001,优,#00E400,舟山市,#00E400,优,30,14,#00E400,5,2026-06-03 06:00:00
6,优,331127,8,27.9772,优,--,25,11,9,优,#00E400,#00E400,4,景宁县政府,#00E400,30,优,优,优,331100,#00E400,119.6311,#00E400,21,优,0.6,优,#00E400,#00E400,331127002,优,#00E400,丽水市,#00E400,优,26,21,#00E400,5,2026-06-03 06:00:00
7,优,331127,11,28.002222,优,--,32,6,12,优,#00E400,#00E400,4,红星小学,#00E400,31,优,优,优,331100,#00E400,119.636389,#00E400,21,优,0.5,优,#00E400,#00E400,331127003,优,#00E400,丽水市,#00E400,优,31,20,#00E400,8,2026-06-03 06:00:00
8,优,330382,36,28.1209,优,--,40,12,54,优,#00E400,#00E400,5,乐成,#00E400,32,优,优,优,330300,#00E400,120.9659,#00E400,22,优,0.6,优,#00E400,#00E400,330382001,优,#00E400,温州市,#00E400,优,32,24,#00E400,9,2026-06-03 06:00:00
9,优,331125,10,28.1173,优,--,33,15,17,优,#00E400,#00E400,6,云和监测楼,#00E400,32,优,优,优,331100,#00E400,119.5626,#00E400,22,优,0.6,优,#00E400,#00E400,331125001,优,#00E400,丽水市,#00E400,优,31,25,#00E400,9,2026-06-03 06:00:00
10,优,330329,41,27.557,优,--,33,14,47,优,#00E400,#00E400,5,罗阳,#00E400,33,优,优,优,330300,#00E400,119.7084,#00E400,23,优,0.6,优,#00E400,#00E400,330329001,优,#00E400,温州市,#00E400,优,32,21,#00E400,11,2026-06-03 06:00:00
11,优,330723,46,28.896108,优,--,46,14,59,优,#00E400,#00E400,8,武义县政府,#00E400,33,优,优,优,330700,#00E400,119.811352,#00E400,21,优,0.7,优,#00E400,#00E400,330723001,优,#00E400,金华市,#00E400,优,33,34,#00E400,11,2026-06-03 06:00:00
12,优,331123,24,28.5839,优,--,34,16,28,优,#00E400,#00E400,4,遂昌中学,#00E400,33,优,优,优,331100,#00E400,119.2656,#00E400,23,优,0.6,优,#00E400,#00E400,331123002,优,#00E400,丽水市,#00E400,优,31,23,#00E400,11,2026-06-03 06:00:00
13,优,330226,54,29.3125,优,--,41,15,65,优,#00E400,#00E400,5,宁海水利局,#00E400,34,优,优,优,330200,#00E400,121.4306,#00E400,22,优,0.4,优,#00E400,#00E400,330226001,优,#00E400,宁波市,#00E400,优,34,26,#00E400,14,2026-06-03 06:00:00
14,优,330225,63,29.2003,优,--,36,8,60,优,#00E400,#00E400,8,石浦新港小学,#00E400,34,优,优,优,330200,#00E400,121.934,#00E400,20,优,0.5,优,#00E400,#00E400,330225002,优,#00E400,宁波市,#00E400,优,34,24,#00E400,14,2026-06-03 06:00:00
15,优,330381,24,27.782284,优,--,32,23,61,优,#00E400,#00E400,8,安阳新区,#00E400,34,优,优,优,330300,#00E400,120.650915,#00E400,23,优,0.7,优,#00E400,#00E400,330381002,优,#00E400,温州市,#00E400,优,34,18,#00E400,14,2026-06-03 06:00:00
16,优,331125,7,28.1062,优,--,45,15,12,优,#00E400,#00E400,6,云和三中,#00E400,34,优,优,优,331100,#00E400,119.5728,#00E400,18,优,0.6,优,#00E400,#00E400,331125002,优,#00E400,丽水市,#00E400,优,34,26,#00E400,14,2026-06-03 06:00:00
17,优,331081,47,28.37558,优,--,36,18,59,优,#00E400,#00E400,6,温岭环监站,#00E400,35,优,优,优,331000,#00E400,121.36579,#00E400,22,优,0.7,优,#00E400,#00E400,331081001,优,#00E400,台州市,#00E400,优,35,21,#00E400,18,2026-06-03 06:00:00
18,优,330213,57,29.6506,优,--,44,11,90,优,#00E400,#00E400,5,奉化教育局,#00E400,36,优,优,优,330200,#00E400,121.4042,#00E400,21,优,0.6,优,#00E400,#00E400,330283005,优,#00E400,宁波市,#00E400,优,36,28,#00E400,19,2026-06-03 06:00:00
19,优,330726,45,29.465746,优,--,46,8,60,优,#00E400,#00E400,6,浦江实验中学,#00E400,36,优,优,优,330700,#00E400,119.875227,#00E400,25,优,0.7,优,#00E400,#00E400,330726001,优,#00E400,金华市,#00E400,优,33,31,#00E400,19,2026-06-03 06:00:00
20,优,330921,56,30.2517,优,--,27,12,60,优,#00E400,#00E400,7,岱山高亭,#00E400,36,优,优,优,330900,#00E400,122.1958,#00E400,20,优,0.4,优,#00E400,#00E400,330921002,优,#00E400,舟山市,#00E400,优,36,15,#00E400,19,2026-06-03 06:00:00
21,优,331126,9,27.6211,优,--,31,6,21,优,#00E400,#00E400,5,庆元气象局,#00E400,36,优,优,优,331100,#00E400,119.0788,#00E400,25,优,0.7,优,#00E400,#00E400,331126002,优,#00E400,丽水市,#00E400,优,30,24,#00E400,19,2026-06-03 06:00:00
22,优,331181,12,28.076,优,--,33,9,20,优,#00E400,#00E400,9,粮食大楼,#00E400,36,优,优,优,331100,#00E400,119.1217,#00E400,25,优,0.7,优,#00E400,#00E400,331181002,优,#00E400,丽水市,#00E400,优,32,23,#00E400,19,2026-06-03 06:00:00
23,优,331082,29,28.873,优,--,39,26,50,优,#00E400,#00E400,6,临海环保大楼,#00E400,37,优,优,优,331000,#00E400,121.1769,#00E400,22,优,0.6,优,#00E400,#00E400,331082001,优,#00E400,台州市,#00E400,优,37,24,#00E400,24,2026-06-03 06:00:00
24,优,330212,50,29.7736,优,--,42,12,84,优,#00E400,#00E400,5,钱湖水厂,#00E400,37,优,优,优,330200,#00E400,121.6330,#00E400,25,优,0.5,优,#00E400,#00E400,2013302120001,优,#00E400,宁波市,#00E400,优,37,27,#00E400,24,2026-06-03 06:00:00
25,优,330726,39,29.439787,优,--,46,14,42,优,#00E400,#00E400,3,浦江中学,#00E400,38,优,优,优,330700,#00E400,119.924638,#00E400,26,优,0.6,优,#00E400,#00E400,330726002,优,#00E400,金华市,#00E400,优,38,34,#00E400,26,2026-06-03 06:00:00
26,优,331122,37,28.6628,优,--,46,34,45,优,#00E400,#00E400,6,信访大楼,#00E400,38,优,优,优,331100,#00E400,120.0856,#00E400,25,优,0.7,优,#00E400,#00E400,331122002,优,#00E400,丽水市,#00E400,优,38,27,#00E400,26,2026-06-03 06:00:00
27,优,331123,11,28.5991,优,--,33,17,17,优,#00E400,#00E400,5,遂昌民政局,#00E400,38,优,优,优,331100,#00E400,119.2622,#00E400,26,优,0.7,优,#00E400,#00E400,331123001,优,#00E400,丽水市,#00E400,优,35,24,#00E400,26,2026-06-03 06:00:00
28,优,330182,25,29.4769,优,--,37,13,36,优,#00E400,#00E400,6,建德监测大楼,#00E400,39,优,优,优,330100,#00E400,119.2711,#00E400,27,优,0.7,优,#00E400,#00E400,330182T_2,优,#00E400,杭州市,#00E400,优,33,25,#00E400,29,2026-06-03 06:00:00
29,优,330329,34,27.5438,优,--,32,8,43,优,#00E400,#00E400,7,泰顺实验中学,#00E400,39,优,优,优,330300,#00E400,119.716111,#00E400,27,优,0.6,优,#00E400,#00E400,330329002,优,#00E400,温州市,#00E400,优,34,22,#00E400,29,2026-06-03 06:00:00
30,优,330824,16,29.1343,优,--,40,12,26,优,#00E400,#00E400,5,开化气象局,#00E400,39,优,优,优,330800,#00E400,118.402,#00E400,24,优,0.5,优,#00E400,#00E400,330824001,优,#00E400,衢州市,#00E400,优,39,22,#00E400,29,2026-06-03 06:00:00
31,优,330326,21,27.6593,优,--,42,15,34,优,#00E400,#00E400,9,平阳监测站,#00E400,40,优,优,优,330300,#00E400,120.5705,#00E400,26,优,0.8,优,#00E400,#00E400,330326001,优,#00E400,温州市,#00E400,优,40,25,#00E400,32,2026-06-03 06:00:00
32,优,330727,23,29.051486,优,--,50,32,46,优,#00E400,#00E400,8,国税大楼,#00E400,40,优,优,优,330700,#00E400,120.438346,#00E400,23,优,0.7,优,#00E400,#00E400,330727002,优,#00E400,金华市,#00E400,优,40,29,#00E400,32,2026-06-03 06:00:00
33,优,331022,26,29.1028,优,--,43,16,49,优,#00E400,#00E400,4,心湖站,#00E400,40,优,优,优,331000,#00E400,121.3918,#00E400,28,优,0.5,优,#00E400,#00E400,331022002,优,#00E400,台州市,#00E400,优,39,28,#00E400,32,2026-06-03 06:00:00
34,优,330127,16,29.5995,优,--,41,10,24,优,#00E400,#00E400,9,淳安环保大楼,#00E400,41,优,优,优,330100,#00E400,119.0481,#00E400,26,优,0.4,优,#00E400,#00E400,330127001,优,#00E400,杭州市,#00E400,优,41,26,#00E400,35,2026-06-03 06:00:00
35,优,331023,45,29.1504,优,--,44,25,78,优,#00E400,#00E400,6,育青中学,#00E400,41,优,优,优,331000,#00E400,121.0091,#00E400,27,优,0.6,优,#00E400,#00E400,331023001,优,#00E400,台州市,#00E400,优,41,30,#00E400,35,2026-06-03 06:00:00
36,优,331124,35,28.4516,优,--,41,26,40,优,#00E400,#00E400,6,和平水厂,#00E400,41,优,优,优,331100,#00E400,119.4699,#00E400,25,优,0.7,优,#00E400,#00E400,331124002,优,#00E400,丽水市,#00E400,优,41,23,#00E400,35,2026-06-03 06:00:00
37,良,330281,72,30.0497,优,--,49,21,113,优,#00E400,#00E400,8,龙山公园,#FFFF00,42,优,优,优,330200,#00E400,121.1475,#00E400,26,优,0.7,优,#00E400,#00E400,330281001,优,#00E400,宁波市,#00E400,优,42,34,#00E400,38,2026-06-03 06:00:00
38,良,330281,73,30.0358,优,--,49,25,105,优,#00E400,#00E400,7,姚江小学,#FFFF00,42,优,优,优,330200,#00E400,121.1221,#00E400,29,优,0.6,优,#00E400,#FFFF00,330281002,良,#00E400,宁波市,#00E400,优,39,39,#00E400,38,2026-06-03 06:00:00
39,优,330328,19,27.804722,优,--,38,7,38,优,#00E400,#00E400,7,文成中学,#00E400,42,优,优,优,330300,#00E400,120.077222,#00E400,29,优,0.5,优,#00E400,#00E400,330328002,优,#00E400,温州市,#00E400,优,36,28,#00E400,38,2026-06-03 06:00:00
40,优,331024,44,28.7403,优,--,36,14,55,优,#00E400,#00E400,5,新生中学,#00E400,42,优,优,优,331000,#00E400,120.4728,#00E400,29,优,0.6,优,#00E400,#00E400,331024002,优,#00E400,台州市,#00E400,优,41,23,#00E400,38,2026-06-03 06:00:00
41,优,330213,47,29.693,优,--,46,38,78,优,#00E400,#00E400,4,溪口政府大楼,#00E400,43,优,优,优,330200,#00E400,121.2774,#00E400,30,优,0.4,优,#00E400,#00E400,330283T_1,优,#00E400,宁波市,#00E400,优,43,32,#00E400,42,2026-06-03 06:00:00
42,优,330727,31,29.039869,优,--,45,24,42,优,#00E400,#00E400,7,南园初中,#00E400,43,优,优,优,330700,#00E400,120.440622,#00E400,28,优,0.7,优,#00E400,#00E400,330727003,优,#00E400,金华市,#00E400,优,43,32,#00E400,42,2026-06-03 06:00:00
43,优,330382,53,28.0297,优,--,44,16,72,优,#00E400,#00E400,4,柳市,#00E400,44,优,优,优,330300,#00E400,120.891,#00E400,27,优,0.5,优,#00E400,#00E400,330382002,优,#00E400,温州市,#00E400,优,44,23,#00E400,44,2026-06-03 06:00:00
44,优,330182,24,29.4638,优,--,37,22,32,优,#00E400,#00E400,3,第二中学,#00E400,45,优,优,优,330100,#00E400,119.2821,#00E400,31,优,0.7,优,#00E400,#00E400,330182002,优,#00E400,杭州市,#00E400,优,37,26,#00E400,45,2026-06-03 06:00:00
45,优,330324,28,28.158269,优,--,50,24,46,优,#00E400,#00E400,6,上塘,#00E400,45,优,优,优,330300,#00E400,120.694244,#00E400,26,优,0.8,优,#00E400,#00E400,330324001,优,#00E400,温州市,#00E400,优,45,30,#00E400,45,2026-06-03 06:00:00
46,优,330482,53,30.7292,优,--,40,20,70,优,#00E400,#00E400,9,陆家桥村,#00E400,45,优,优,优,330400,#00E400,120.9953,#00E400,31,优,0.8,优,#00E400,#00E400,330482002,优,#00E400,嘉兴市,#00E400,优,45,28,#00E400,45,2026-06-03 06:00:00
47,优,330825,58,29.0392,优,--,53,22,64,优,#00E400,#00E400,6,建设大楼,#00E400,45,优,优,良,330800,#00E400,119.1675,#00E400,29,优,0.6,优,#00E400,#00E400,330825001,优,#00E400,衢州市,#00E400,优,45,35,#FFFF00,45,2026-06-03 06:00:00
48,优,331181,5,28.08007,优,--,44,10,12,优,#00E400,#00E400,7,龙泉环保大楼,#00E400,45,优,优,优,331100,#00E400,119.1328,#00E400,30,优,0.5,优,#00E400,#00E400,331181001,优,#00E400,丽水市,#00E400,优,45,28,#00E400,45,2026-06-03 06:00:00
49,优,330110,44,30.2635,优,--,47,26,71,优,#00E400,#00E400,9,海辰小学,#00E400,45,优,优,优,330100,#00E400,119.9842,#00E400,31,优,0.7,优,#00E400,#00E400,2013301100001,优,#00E400,杭州市,#00E400,优,41,30,#00E400,45,2026-06-03 06:00:00
50,优,330324,29,28.044335,优,--,53,36,57,优,#00E400,#00E400,7,瓯北,#00E400,46,优,优,良,330300,#00E400,120.654963,#00E400,26,优,0.7,优,#00E400,#00E400,330324002,优,#00E400,温州市,#00E400,优,46,25,#FFFF00,51,2026-06-03 06:00:00
51,优,330624,63,29.4938,优,--,47,19,98,优,#00E400,#00E400,4,城东站,#00E400,46,优,优,优,330600,#00E400,120.9109,#00E400,32,优,0.6,优,#00E400,#00E400,330624002,优,#00E400,绍兴市,#00E400,优,45,32,#00E400,51,2026-06-03 06:00:00
52,优,330822,36,28.9012,优,--,43,22,49,优,#00E400,#00E400,4,图书馆大楼,#00E400,46,优,优,优,330800,#00E400,118.5062,#00E400,28,优,0.5,优,#00E400,#00E400,330822002,优,#00E400,衢州市,#00E400,优,46,27,#00E400,51,2026-06-03 06:00:00
53,优,331023,52,29.1342,优,--,--,19,82,优,#00E400,#00E400,6,天台实验中学,#00E400,46,优,优,--,331000,#00E400,121.0349,#00E400,18,优,0.6,优,#00E400,--,331023002,--,#00E400,台州市,#00E400,优,46,--,--,51,2026-06-03 06:00:00
54,优,330122,29,29.8058,优,--,48,25,38,优,#00E400,#00E400,4,桐庐江北,#00E400,48,优,优,优,330100,#00E400,119.669,#00E400,30,优,0.6,优,#00E400,#00E400,330122002,优,#00E400,杭州市,#00E400,优,48,30,#00E400,55,2026-06-03 06:00:00
55,优,330482,52,30.6937,优,--,43,18,78,优,#00E400,#00E400,8,平湖幼儿园,#00E400,48,优,优,优,330400,#00E400,121.0259,#00E400,33,优,0.7,优,#00E400,#00E400,330482001,优,#00E400,嘉兴市,#00E400,优,48,29,#00E400,55,2026-06-03 06:00:00
56,优,330226,44,29.2878,优,--,42,18,60,优,#00E400,#00E400,7,宁海城南站,#00E400,49,优,优,优,330200,#00E400,121.4201,#00E400,34,优,0.4,优,#00E400,#00E400,330226002,优,#00E400,宁波市,#00E400,优,46,28,#00E400,57,2026-06-03 06:00:00
57,优,330781,16,29.216166,优,--,47,26,28,优,#00E400,#00E400,7,兰溪监测站,#00E400,49,优,优,优,330700,#00E400,119.459992,#00E400,33,优,0.7,优,#00E400,#00E400,330781001,优,#00E400,金华市,#00E400,优,49,31,#00E400,57,2026-06-03 06:00:00
58,优,330782,24,29.305096,优,--,59,39,42,优,#00E400,#00E400,5,江东,#00E400,49,优,优,良,330700,#00E400,120.090442,#00E400,33,优,0.9,优,#00E400,#FFFF00,330782002,良,#00E400,金华市,#00E400,优,49,36,#FFFF00,57,2026-06-03 06:00:00
59,优,330824,7,29.1478,优,--,39,18,20,优,#00E400,#00E400,9,开化监测大楼,#00E400,49,优,优,优,330800,#00E400,118.4108,#00E400,34,优,0.4,优,#00E400,#00E400,330824002,优,#00E400,衢州市,#00E400,优,43,28,#00E400,57,2026-06-03 06:00:00
60,优,331022,36,29.11779,优,--,40,28,60,优,#00E400,#00E400,6,三门环监楼,#00E400,49,优,优,优,331000,#00E400,121.382189,#00E400,34,优,0.6,优,#00E400,#00E400,331022001,优,#00E400,台州市,#00E400,优,48,27,#00E400,57,2026-06-03 06:00:00
61,优,330421,44,30.8307,优,--,47,26,57,优,#00E400,#00E400,9,气象观测台,#00E400,50,优,优,优,330400,#00E400,120.9356,#00E400,27,优,0.5,优,#00E400,#00E400,330421002,优,#00E400,嘉兴市,#00E400,优,50,27,#00E400,62,2026-06-03 06:00:00
62,优,330683,51,29.5663,优,--,49,34,96,优,#00E400,#00E400,3,丽湖小区,#00E400,50,优,优,优,330600,#00E400,120.8173,#00E400,35,优,0.6,优,#00E400,#FFFF00,330683002,良,#00E400,绍兴市,#00E400,优,46,38,#00E400,62,2026-06-03 06:00:00
63,优,330624,49,29.5036,优,--,51,21,91,优,#00E400,#00E400,4,钟楼站,#00E400,50,优,优,良,330600,#00E400,120.8938,#00E400,35,优,0.7,优,#00E400,#00E400,330624001,优,#00E400,绍兴市,#00E400,优,49,34,#FFFF00,62,2026-06-03 06:00:00
64,优,331121,16,28.1094,优,--,48,11,36,优,#00E400,#00E400,4,青田中学,#00E400,50,优,优,优,331100,#00E400,120.3161,#00E400,35,优,0.6,优,#00E400,#00E400,331121002,优,#00E400,丽水市,#00E400,优,48,30,#00E400,62,2026-06-03 06:00:00
65,优,331122,57,28.6574,优,--,40,39,60,优,#00E400,#00E400,7,缙云中学,#00E400,50,优,优,优,331100,#00E400,120.0696,#00E400,35,优,0.8,优,#00E400,#00E400,331122001,优,#00E400,丽水市,#00E400,优,45,29,#00E400,62,2026-06-03 06:00:00
66,优,330122,20,29.7955,优,PM₁₀,48,41,32,优,#FFFF00,#00E400,5,桐庐江南,#00E400,51,优,良,优,330100,#00E400,119.6874,#00E400,33,良,0.6,优,#00E400,#00E400,330122001,优,#FFFF00,杭州市,#00E400,优,51,30,#00E400,67,2026-06-03 06:00:00
67,优,330213,56,29.6774,优,PM₁₀,49,11,95,优,#FFFF00,#00E400,9,大桥市场,#00E400,51,优,良,优,330200,#00E400,121.4237,#00E400,32,良,0.6,优,#00E400,#00E400,330213001,优,#FFFF00,宁波市,#00E400,优,51,32,#00E400,67,2026-06-03 06:00:00
68,良,330282,105,30.1786,优,PM₁₀,44,19,137,优,#FFFF00,#00E400,8,慈溪实验小学,#FFFF00,51,优,良,优,330200,#00E400,121.2525,#00E400,31,良,0.6,优,#00E400,#00E400,330282002,优,#FFFF00,宁波市,#00E400,优,51,28,#00E400,67,2026-06-03 06:00:00
69,优,330822,22,28.901,优,PM₁₀,47,33,30,优,#FFFF00,#00E400,5,常山环保大楼,#00E400,51,优,良,优,330800,#00E400,118.5196,#00E400,35,良,0.7,优,#00E400,#00E400,330822001,优,#FFFF00,衢州市,#00E400,优,51,29,#00E400,67,2026-06-03 06:00:00
70,优,330803,3,28.9844,优,PM₂.₅,57,45,23,优,#00E400,#FFFF00,6,衢州三中（市）,#00E400,52,优,良,良,330800,#00E400,118.9628,#00E400,36,优,0.7,良,#00E400,#00E400,330803704,优,#FFFF00,衢州市,#00E400,优,50,35,#FFFF00,71,2026-06-03 06:00:00
71,优,330225,58,29.4767,优,PM₂.₅,36,7,62,优,#00E400,#FFFF00,8,文峰小学,#00E400,52,优,良,优,330200,#00E400,121.8864,#00E400,36,优,0.4,良,#00E400,#00E400,330225001,优,#FFFF00,宁波市,#00E400,优,39,33,#00E400,71,2026-06-03 06:00:00
72,优,330424,79,30.5299,优,PM₂.₅,47,22,92,优,#00E400,#FFFF00,6,海盐商贸学校,#00E400,52,优,良,优,330400,#00E400,120.9293,#00E400,36,优,0.6,良,#00E400,#00E400,330424002,优,#FFFF00,嘉兴市,#00E400,优,46,33,#00E400,71,2026-06-03 06:00:00
73,优,330781,7,29.229931,优,PM₂.₅,48,28,22,优,#00E400,#FFFF00,8,兰溪八中,#00E400,52,优,良,优,330700,#00E400,119.475172,#00E400,36,优,0.7,良,#00E400,#00E400,330781002,优,#FFFF00,金华市,#00E400,优,50,33,#00E400,71,2026-06-03 06:00:00
74,优,331124,26,28.4505,优,PM₂.₅,40,29,31,优,#00E400,#FFFF00,5,松阳监测楼,#00E400,52,优,良,优,331100,#00E400,119.4799,#00E400,36,优,0.6,良,#00E400,#00E400,331124001,优,#FFFF00,丽水市,#00E400,优,41,32,#00E400,71,2026-06-03 06:00:00
75,良,330282,102,30.1636,优,PM₁₀,36,18,133,优,#FFFF00,#00E400,6,慈溪环保大楼,#FFFF00,53,优,良,优,330200,#00E400,121.2677,#00E400,27,良,0.6,优,#00E400,#00E400,330282001,优,#FFFF00,宁波市,#00E400,优,53,29,#00E400,76,2026-06-03 06:00:00
76,优,330328,10,27.7838,优,PM₁₀,50,15,23,优,#FFFF00,#00E400,5,大峃,#00E400,53,优,良,优,330300,#00E400,120.085,#00E400,34,良,0.6,优,#00E400,#00E400,330328001,优,#FFFF00,温州市,#00E400,优,53,28,#00E400,76,2026-06-03 06:00:00
77,优,330483,46,30.7369,优,PM₁₀,50,25,73,优,#FFFF00,#00E400,7,植材小学,#00E400,53,优,良,优,330400,#00E400,120.4902,#00E400,33,良,0.8,优,#00E400,#00E400,330483509,优,#FFFF00,嘉兴市,#00E400,优,54,35,#00E400,76,2026-06-03 06:00:00
78,优,330683,48,29.5901,优,"PM₁₀,PM₂.₅",51,31,94,优,#FFFF00,#FFFF00,6,马寅初初中,#00E400,54,优,良,良,330600,#00E400,120.8249,#00E400,37,良,0.6,良,#00E400,#00E400,330683001,优,#FFFF00,绍兴市,#00E400,优,55,33,#FFFF00,79,2026-06-03 06:00:00
79,优,331024,61,28.8589,优,PM₁₀,53,19,84,优,#FFFF00,#FFFF00,9,仙居环监站,#00E400,55,优,良,良,331000,#00E400,120.7248,#00E400,37,良,0.6,良,#00E400,#00E400,331024001,优,#FFFF00,台州市,#00E400,优,57,32,#FFFF00,80,2026-06-03 06:00:00
80,优,330327,34,27.503889,优,PM₁₀,44,22,60,优,#FFFF00,#00E400,9,灵溪,#00E400,56,优,良,优,330300,#00E400,120.395278,#00E400,35,良,0.9,优,#00E400,#00E400,330327001,优,#FFFF00,温州市,#00E400,优,58,30,#00E400,81,2026-06-03 06:00:00
81,优,330483,54,30.6488,优,PM₁₀,52,35,71,优,#FFFF00,#00E400,8,茅盾小学,#00E400,56,优,良,良,330400,#00E400,120.5498,#00E400,33,良,0.6,优,#00E400,#00E400,330483001,优,#FFFF00,嘉兴市,#00E400,优,58,30,#FFFF00,81,2026-06-03 06:00:00
82,优,331121,32,28.1341,优,PM₁₀,49,28,54,优,#FFFF00,#FFFF00,6,塔山小学,#00E400,57,优,良,优,331100,#00E400,120.2936,#00E400,38,良,0.6,良,#00E400,#00E400,331121001,优,#FFFF00,丽水市,#00E400,优,59,29,#00E400,83,2026-06-03 06:00:00
83,优,330481,55,30.5137,优,PM₁₀,50,25,73,优,#FFFF00,#FFFF00,9,硖石街道,#00E400,58,优,良,优,330400,#00E400,120.7082,#00E400,37,良,0.6,良,#00E400,#00E400,330481002,优,#FFFF00,嘉兴市,#00E400,优,61,32,#00E400,84,2026-06-03 06:00:00
84,优,330784,10,28.8854,优,PM₁₀,62,51,27,优,#FFFF00,#FFFF00,7,永康一中,#00E400,58,优,良,良,330700,#00E400,120.0439,#00E400,38,良,0.8,良,#00E400,#00E400,330784001,优,#FFFF00,金华市,#00E400,优,61,33,#FFFF00,84,2026-06-03 06:00:00
85,优,330784,25,28.90016,优,PM₁₀,70,27,39,优,#FFFF00,#FFFF00,8,西城供电所,#00E400,58,优,良,良,330700,#00E400,120.01452,#00E400,38,良,0.7,良,#00E400,#FFFF00,330784002,良,#FFFF00,金华市,#00E400,优,61,38,#FFFF00,84,2026-06-03 06:00:00
86,优,330723,32,28.9178,优,PM₂.₅,50,26,50,优,#00E400,#FFFF00,8,武义北岭幼儿园,#00E400,58,优,良,优,330700,#00E400,119.8022,#00E400,39,优,0.8,良,#00E400,#FFFF00,330723003,良,#FFFF00,金华市,#00E400,优,49,37,#00E400,84,2026-06-03 06:00:00
87,优,330782,24,29.2637,优,PM₁₀,66,26,50,优,#FFFF00,#00E400,6,儿童公园,#00E400,58,优,良,良,330700,#00E400,120.0321,#00E400,31,良,0.5,优,#00E400,#FFFF00,330782004,良,#FFFF00,金华市,#00E400,优,61,38,#FFFF00,84,2026-06-03 06:00:00
88,优,330681,36,29.7257,优,PM₂.₅,62,40,79,优,#FFFF00,#FFFF00,7,城新小学,#00E400,60,优,良,良,330600,#00E400,120.272,#00E400,40,良,0.5,良,#00E400,#FFFF00,330681505,良,#FFFF00,绍兴市,#00E400,优,56,43,#FFFF00,89,2026-06-03 06:00:00
89,优,330327,46,27.522222,优,PM₂.₅,46,22,69,优,#FFFF00,#FFFF00,8,苍南中学,#00E400,60,优,良,优,330300,#00E400,120.416111,#00E400,40,良,1.1,良,#00E400,#00E400,330327004,优,#FFFF00,温州市,#00E400,优,59,29,#00E400,89,2026-06-03 06:00:00
90,优,330424,75,30.5042,优,PM₂.₅,46,18,91,优,#00E400,#FFFF00,7,高级中学,#00E400,60,优,良,优,330400,#00E400,120.9413,#00E400,40,优,0.6,良,#00E400,#FFFF00,330424001,良,#FFFF00,嘉兴市,#00E400,优,50,36,#00E400,89,2026-06-03 06:00:00
91,优,330483,38,30.6355,优,PM₁₀,49,32,61,优,#FFFF00,#FFFF00,9,文化中心,#00E400,60,优,良,优,330400,#00E400,120.5795,#00E400,37,良,0.7,良,#00E400,#00E400,330483003,优,#FFFF00,嘉兴市,#00E400,优,64,33,#00E400,89,2026-06-03 06:00:00
92,优,330521,47,30.548493,优,PM₂.₅,56,33,80,优,#FFFF00,#FFFF00,8,春晖小学,#00E400,60,优,良,良,330500,#00E400,119.9505,#00E400,40,良,0.6,良,#00E400,#FFFF00,330521003,良,#FFFF00,湖州市,#00E400,优,54,39,#FFFF00,89,2026-06-03 06:00:00
93,优,330481,58,30.5261,优,PM₁₀,58,26,80,优,#FFFF00,#FFFF00,7,海宁监测大楼,#00E400,61,优,良,良,330400,#00E400,120.6739,#00E400,39,良,0.4,良,#00E400,#00E400,330481001,优,#FFFF00,嘉兴市,#00E400,优,65,33,#FFFF00,94,2026-06-03 06:00:00
94,优,330825,32,29.0464,优,PM₁₀,57,25,43,优,#FFFF00,#FFFF00,5,龙游二高,#00E400,61,优,良,良,330800,#00E400,119.204,#00E400,37,良,0.6,良,#00E400,#00E400,330825002,优,#FFFF00,衢州市,#00E400,优,65,33,#FFFF00,94,2026-06-03 06:00:00
95,优,330681,35,29.726389,优,PM₂.₅,55,39,69,优,#FFFF00,#FFFF00,6,青少年宫,#00E400,62,优,良,良,330600,#00E400,120.199722,#00E400,41,良,0.6,良,#00E400,#FFFF00,330681002,良,#FFFF00,绍兴市,#00E400,优,52,38,#FFFF00,96,2026-06-03 06:00:00
96,优,330383,68,27.5617,优,PM₂.₅,47,21,85,优,#FFFF00,#FFFF00,7,龙港实验中学,#00E400,62,优,良,优,330300,#00E400,120.5355,#00E400,41,良,0.9,良,#00E400,#00E400,330303101,优,#FFFF00,温州市,#00E400,优,62,29,#00E400,96,2026-06-03 06:00:00
97,优,330782,16,29.335473,优,PM₁₀,65,50,33,优,#FFFF00,#FFFF00,6,北苑,#00E400,63,优,良,良,330700,#00E400,120.078609,#00E400,39,良,0.9,良,#00E400,#FFFF00,330782001,良,#FFFF00,金华市,#00E400,优,68,36,#FFFF00,98,2026-06-03 06:00:00
98,优,330421,55,30.836,优,"PM₁₀,PM₂.₅",50,23,63,优,#FFFF00,#FFFF00,7,嘉善监测大楼,#00E400,64,优,良,优,330400,#00E400,120.9226,#00E400,42,良,0.5,良,#00E400,#00E400,330421001,优,#FFFF00,嘉兴市,#00E400,优,69,31,#00E400,99,2026-06-03 06:00:00
99,优,330523,82,30.6422,优,PM₂.₅,56,19,70,优,#00E400,#FFFF00,7,安吉实验小学,#00E400,66,优,良,良,330500,#00E400,119.6768,#00E400,43,优,0.6,良,#00E400,#FFFF00,330523001,良,#FFFF00,湖州市,#00E400,优,48,39,#FFFF00,100,2026-06-03 06:00:00
100,优,330383,60,27.5812,优,PM₁₀,52,21,76,优,#FFFF00,#FFFF00,10,龙港,#00E400,68,优,良,良,330300,#00E400,120.5489,#00E400,43,良,1.0,良,#00E400,#00E400,330327002,优,#FFFF00,温州市,#00E400,优,74,31,#FFFF00,101,2026-06-03 06:00:00
101,优,330521,52,30.5231,优,PM₂.₅,52,21,84,优,#FFFF00,#FFFF00,8,地信科创园,#00E400,68,优,良,良,330500,#00E400,119.9781,#00E400,44,良,0.7,良,#00E400,#00E400,330521001,优,#FFFF00,湖州市,#00E400,优,59,35,#FFFF00,101,2026-06-03 06:00:00
102,优,330681,32,29.6818,优,PM₂.₅,57,27,66,优,#FFFF00,#FFFF00,5,杨树畈,#00E400,68,优,良,良,330600,#00E400,120.2359,#00E400,44,良,0.6,良,#00E400,#FFFF00,330681001,良,#FFFF00,绍兴市,#00E400,优,58,48,#FFFF00,101,2026-06-03 06:00:00
103,优,330783,37,29.27739,优,PM₂.₅,72,35,41,优,#FFFF00,#FFFF00,8,东阳环保大楼,#00E400,68,优,良,良,330700,#00E400,120.23692,#00E400,44,良,0.7,良,#00E400,#FFFF00,330783002,良,#FFFF00,金华市,#00E400,优,66,45,#FFFF00,101,2026-06-03 06:00:00
104,优,330481,44,30.5524,优,PM₁₀,54,26,69,优,#FFFF00,#FFFF00,7,胜利社区,#00E400,69,优,良,良,330400,#00E400,120.6713,#00E400,36,良,0.7,良,#00E400,#00E400,330481003,优,#FFFF00,嘉兴市,#00E400,优,76,31,#FFFF00,105,2026-06-03 06:00:00
105,优,330381,17,27.791645,优,"PM₁₀,PM₂.₅",52,30,50,优,#FFFF00,#FFFF00,6,花园桥,#00E400,70,优,良,良,330300,#00E400,120.62372,#00E400,45,良,0.6,良,#00E400,#00E400,330381001,优,#FFFF00,温州市,#00E400,优,78,25,#FFFF00,106,2026-06-03 06:00:00
106,优,331082,42,28.84326,优,PM₂.₅,48,21,48,优,#FFFF00,#FFFF00,4,巾山实验小学,#00E400,70,优,良,优,331000,#00E400,121.136,#00E400,45,良,0.5,良,#00E400,#00E400,331082002,优,#FFFF00,台州市,#00E400,优,54,31,#00E400,106,2026-06-03 06:00:00
107,优,330782,16,29.3686,优,PM₁₀,70,44,24,优,#FFFF00,#FFFF00,8,第五中学,#00E400,70,优,良,良,330700,#00E400,120.1345,#00E400,40,良,0.8,良,#00E400,#FFFF00,330782003,良,#FFFF00,金华市,#00E400,优,77,38,#FFFF00,106,2026-06-03 06:00:00
108,优,330522,73,31.0143,优,PM₂.₅,62,25,100,优,#FFFF00,#FFFF00,5,职教中心,#00E400,72,优,良,良,330500,#00E400,119.8935,#00E400,46,良,1.0,良,#00E400,#FFFF00,330522001,良,#FFFF00,湖州市,#00E400,优,69,43,#FFFF00,109,2026-06-03 06:00:00
109,优,330522,65,31.0263,优,PM₂.₅,66,17,93,优,#FFFF00,#FFFF00,8,龙山新区,#00E400,74,优,良,良,330500,#00E400,119.9046,#00E400,47,良,1.0,良,#00E400,#FFFF00,330522002,良,#FFFF00,湖州市,#00E400,优,68,43,#FFFF00,110,2026-06-03 06:00:00
110,优,330783,38,29.30093,优,PM₁₀,63,39,29,优,#FFFF00,#FFFF00,7,广厦学院,#00E400,75,优,良,良,330700,#00E400,120.24157,#00E400,44,良,0.9,良,#00E400,#00E400,330783001,优,#FFFF00,金华市,#00E400,优,85,33,#FFFF00,111,2026-06-03 06:00:00
111,优,330483,44,30.625,优,PM₁₀,62,39,68,优,#FFFF00,#FFFF00,7,振东新六中站,#00E400,79,优,良,良,330400,#00E400,120.5613,#00E400,39,良,0.6,良,#00E400,#00E400,330483002,优,#FFFF00,嘉兴市,#00E400,优,90,35,#FFFF00,112,2026-06-03 06:00:00
112,优,330881,54,28.7282,优,PM₂.₅,55,13,62,优,#FFFF00,#FFFF00,6,人民医院,#00E400,80,优,良,良,330800,#00E400,118.6227,#00E400,50,良,0.7,良,#00E400,#FFFF00,330881002,良,#FFFF00,衢州市,#00E400,优,57,45,#FFFF00,113,2026-06-03 06:00:00
113,优,330881,29,28.7465,优,PM₂.₅,57,19,56,优,#FFFF00,#FFFF00,8,江山环保大楼,#00E400,94,优,良,良,330800,#00E400,118.6301,#00E400,57,良,0.8,良,#00E400,#FFFF00,330881001,良,#FFFF00,衢州市,#00E400,优,73,40,#FFFF00,114,2026-06-03 06:00:00
114,优,330127,25,29.605,优,--,36,8,35,优,#00E400,#00E400,--,老年活动中心,#00E400,--,优,--,优,330100,--,119.0372,#00E400,25,优,0.5,优,#00E400,#00E400,330127T_4,优,--,杭州市,#00E400,--,33,24,#00E400,115,2026-06-03 06:00:00
115,--,330326,--,27.6653,--,--,--,--,--,--,--,--,--,平阳县政府,--,--,--,--,--,330300,--,120.5611,--,--,--,--,--,--,--,330326002,--,--,温州市,--,--,--,--,--,115,2026-06-03 06:00:00
116,--,330523,--,30.5974,--,--,--,--,--,--,--,--,--,安吉城东,--,--,--,--,--,330500,--,119.6953,--,--,--,--,--,--,--,330523002,--,--,湖州市,--,--,--,--,--,115,2026-06-03 06:00:00
117,优,331083,46,28.12715,优,--,--,15,59,优,#00E400,#00E400,--,玉环环监站,#00E400,--,优,--,--,331000,--,121.2339,#00E400,17,优,0.5,优,#00E400,#00E400,331021001,优,--,台州市,#00E400,--,25,22,--,115,2026-06-03 06:00:00
