,O3H8_level,regioncode,O3,latitude,CO_level,SYWRW,PM10H24,NO2,O3H8,O3_level,PM10_color,PM25_color,SO2,sitename,O3H8_color,AQI,NO2_level,AQI_level,PM10H24_level,districtcode,SO2_color,longitude,NO2_color,PM25,PM10_level,CO,PM25_level,CO_color,PM25H24_color,sitecode,PM25H24_level,AQI_color,districtname,O3_color,SO2_level,PM10,PM25H24,PM10H24_color,sort,time
0,优,330781,28,29.216166,优,--,20,5,41,优,#00E400,#00E400,7,兰溪监测站,#00E400,9,优,优,优,330700,#00E400,119.459992,#00E400,6,优,0.6,优,#00E400,#00E400,330781001,优,#00E400,金华市,#00E400,优,7,12,#00E400,1,2026-07-11 19:00:00
1,优,330324,31,28.044335,优,--,15,9,33,优,#00E400,#00E400,3,瓯北,#00E400,10,优,优,优,330300,#00E400,120.654963,#00E400,1,优,0.3,优,#00E400,#00E400,330324002,优,#00E400,温州市,#00E400,优,4,7,#00E400,2,2026-07-11 19:00:00
2,优,330781,31,29.229931,优,--,20,5,45,优,#00E400,#00E400,9,兰溪八中,#00E400,10,优,优,优,330700,#00E400,119.475172,#00E400,5,优,0.4,优,#00E400,#00E400,330781002,优,#00E400,金华市,#00E400,优,9,10,#00E400,2,2026-07-11 19:00:00
3,优,330784,27,28.90016,优,--,19,4,35,优,#00E400,#00E400,8,西城供电所,#00E400,10,优,优,优,330700,#00E400,120.01452,#00E400,4,优,0.4,优,#00E400,#00E400,330784002,优,#00E400,金华市,#00E400,优,10,9,#00E400,2,2026-07-11 19:00:00
4,优,331125,27,28.1173,优,--,14,19,32,优,#00E400,#00E400,6,云和监测楼,#00E400,10,优,优,优,331100,#00E400,119.5626,#00E400,5,优,0.4,优,#00E400,#00E400,331125001,优,#00E400,丽水市,#00E400,优,8,8,#00E400,2,2026-07-11 19:00:00
5,优,330182,35,29.4769,优,--,22,2,43,优,#00E400,#00E400,7,建德监测大楼,#00E400,11,优,优,优,330100,#00E400,119.2711,#00E400,4,优,0.5,优,#00E400,#00E400,330182T_2,优,#00E400,杭州市,#00E400,优,8,12,#00E400,6,2026-07-11 19:00:00
6,优,330782,29,29.335473,优,--,21,5,36,优,#00E400,#00E400,4,北苑,#00E400,11,优,优,优,330700,#00E400,120.078609,#00E400,4,优,0.4,优,#00E400,#00E400,330782001,优,#00E400,金华市,#00E400,优,11,9,#00E400,6,2026-07-11 19:00:00
7,优,330783,35,29.27739,优,--,19,3,38,优,#00E400,#00E400,7,东阳环保大楼,#00E400,11,优,优,优,330700,#00E400,120.23692,#00E400,4,优,0.6,优,#00E400,#00E400,330783002,优,#00E400,金华市,#00E400,优,9,9,#00E400,6,2026-07-11 19:00:00
8,优,331121,33,28.1094,优,--,18,5,32,优,#00E400,#00E400,5,青田中学,#00E400,11,优,优,优,331100,#00E400,120.3161,#00E400,3,优,0.3,优,#00E400,#00E400,331121002,优,#00E400,丽水市,#00E400,优,6,10,#00E400,6,2026-07-11 19:00:00
9,优,331181,34,28.08007,优,--,14,6,44,优,#00E400,#00E400,7,龙泉环保大楼,#00E400,11,优,优,优,331100,#00E400,119.1328,#00E400,4,优,0.4,优,#00E400,#00E400,331181001,优,#00E400,丽水市,#00E400,优,9,8,#00E400,6,2026-07-11 19:00:00
10,优,331181,35,28.076,优,--,15,8,43,优,#00E400,#00E400,5,粮食大楼,#00E400,11,优,优,优,331100,#00E400,119.1217,#00E400,5,优,0.5,优,#00E400,#00E400,331181002,优,#00E400,丽水市,#00E400,优,10,7,#00E400,6,2026-07-11 19:00:00
11,优,330782,32,29.2637,优,--,22,10,44,优,#00E400,#00E400,6,儿童公园,#00E400,11,优,优,优,330700,#00E400,120.0321,#00E400,7,优,0.4,优,#00E400,#00E400,330782004,优,#00E400,金华市,#00E400,优,11,9,#00E400,6,2026-07-11 19:00:00
12,优,330326,36,27.6593,优,--,14,4,35,优,#00E400,#00E400,6,平阳监测站,#00E400,12,优,优,优,330300,#00E400,120.5705,#00E400,2,优,0.3,优,#00E400,#00E400,330326001,优,#00E400,温州市,#00E400,优,5,9,#00E400,13,2026-07-11 19:00:00
13,优,330327,36,27.503889,优,--,19,2,37,优,#00E400,#00E400,7,灵溪,#00E400,12,优,优,优,330300,#00E400,120.395278,#00E400,2,优,0.3,优,#00E400,#00E400,330327001,优,#00E400,温州市,#00E400,优,6,6,#00E400,13,2026-07-11 19:00:00
14,优,330727,38,29.051486,优,--,9,9,38,优,#00E400,#00E400,7,国税大楼,#00E400,12,优,优,优,330700,#00E400,120.438346,#00E400,1,优,0.5,优,#00E400,#00E400,330727002,优,#00E400,金华市,#00E400,优,2,4,#00E400,13,2026-07-11 19:00:00
15,优,331024,36,28.8589,优,--,17,6,43,优,#00E400,#00E400,6,仙居环监站,#00E400,12,优,优,优,331000,#00E400,120.7248,#00E400,2,优,0.4,优,#00E400,#00E400,331024001,优,#00E400,台州市,#00E400,优,9,6,#00E400,13,2026-07-11 19:00:00
16,优,331125,32,28.1062,优,--,18,7,36,优,#00E400,#00E400,7,云和三中,#00E400,12,优,优,优,331100,#00E400,119.5728,#00E400,8,优,0.5,优,#00E400,#00E400,331125002,优,#00E400,丽水市,#00E400,优,8,8,#00E400,13,2026-07-11 19:00:00
17,优,331127,37,27.9772,优,--,12,4,37,优,#00E400,#00E400,4,景宁县政府,#00E400,12,优,优,优,331100,#00E400,119.6311,#00E400,2,优,0.4,优,#00E400,#00E400,331127002,优,#00E400,丽水市,#00E400,优,3,6,#00E400,13,2026-07-11 19:00:00
18,优,330723,37,28.9178,优,--,25,7,49,优,#00E400,#00E400,7,武义北岭幼儿园,#00E400,12,优,优,优,330700,#00E400,119.8022,#00E400,3,优,0.5,优,#00E400,#00E400,330723003,优,#00E400,金华市,#00E400,优,10,12,#00E400,13,2026-07-11 19:00:00
19,优,331127,41,28.002222,优,--,15,4,42,优,#00E400,#00E400,4,红星小学,#00E400,13,优,优,优,331100,#00E400,119.636389,#00E400,1,优,0.3,优,#00E400,--,331127003,--,#00E400,丽水市,#00E400,优,2,--,#00E400,20,2026-07-11 19:00:00
20,优,330382,41,28.0297,优,--,18,3,40,优,#00E400,#00E400,3,柳市,#00E400,13,优,优,优,330300,#00E400,120.891,#00E400,2,优,0.3,优,#00E400,#00E400,330382002,优,#00E400,温州市,#00E400,优,2,8,#00E400,20,2026-07-11 19:00:00
21,优,330381,39,27.782284,优,--,9,3,38,优,#00E400,#00E400,7,安阳新区,#00E400,13,优,优,优,330300,#00E400,120.650915,#00E400,2,优,0.3,优,#00E400,#00E400,330381002,优,#00E400,温州市,#00E400,优,2,5,#00E400,20,2026-07-11 19:00:00
22,优,330328,41,27.7838,优,--,15,1,37,优,#00E400,#00E400,8,大峃,#00E400,13,优,优,优,330300,#00E400,120.085,#00E400,1,优,0.3,优,#00E400,#00E400,330328001,优,#00E400,温州市,#00E400,优,2,8,#00E400,20,2026-07-11 19:00:00
23,优,330327,39,27.522222,优,--,20,3,37,优,#00E400,#00E400,8,苍南中学,#00E400,13,优,优,优,330300,#00E400,120.416111,#00E400,3,优,0.5,优,#00E400,#00E400,330327004,优,#00E400,温州市,#00E400,优,6,8,#00E400,20,2026-07-11 19:00:00
24,优,330726,36,29.465746,优,--,20,1,42,优,#00E400,#00E400,6,浦江实验中学,#00E400,13,优,优,优,330700,#00E400,119.875227,#00E400,4,优,0.5,优,#00E400,#00E400,330726001,优,#00E400,金华市,#00E400,优,13,8,#00E400,20,2026-07-11 19:00:00
25,优,330727,39,29.039869,优,--,14,2,38,优,#00E400,#00E400,6,南园初中,#00E400,13,优,优,优,330700,#00E400,120.440622,#00E400,2,优,0.7,优,#00E400,#00E400,330727003,优,#00E400,金华市,#00E400,优,4,6,#00E400,20,2026-07-11 19:00:00
26,优,331126,41,27.6211,优,--,12,3,38,优,#00E400,#00E400,5,庆元气象局,#00E400,13,优,优,优,331100,#00E400,119.0788,#00E400,3,优,0.6,优,#00E400,#00E400,331126002,优,#00E400,丽水市,#00E400,优,4,9,#00E400,20,2026-07-11 19:00:00
27,优,330803,24,28.9844,优,--,24,6,37,优,#00E400,#00E400,7,衢州三中（市）,#00E400,14,优,优,优,330800,#00E400,118.9628,#00E400,5,优,0.5,优,#00E400,#00E400,330803704,优,#00E400,衢州市,#00E400,优,14,11,#00E400,28,2026-07-11 19:00:00
28,优,330382,44,28.1209,优,--,19,3,44,优,#00E400,#00E400,4,乐成,#00E400,14,优,优,优,330300,#00E400,120.9659,#00E400,1,优,0.2,优,#00E400,#00E400,330382001,优,#00E400,温州市,#00E400,优,8,8,#00E400,28,2026-07-11 19:00:00
29,优,330328,43,27.804722,优,--,12,2,39,优,#00E400,#00E400,9,文成中学,#00E400,14,优,优,优,330300,#00E400,120.077222,#00E400,1,优,0.3,优,#00E400,#00E400,330328002,优,#00E400,温州市,#00E400,优,3,7,#00E400,28,2026-07-11 19:00:00
30,优,330624,43,29.5036,优,--,18,2,40,优,#00E400,#00E400,4,钟楼站,#00E400,14,优,优,优,330600,#00E400,120.8938,#00E400,3,优,0.4,优,#00E400,#00E400,330624001,优,#00E400,绍兴市,#00E400,优,8,7,#00E400,28,2026-07-11 19:00:00
31,优,330723,43,28.896108,优,--,22,5,57,优,#00E400,#00E400,7,武义县政府,#00E400,14,优,优,优,330700,#00E400,119.811352,#00E400,5,优,0.5,优,#00E400,#00E400,330723001,优,#00E400,金华市,#00E400,优,12,12,#00E400,28,2026-07-11 19:00:00
32,优,330782,26,29.305096,优,--,24,3,34,优,#00E400,#00E400,6,江东,#00E400,14,优,优,优,330700,#00E400,120.090442,#00E400,5,优,0.5,优,#00E400,#00E400,330782002,优,#00E400,金华市,#00E400,优,14,8,#00E400,28,2026-07-11 19:00:00
33,优,330822,44,28.901,优,--,19,17,58,优,#00E400,#00E400,4,常山环保大楼,#00E400,14,优,优,优,330800,#00E400,118.5196,#00E400,2,优,0.5,优,#00E400,#00E400,330822001,优,#00E400,衢州市,#00E400,优,10,6,#00E400,28,2026-07-11 19:00:00
34,优,330822,44,28.9012,优,--,20,19,58,优,#00E400,#00E400,4,图书馆大楼,#00E400,14,优,优,优,330800,#00E400,118.5062,#00E400,1,优,0.4,优,#00E400,#00E400,330822002,优,#00E400,衢州市,#00E400,优,10,8,#00E400,28,2026-07-11 19:00:00
35,优,330824,39,29.1478,优,--,22,2,47,优,#00E400,#00E400,6,开化监测大楼,#00E400,14,优,优,优,330800,#00E400,118.4108,#00E400,7,优,0.4,优,#00E400,#00E400,330824002,优,#00E400,衢州市,#00E400,优,14,11,#00E400,28,2026-07-11 19:00:00
36,优,331083,42,28.12715,优,--,21,2,43,优,#00E400,#00E400,2,玉环环监站,#00E400,14,优,优,优,331000,#00E400,121.2339,#00E400,2,优,0.5,优,#00E400,#00E400,331021001,优,#00E400,台州市,#00E400,优,10,8,#00E400,28,2026-07-11 19:00:00
37,优,331082,42,28.873,优,--,--,9,38,优,#00E400,#00E400,5,临海环保大楼,#00E400,14,优,优,--,331000,#00E400,121.1769,#00E400,1,优,0.5,优,#00E400,--,331082001,--,#00E400,台州市,#00E400,优,2,--,--,28,2026-07-11 19:00:00
38,优,331082,42,28.84326,优,--,19,9,39,优,#00E400,#00E400,4,巾山实验小学,#00E400,14,优,优,优,331000,#00E400,121.136,#00E400,1,优,0.3,优,#00E400,#00E400,331082002,优,#00E400,台州市,#00E400,优,2,7,#00E400,28,2026-07-11 19:00:00
39,优,331022,44,29.11779,优,--,24,6,44,优,#00E400,#00E400,4,三门环监楼,#00E400,14,优,优,优,331000,#00E400,121.382189,#00E400,3,优,0.5,优,#00E400,#00E400,331022001,优,#00E400,台州市,#00E400,优,9,8,#00E400,28,2026-07-11 19:00:00
40,优,331121,43,28.1341,优,--,20,11,41,优,#00E400,#00E400,5,塔山小学,#00E400,14,优,优,优,331100,#00E400,120.2936,#00E400,4,优,0.4,优,#00E400,#00E400,331121001,优,#00E400,丽水市,#00E400,优,6,10,#00E400,28,2026-07-11 19:00:00
41,优,331123,44,28.5991,优,--,12,3,51,优,#00E400,#00E400,14,遂昌民政局,#00E400,14,优,优,优,331100,#00E400,119.2622,#00E400,1,优,0.4,优,#00E400,#00E400,331123001,优,#00E400,丽水市,#00E400,优,2,7,#00E400,28,2026-07-11 19:00:00
42,优,331126,42,27.629585,优,--,13,4,39,优,#00E400,#00E400,4,庆元监测楼,#00E400,14,优,优,优,331100,#00E400,119.054809,#00E400,3,优,0.5,优,#00E400,#00E400,331126001,优,#00E400,丽水市,#00E400,优,5,7,#00E400,28,2026-07-11 19:00:00
43,优,330182,48,29.4638,优,--,23,8,59,优,#00E400,#00E400,4,第二中学,#00E400,15,优,优,优,330100,#00E400,119.2821,#00E400,8,优,0.4,优,#00E400,#00E400,330182002,优,#00E400,杭州市,#00E400,优,12,14,#00E400,44,2026-07-11 19:00:00
44,优,330226,48,29.3125,优,--,31,5,44,优,#00E400,#00E400,5,宁海水利局,#00E400,15,优,优,优,330200,#00E400,121.4306,#00E400,6,优,0.4,优,#00E400,#00E400,330226001,优,#00E400,宁波市,#00E400,优,13,13,#00E400,44,2026-07-11 19:00:00
45,优,330329,47,27.5438,优,--,11,2,45,优,#00E400,#00E400,6,泰顺实验中学,#00E400,15,优,优,优,330300,#00E400,119.716111,#00E400,1,优,0.3,优,#00E400,#00E400,330329002,优,#00E400,温州市,#00E400,优,2,6,#00E400,44,2026-07-11 19:00:00
46,优,330624,45,29.4938,优,--,21,4,42,优,#00E400,#00E400,5,城东站,#00E400,15,优,优,优,330600,#00E400,120.9109,#00E400,3,优,0.3,优,#00E400,#00E400,330624002,优,#00E400,绍兴市,#00E400,优,8,8,#00E400,44,2026-07-11 19:00:00
47,优,330881,37,28.7465,优,--,26,2,54,优,#00E400,#00E400,3,江山环保大楼,#00E400,15,优,优,优,330800,#00E400,118.6301,#00E400,10,优,0.5,优,#00E400,#00E400,330881001,优,#00E400,衢州市,#00E400,优,14,13,#00E400,44,2026-07-11 19:00:00
48,优,331024,46,28.7403,优,--,14,6,44,优,#00E400,#00E400,6,新生中学,#00E400,15,优,优,优,331000,#00E400,120.4728,#00E400,2,优,0.4,优,#00E400,#00E400,331024002,优,#00E400,台州市,#00E400,优,3,7,#00E400,44,2026-07-11 19:00:00
49,优,331023,46,29.1342,优,--,16,4,44,优,#00E400,#00E400,4,天台实验中学,#00E400,15,优,优,优,331000,#00E400,121.0349,#00E400,4,优,0.4,优,#00E400,#00E400,331023002,优,#00E400,台州市,#00E400,优,5,8,#00E400,44,2026-07-11 19:00:00
50,优,331081,43,28.39136,优,--,27,2,42,优,#00E400,#00E400,2,之江高级中学,#00E400,15,优,优,优,331000,#00E400,121.37696,#00E400,5,优,0.4,优,#00E400,#00E400,331081002,优,#00E400,台州市,#00E400,优,15,9,#00E400,44,2026-07-11 19:00:00
51,优,331123,47,28.5839,优,--,13,2,54,优,#00E400,#00E400,7,遂昌中学,#00E400,15,优,优,优,331100,#00E400,119.2656,#00E400,3,优,0.4,优,#00E400,#00E400,331123002,优,#00E400,丽水市,#00E400,优,3,8,#00E400,44,2026-07-11 19:00:00
52,优,330383,46,27.5617,优,--,16,3,46,优,#00E400,#00E400,7,龙港实验中学,#00E400,15,优,优,优,330300,#00E400,120.5355,#00E400,1,优,0.3,优,#00E400,#00E400,330303101,优,#00E400,温州市,#00E400,优,3,7,#00E400,44,2026-07-11 19:00:00
53,优,330213,43,29.693,优,--,30,4,40,优,#00E400,#00E400,5,溪口政府大楼,#00E400,16,优,优,优,330200,#00E400,121.2774,#00E400,6,优,0.3,优,#00E400,#00E400,330283T_1,优,#00E400,宁波市,#00E400,优,16,12,#00E400,54,2026-07-11 19:00:00
54,优,330226,49,29.2878,优,--,30,10,46,优,#00E400,#00E400,6,宁海城南站,#00E400,16,优,优,优,330200,#00E400,121.4201,#00E400,5,优,0.3,优,#00E400,--,330226002,--,#00E400,宁波市,#00E400,优,10,--,#00E400,54,2026-07-11 19:00:00
55,优,330683,50,29.5663,优,--,19,6,52,优,#00E400,#00E400,2,丽湖小区,#00E400,16,优,优,优,330600,#00E400,120.8173,#00E400,6,优,0.5,优,#00E400,#00E400,330683002,优,#00E400,绍兴市,#00E400,优,13,8,#00E400,54,2026-07-11 19:00:00
56,优,330881,46,28.7282,优,--,28,12,57,优,#00E400,#00E400,6,人民医院,#00E400,16,优,优,优,330800,#00E400,118.6227,#00E400,7,优,0.5,优,#00E400,#00E400,330881002,优,#00E400,衢州市,#00E400,优,16,13,#00E400,54,2026-07-11 19:00:00
57,优,330825,34,29.0464,优,--,31,3,48,优,#00E400,#00E400,5,龙游二高,#00E400,16,优,优,优,330800,#00E400,119.204,#00E400,8,优,0.3,优,#00E400,#00E400,330825002,优,#00E400,衢州市,#00E400,优,16,14,#00E400,54,2026-07-11 19:00:00
58,优,331083,49,28.2221,优,--,19,5,50,优,#00E400,#00E400,7,楚门中心小学,#00E400,16,优,优,优,331000,#00E400,121.2846,#00E400,4,优,0.5,优,#00E400,#00E400,331021002,优,#00E400,台州市,#00E400,优,3,10,#00E400,54,2026-07-11 19:00:00
59,优,331081,49,28.37558,优,--,26,4,40,优,#00E400,#00E400,4,温岭环监站,#00E400,16,优,优,优,331000,#00E400,121.36579,#00E400,1,优,0.3,优,#00E400,#00E400,331081001,优,#00E400,台州市,#00E400,优,13,15,#00E400,54,2026-07-11 19:00:00
60,优,331124,51,28.4505,优,--,16,12,55,优,#00E400,#00E400,4,松阳监测楼,#00E400,16,优,优,优,331100,#00E400,119.4799,#00E400,2,优,0.4,优,#00E400,#00E400,331124001,优,#00E400,丽水市,#00E400,优,3,9,#00E400,54,2026-07-11 19:00:00
61,优,331124,51,28.4516,优,--,17,8,54,优,#00E400,#00E400,5,和平水厂,#00E400,16,优,优,优,331100,#00E400,119.4699,#00E400,1,优,0.3,优,#00E400,#00E400,331124002,优,#00E400,丽水市,#00E400,优,3,8,#00E400,54,2026-07-11 19:00:00
62,优,330329,53,27.557,优,--,14,5,51,优,#00E400,#00E400,3,罗阳,#00E400,17,优,优,优,330300,#00E400,119.7084,#00E400,1,优,0.3,优,#00E400,#00E400,330329001,优,#00E400,温州市,#00E400,优,2,5,#00E400,63,2026-07-11 19:00:00
63,优,330683,38,29.5901,优,--,21,2,38,优,#00E400,#00E400,2,马寅初初中,#00E400,17,优,优,优,330600,#00E400,120.8249,#00E400,7,优,0.4,优,#00E400,#00E400,330683001,优,#00E400,绍兴市,#00E400,优,17,8,#00E400,63,2026-07-11 19:00:00
64,优,330825,53,29.0392,优,--,24,8,67,优,#00E400,#00E400,5,建设大楼,#00E400,17,优,优,优,330800,#00E400,119.1675,#00E400,7,优,0.3,优,#00E400,#00E400,330825001,优,#00E400,衢州市,#00E400,优,14,13,#00E400,63,2026-07-11 19:00:00
65,优,330824,41,29.1343,优,--,23,4,48,优,#00E400,#00E400,7,开化气象局,#00E400,17,优,优,优,330800,#00E400,118.402,#00E400,3,优,0.3,优,#00E400,#00E400,330824001,优,#00E400,衢州市,#00E400,优,17,8,#00E400,63,2026-07-11 19:00:00
66,优,331122,53,28.6574,优,--,15,17,59,优,#00E400,#00E400,7,缙云中学,#00E400,17,优,优,优,331100,#00E400,120.0696,#00E400,2,优,0.5,优,#00E400,#00E400,331122001,优,#00E400,丽水市,#00E400,优,5,7,#00E400,63,2026-07-11 19:00:00
67,优,330782,34,29.3686,优,--,24,5,41,优,#00E400,#00E400,6,第五中学,#00E400,17,优,优,优,330700,#00E400,120.1345,#00E400,5,优,0.6,优,#00E400,#00E400,330782003,优,#00E400,金华市,#00E400,优,17,9,#00E400,63,2026-07-11 19:00:00
68,优,330383,41,27.5812,优,--,17,2,41,优,#00E400,#00E400,8,龙港,#00E400,18,优,优,优,330300,#00E400,120.5489,#00E400,12,优,0.4,优,#00E400,#00E400,330327002,优,#00E400,温州市,#00E400,优,3,9,#00E400,69,2026-07-11 19:00:00
69,优,330523,36,30.5974,优,--,21,5,50,优,#00E400,#00E400,3,安吉城东,#00E400,18,优,优,优,330500,#00E400,119.6953,#00E400,12,优,0.3,优,#00E400,#00E400,330523002,优,#00E400,湖州市,#00E400,优,18,12,#00E400,69,2026-07-11 19:00:00
70,优,330726,34,29.439787,优,--,25,3,42,优,#00E400,#00E400,3,浦江中学,#00E400,18,优,优,优,330700,#00E400,119.924638,#00E400,5,优,0.3,优,#00E400,#00E400,330726002,优,#00E400,金华市,#00E400,优,18,9,#00E400,69,2026-07-11 19:00:00
71,优,330212,45,29.7736,优,--,28,2,44,优,#00E400,#00E400,4,钱湖水厂,#00E400,18,优,优,优,330200,#00E400,121.6330,#00E400,7,优,0.6,优,#00E400,#00E400,2013302120001,优,#00E400,宁波市,#00E400,优,18,12,#00E400,69,2026-07-11 19:00:00
72,优,330213,38,29.6506,优,--,30,5,35,优,#00E400,#00E400,8,奉化教育局,#00E400,19,优,优,优,330200,#00E400,121.4042,#00E400,7,优,0.4,优,#00E400,#00E400,330283005,优,#00E400,宁波市,#00E400,优,19,12,#00E400,73,2026-07-11 19:00:00
73,优,331122,60,28.6628,优,--,17,17,64,优,#00E400,#00E400,6,信访大楼,#00E400,19,优,优,优,331100,#00E400,120.0856,#00E400,7,优,0.3,优,#00E400,#00E400,331122002,优,#00E400,丽水市,#00E400,优,13,8,#00E400,73,2026-07-11 19:00:00
74,优,330213,43,29.6774,优,--,33,5,40,优,#00E400,#00E400,5,大桥市场,#00E400,20,优,优,优,330200,#00E400,121.4237,#00E400,6,优,0.6,优,#00E400,#00E400,330213001,优,#00E400,宁波市,#00E400,优,20,14,#00E400,75,2026-07-11 19:00:00
75,优,330681,34,29.6818,优,--,20,1,38,优,#00E400,#00E400,6,杨树畈,#00E400,20,优,优,优,330600,#00E400,120.2359,#00E400,12,优,0.3,优,#00E400,#00E400,330681001,优,#00E400,绍兴市,#00E400,优,20,12,#00E400,75,2026-07-11 19:00:00
76,优,330122,50,29.8058,优,--,27,9,55,优,#00E400,#00E400,4,桐庐江北,#00E400,21,优,优,优,330100,#00E400,119.669,#00E400,8,优,0.4,优,#00E400,#00E400,330122002,优,#00E400,杭州市,#00E400,优,21,14,#00E400,77,2026-07-11 19:00:00
77,优,330127,38,29.5995,优,--,25,4,46,优,#00E400,#00E400,8,淳安环保大楼,#00E400,21,优,优,优,330100,#00E400,119.0481,#00E400,7,优,0.4,优,#00E400,#00E400,330127001,优,#00E400,杭州市,#00E400,优,21,12,#00E400,77,2026-07-11 19:00:00
78,优,330681,34,29.726389,优,--,22,2,42,优,#00E400,#00E400,5,青少年宫,#00E400,21,优,优,优,330600,#00E400,120.199722,#00E400,5,优,0.3,优,#00E400,#00E400,330681002,优,#00E400,绍兴市,#00E400,优,21,5,#00E400,77,2026-07-11 19:00:00
79,优,330681,42,29.7257,优,--,25,3,48,优,#00E400,#00E400,8,城新小学,#00E400,24,优,优,优,330600,#00E400,120.272,#00E400,9,优,0.2,优,#00E400,#00E400,330681505,优,#00E400,绍兴市,#00E400,优,24,11,#00E400,80,2026-07-11 19:00:00
80,优,330122,42,29.7955,优,--,30,6,47,优,#00E400,#00E400,5,桐庐江南,#00E400,26,优,优,优,330100,#00E400,119.6874,#00E400,8,优,0.2,优,#00E400,#00E400,330122001,优,#00E400,杭州市,#00E400,优,26,15,#00E400,81,2026-07-11 19:00:00
81,优,330523,32,30.6422,优,--,28,3,44,优,#00E400,#00E400,7,安吉实验小学,#00E400,27,优,优,优,330500,#00E400,119.6768,#00E400,12,优,0.2,优,#00E400,#00E400,330523001,优,#00E400,湖州市,#00E400,优,27,14,#00E400,82,2026-07-11 19:00:00
82,优,330110,43,30.2635,优,--,31,4,46,优,#00E400,#00E400,5,海辰小学,#00E400,27,优,优,优,330100,#00E400,119.9842,#00E400,12,优,0.2,优,#00E400,--,2013301100001,--,#00E400,杭州市,#00E400,优,27,--,#00E400,82,2026-07-11 19:00:00
83,优,330522,33,31.0143,优,--,26,7,52,优,#00E400,#00E400,3,职教中心,#00E400,28,优,优,优,330500,#00E400,119.8935,#00E400,12,优,0.4,优,#00E400,#00E400,330522001,优,#00E400,湖州市,#00E400,优,28,11,#00E400,84,2026-07-11 19:00:00
84,优,330521,33,30.5231,优,--,30,4,44,优,#00E400,#00E400,8,地信科创园,#00E400,29,优,优,优,330500,#00E400,119.9781,#00E400,11,优,0.3,优,#00E400,#00E400,330521001,优,#00E400,湖州市,#00E400,优,29,12,#00E400,85,2026-07-11 19:00:00
85,优,330522,40,31.0263,优,--,26,9,57,优,#00E400,#00E400,4,龙山新区,#00E400,29,优,优,优,330500,#00E400,119.9046,#00E400,11,优,0.3,优,#00E400,#00E400,330522002,优,#00E400,湖州市,#00E400,优,29,10,#00E400,85,2026-07-11 19:00:00
86,优,330483,35,30.6355,优,--,30,1,37,优,#00E400,#00E400,9,文化中心,#00E400,30,优,优,优,330400,#00E400,120.5795,#00E400,12,优,0.4,优,#00E400,#00E400,330483003,优,#00E400,嘉兴市,#00E400,优,30,11,#00E400,87,2026-07-11 19:00:00
87,优,330521,32,30.548493,优,--,33,4,44,优,#00E400,#00E400,8,春晖小学,#00E400,30,优,优,优,330500,#00E400,119.9505,#00E400,13,优,0.3,优,#00E400,#00E400,330521003,优,#00E400,湖州市,#00E400,优,30,14,#00E400,87,2026-07-11 19:00:00
88,优,330281,34,30.0497,优,--,32,4,32,优,#00E400,#00E400,5,龙山公园,#00E400,31,优,优,优,330200,#00E400,121.1475,#00E400,10,优,0.4,优,#00E400,#00E400,330281001,优,#00E400,宁波市,#00E400,优,31,12,#00E400,89,2026-07-11 19:00:00
89,优,330281,31,30.0358,优,--,31,6,31,优,#00E400,#00E400,5,姚江小学,#00E400,32,优,优,优,330200,#00E400,121.1221,#00E400,13,优,0.4,优,#00E400,#00E400,330281002,优,#00E400,宁波市,#00E400,优,32,15,#00E400,90,2026-07-11 19:00:00
90,优,330305,42,27.8342,优,--,31,2,43,优,#00E400,#00E400,5,洞头气象局,#00E400,32,优,优,优,330300,#00E400,121.1502,#00E400,3,优,0.4,优,#00E400,#00E400,330305001,优,#00E400,温州市,#00E400,优,32,10,#00E400,90,2026-07-11 19:00:00
91,优,330421,38,30.8307,优,--,28,2,42,优,#00E400,#00E400,7,气象观测台,#00E400,33,优,优,优,330400,#00E400,120.9356,#00E400,14,优,0.4,优,#00E400,#00E400,330421002,优,#00E400,嘉兴市,#00E400,优,33,9,#00E400,92,2026-07-11 19:00:00
92,优,330482,38,30.6937,优,--,30,3,40,优,#00E400,#00E400,7,平湖幼儿园,#00E400,35,优,优,优,330400,#00E400,121.0259,#00E400,13,优,0.3,优,#00E400,--,330482001,--,#00E400,嘉兴市,#00E400,优,35,--,#00E400,93,2026-07-11 19:00:00
93,优,330483,49,30.7369,优,--,29,2,56,优,#00E400,#00E400,5,植材小学,#00E400,35,优,优,优,330400,#00E400,120.4902,#00E400,17,优,0.5,优,#00E400,#00E400,330483509,优,#00E400,嘉兴市,#00E400,优,35,12,#00E400,93,2026-07-11 19:00:00
94,优,330482,32,30.7292,优,--,29,2,35,优,#00E400,#00E400,7,陆家桥村,#00E400,36,优,优,优,330400,#00E400,120.9953,#00E400,15,优,0.4,优,#00E400,#00E400,330482002,优,#00E400,嘉兴市,#00E400,优,36,13,#00E400,95,2026-07-11 19:00:00
95,优,330421,41,30.836,优,--,32,8,43,优,#00E400,#00E400,5,嘉善监测大楼,#00E400,37,优,优,优,330400,#00E400,120.9226,#00E400,15,优,0.3,优,#00E400,#00E400,330421001,优,#00E400,嘉兴市,#00E400,优,37,13,#00E400,96,2026-07-11 19:00:00
96,优,330483,59,30.625,优,--,36,12,52,优,#00E400,#00E400,3,振东新六中站,#00E400,38,优,优,优,330400,#00E400,120.5613,#00E400,14,优,0.4,优,#00E400,#00E400,330483002,优,#00E400,嘉兴市,#00E400,优,38,13,#00E400,97,2026-07-11 19:00:00
97,优,330424,42,30.5299,优,--,33,12,43,优,#00E400,#00E400,4,海盐商贸学校,#00E400,40,优,优,优,330400,#00E400,120.9293,#00E400,17,优,0.4,优,#00E400,#00E400,330424002,优,#00E400,嘉兴市,#00E400,优,40,14,#00E400,98,2026-07-11 19:00:00
98,优,330481,31,30.5261,优,--,35,9,35,优,#00E400,#00E400,5,海宁监测大楼,#00E400,42,优,优,优,330400,#00E400,120.6739,#00E400,16,优,0.2,优,#00E400,#00E400,330481001,优,#00E400,嘉兴市,#00E400,优,42,14,#00E400,99,2026-07-11 19:00:00
99,优,330424,52,30.5042,优,--,35,7,50,优,#00E400,#00E400,6,高级中学,#00E400,42,优,优,优,330400,#00E400,120.9413,#00E400,13,优,0.4,优,#00E400,#00E400,330424001,优,#00E400,嘉兴市,#00E400,优,42,11,#00E400,99,2026-07-11 19:00:00
100,优,330225,41,29.4767,优,--,38,2,39,优,#00E400,#00E400,8,文峰小学,#00E400,43,优,优,优,330200,#00E400,121.8864,#00E400,14,优,0.4,优,#00E400,#00E400,330225001,优,#00E400,宁波市,#00E400,优,43,16,#00E400,101,2026-07-11 19:00:00
101,优,330282,39,30.1786,优,--,47,1,36,优,#00E400,#00E400,3,慈溪实验小学,#00E400,45,优,优,优,330200,#00E400,121.2525,#00E400,18,优,0.4,优,#00E400,#00E400,330282002,优,#00E400,宁波市,#00E400,优,45,14,#00E400,102,2026-07-11 19:00:00
102,优,330483,42,30.6488,优,--,46,9,44,优,#00E400,#00E400,3,茅盾小学,#00E400,49,优,优,优,330400,#00E400,120.5498,#00E400,15,优,0.2,优,#00E400,#00E400,330483001,优,#00E400,嘉兴市,#00E400,优,49,15,#00E400,103,2026-07-11 19:00:00
103,优,330922,33,30.7269,优,PM₁₀,39,2,30,优,#FFFF00,#00E400,6,嵊泗菜园,#00E400,51,优,良,优,330900,#00E400,122.4464,#00E400,19,良,0.2,优,#00E400,#00E400,330922001,优,#FFFF00,舟山市,#00E400,优,51,14,#00E400,104,2026-07-11 19:00:00
104,优,330282,37,30.1636,优,PM₁₀,46,1,34,优,#FFFF00,#00E400,3,慈溪环保大楼,#00E400,53,优,良,优,330200,#00E400,121.2677,#00E400,14,良,0.4,优,#00E400,#00E400,330282001,优,#FFFF00,宁波市,#00E400,优,53,15,#00E400,105,2026-07-11 19:00:00
105,优,330225,47,29.2003,优,PM₁₀,44,2,46,优,#FFFF00,#00E400,9,石浦新港小学,#00E400,53,优,良,优,330200,#00E400,121.934,#00E400,17,良,0.4,优,#00E400,#00E400,330225002,优,#FFFF00,宁波市,#00E400,优,54,14,#00E400,105,2026-07-11 19:00:00
106,优,330921,39,30.2517,优,PM₁₀,47,2,35,优,#FFFF00,#00E400,7,岱山高亭,#00E400,57,优,良,优,330900,#00E400,122.1958,#00E400,20,良,0.4,优,#00E400,#00E400,330921002,优,#FFFF00,舟山市,#00E400,优,59,18,#00E400,107,2026-07-11 19:00:00
107,优,330921,34,30.2669,优,PM₁₀,46,9,33,优,#FFFF00,#00E400,3,岱山环保大楼,#00E400,60,优,良,优,330900,#00E400,122.2199,#00E400,22,良,0.3,优,#00E400,#00E400,330921001,优,#FFFF00,舟山市,#00E400,优,64,17,#00E400,108,2026-07-11 19:00:00
108,优,330127,45,29.605,优,--,19,3,52,优,#00E400,#00E400,--,老年活动中心,#00E400,--,优,--,优,330100,--,119.0372,#00E400,6,优,0.5,优,#00E400,#00E400,330127T_4,优,--,杭州市,#00E400,--,11,7,#00E400,109,2026-07-11 19:00:00
109,优,330381,36,27.791645,优,--,10,3,36,优,#00E400,--,6,花园桥,#00E400,--,优,--,优,330300,#00E400,120.62372,#00E400,--,优,0.4,--,#00E400,#00E400,330381001,优,--,温州市,#00E400,优,2,4,#00E400,109,2026-07-11 19:00:00
110,优,330324,44,28.158269,优,--,15,5,42,优,#00E400,--,6,上塘,#00E400,--,优,--,优,330300,#00E400,120.694244,#00E400,--,优,0.5,--,#00E400,#00E400,330324001,优,--,温州市,#00E400,优,3,6,#00E400,109,2026-07-11 19:00:00
111,优,330326,--,27.6653,--,--,17,--,42,--,--,--,--,平阳县政府,#00E400,--,--,--,优,330300,--,120.5611,--,--,--,--,--,--,#00E400,330326002,优,--,温州市,--,--,--,6,#00E400,109,2026-07-11 19:00:00
112,优,330481,36,30.5137,优,--,36,1,35,优,#00E400,#00E400,--,硖石街道,#00E400,--,优,--,优,330400,--,120.7082,#00E400,14,优,0.4,优,#00E400,#00E400,330481002,优,--,嘉兴市,#00E400,--,39,13,#00E400,109,2026-07-11 19:00:00
113,优,330783,33,29.30093,优,--,19,9,37,优,#00E400,--,6,广厦学院,#00E400,--,优,--,优,330700,#00E400,120.24157,#00E400,--,优,0.6,--,#00E400,#00E400,330783001,优,--,金华市,#00E400,优,4,14,#00E400,109,2026-07-11 19:00:00
114,--,330784,--,28.8854,--,--,--,--,--,--,--,--,--,永康一中,--,--,--,--,--,330700,--,120.0439,--,--,--,--,--,--,--,330784001,--,--,金华市,--,--,--,--,--,109,2026-07-11 19:00:00
115,--,331023,--,29.1504,--,--,--,--,--,--,--,--,--,育青中学,--,--,--,--,--,331000,--,121.0091,--,--,--,--,--,--,--,331023001,--,--,台州市,--,--,--,--,--,109,2026-07-11 19:00:00
116,--,331022,--,29.1028,--,--,--,--,--,--,--,--,--,心湖站,--,--,--,--,--,331000,--,121.3918,--,--,--,--,--,--,--,331022002,--,--,台州市,--,--,--,--,--,109,2026-07-11 19:00:00
117,优,330481,40,30.5524,优,--,37,2,40,优,#00E400,--,6,胜利社区,#00E400,--,优,--,优,330400,#00E400,120.6713,#00E400,--,优,0.4,--,#00E400,--,330481003,--,--,嘉兴市,#00E400,优,40,--,#00E400,109,2026-07-11 19:00:00
