,O3H8_level,regioncode,O3,latitude,CO_level,SYWRW,PM10H24,NO2,O3H8,O3_level,PM10_color,PM25_color,SO2,sitename,O3H8_color,AQI,NO2_level,AQI_level,PM10H24_level,districtcode,SO2_color,longitude,NO2_color,PM25,PM10_level,CO,PM25_level,CO_color,PM25H24_color,sitecode,PM25H24_level,AQI_color,districtname,O3_color,SO2_level,PM10,PM25H24,PM10H24_color,sort,time
0,优,330327,71,27.503889,优,--,9,9,79,优,#00E400,#00E400,9,灵溪,#00E400,23,优,优,优,330300,#00E400,120.395278,#00E400,13,优,0.4,优,#00E400,#00E400,330327001,优,#00E400,温州市,#00E400,优,19,6,#00E400,1,2026-05-15 18:00:00
1,优,331127,76,28.002222,优,--,7,14,85,优,#00E400,#00E400,6,红星小学,#00E400,24,优,优,优,331100,#00E400,119.636389,#00E400,11,优,0.4,优,#00E400,#00E400,331127003,优,#00E400,丽水市,#00E400,优,23,2,#00E400,2,2026-05-15 18:00:00
2,优,330127,68,29.5995,优,--,10,9,75,优,#00E400,#00E400,9,淳安环保大楼,#00E400,24,优,优,优,330100,#00E400,119.0481,#00E400,13,优,0.7,优,#00E400,#00E400,330127001,优,#00E400,杭州市,#00E400,优,24,7,#00E400,2,2026-05-15 18:00:00
3,优,330328,49,27.804722,优,--,8,3,88,优,#00E400,#00E400,7,文成中学,#00E400,24,优,优,优,330300,#00E400,120.077222,#00E400,8,优,0.3,优,#00E400,#00E400,330328002,优,#00E400,温州市,#00E400,优,24,4,#00E400,2,2026-05-15 18:00:00
4,优,330922,74,30.7269,优,--,20,6,81,优,#00E400,#00E400,8,嵊泗菜园,#00E400,24,优,优,优,330900,#00E400,122.4464,#00E400,15,优,0.4,优,#00E400,#00E400,330922001,优,#00E400,舟山市,#00E400,优,24,11,#00E400,2,2026-05-15 18:00:00
5,优,330327,78,27.522222,优,--,10,13,89,优,#00E400,#00E400,8,苍南中学,#00E400,25,优,优,优,330300,#00E400,120.416111,#00E400,13,优,0.6,优,#00E400,#00E400,330327004,优,#00E400,温州市,#00E400,优,24,6,#00E400,6,2026-05-15 18:00:00
6,优,330824,78,29.1343,优,--,15,5,77,优,#00E400,#00E400,6,开化气象局,#00E400,25,优,优,优,330800,#00E400,118.402,#00E400,9,优,0.3,优,#00E400,--,330824001,--,#00E400,衢州市,#00E400,优,20,--,#00E400,6,2026-05-15 18:00:00
7,优,331081,77,28.37558,优,--,18,12,86,优,#00E400,#00E400,5,温岭环监站,#00E400,25,优,优,优,331000,#00E400,121.36579,#00E400,8,优,0.4,优,#00E400,#00E400,331081001,优,#00E400,台州市,#00E400,优,20,13,#00E400,6,2026-05-15 18:00:00
8,优,330381,81,27.782284,优,--,10,8,90,优,#00E400,#00E400,8,安阳新区,#00E400,26,优,优,优,330300,#00E400,120.650915,#00E400,9,优,0.5,优,#00E400,#00E400,330381002,优,#00E400,温州市,#00E400,优,16,6,#00E400,9,2026-05-15 18:00:00
9,优,330324,81,28.158269,优,--,17,13,84,优,#00E400,#00E400,5,上塘,#00E400,26,优,优,优,330300,#00E400,120.694244,#00E400,12,优,0.4,优,#00E400,#00E400,330324001,优,#00E400,温州市,#00E400,优,18,11,#00E400,9,2026-05-15 18:00:00
10,优,330326,83,27.6653,优,--,10,10,89,优,#00E400,#00E400,9,平阳县政府,#00E400,26,优,优,优,330300,#00E400,120.5611,#00E400,15,优,0.5,优,#00E400,#00E400,330326002,优,#00E400,温州市,#00E400,优,19,8,#00E400,9,2026-05-15 18:00:00
11,优,330781,83,29.229931,优,--,12,7,85,优,#00E400,#00E400,8,兰溪八中,#00E400,26,优,优,优,330700,#00E400,119.475172,#00E400,13,优,0.4,优,#00E400,#00E400,330781002,优,#00E400,金华市,#00E400,优,15,8,#00E400,9,2026-05-15 18:00:00
12,优,330824,81,29.1478,优,--,10,6,83,优,#00E400,#00E400,7,开化监测大楼,#00E400,26,优,优,优,330800,#00E400,118.4108,#00E400,6,优,0.3,优,#00E400,#00E400,330824002,优,#00E400,衢州市,#00E400,优,14,4,#00E400,9,2026-05-15 18:00:00
13,良,330382,86,28.1209,优,--,11,9,101,优,#00E400,#00E400,5,乐成,#FFFF00,27,优,优,优,330300,#00E400,120.9659,#00E400,11,优,0.4,优,#00E400,#00E400,330382001,优,#00E400,温州市,#00E400,优,19,7,#00E400,14,2026-05-15 18:00:00
14,优,330324,84,28.044335,优,--,18,25,100,优,#00E400,#00E400,6,瓯北,#00E400,27,优,优,优,330300,#00E400,120.654963,#00E400,9,优,0.5,优,#00E400,#00E400,330324002,优,#00E400,温州市,#00E400,优,20,10,#00E400,14,2026-05-15 18:00:00
15,优,330383,85,27.5812,优,--,13,8,93,优,#00E400,#00E400,8,龙港,#00E400,27,优,优,优,330300,#00E400,120.5489,#00E400,9,优,0.4,优,#00E400,#00E400,330327002,优,#00E400,温州市,#00E400,优,17,7,#00E400,14,2026-05-15 18:00:00
16,良,330881,84,28.7465,优,--,12,6,101,优,#00E400,#00E400,4,江山环保大楼,#FFFF00,27,优,优,优,330800,#00E400,118.6301,#00E400,5,优,0.5,优,#00E400,#00E400,330881001,优,#00E400,衢州市,#00E400,优,10,6,#00E400,14,2026-05-15 18:00:00
17,优,330921,84,30.2669,优,--,26,24,93,优,#00E400,#00E400,5,岱山环保大楼,#00E400,27,优,优,优,330900,#00E400,122.2199,#00E400,13,优,0.4,优,#00E400,#00E400,330921001,优,#00E400,舟山市,#00E400,优,21,15,#00E400,14,2026-05-15 18:00:00
18,优,331023,85,29.1504,优,--,18,8,98,优,#00E400,#00E400,5,育青中学,#00E400,27,优,优,优,331000,#00E400,121.0091,#00E400,14,优,0.4,优,#00E400,#00E400,331023001,优,#00E400,台州市,#00E400,优,21,13,#00E400,14,2026-05-15 18:00:00
19,优,331023,84,29.1342,优,--,17,8,97,优,#00E400,#00E400,5,天台实验中学,#00E400,27,优,优,优,331000,#00E400,121.0349,#00E400,6,优,0.4,优,#00E400,#00E400,331023002,优,#00E400,台州市,#00E400,优,18,9,#00E400,14,2026-05-15 18:00:00
20,优,331082,86,28.873,优,--,19,12,98,优,#00E400,#00E400,6,临海环保大楼,#00E400,27,优,优,优,331000,#00E400,121.1769,#00E400,8,优,0.4,优,#00E400,#00E400,331082001,优,#00E400,台州市,#00E400,优,16,11,#00E400,14,2026-05-15 18:00:00
21,优,331022,85,29.1028,优,--,18,8,93,优,#00E400,#00E400,6,心湖站,#00E400,27,优,优,优,331000,#00E400,121.3918,#00E400,12,优,0.3,优,#00E400,#00E400,331022002,优,#00E400,台州市,#00E400,优,21,12,#00E400,14,2026-05-15 18:00:00
22,优,331022,86,29.11779,优,--,19,8,94,优,#00E400,#00E400,6,三门环监楼,#00E400,27,优,优,优,331000,#00E400,121.382189,#00E400,10,优,0.4,优,#00E400,#00E400,331022001,优,#00E400,台州市,#00E400,优,16,13,#00E400,14,2026-05-15 18:00:00
23,优,330782,86,29.3686,优,--,21,14,91,优,#00E400,#00E400,7,第五中学,#00E400,27,优,优,优,330700,#00E400,120.1345,#00E400,10,优,0.5,优,#00E400,#00E400,330782003,优,#00E400,金华市,#00E400,优,19,10,#00E400,14,2026-05-15 18:00:00
24,优,330723,89,28.896108,优,--,23,15,90,优,#00E400,#00E400,9,武义县政府,#00E400,28,优,优,优,330700,#00E400,119.811352,#00E400,10,优,0.5,优,#00E400,#00E400,330723001,优,#00E400,金华市,#00E400,优,21,12,#00E400,25,2026-05-15 18:00:00
25,优,330784,87,28.90016,优,--,21,4,84,优,#00E400,#00E400,7,西城供电所,#00E400,28,优,优,优,330700,#00E400,120.01452,#00E400,7,优,0.4,优,#00E400,#00E400,330784002,优,#00E400,金华市,#00E400,优,21,11,#00E400,25,2026-05-15 18:00:00
26,优,331083,88,28.12715,优,--,14,5,98,优,#00E400,#00E400,9,玉环环监站,#00E400,28,优,优,优,331000,#00E400,121.2339,#00E400,9,优,0.7,优,#00E400,#00E400,331021001,优,#00E400,台州市,#00E400,优,21,8,#00E400,25,2026-05-15 18:00:00
27,优,331123,87,28.5839,优,--,8,5,90,优,#00E400,#00E400,7,遂昌中学,#00E400,28,优,优,优,331100,#00E400,119.2656,#00E400,6,优,0.4,优,#00E400,#00E400,331123002,优,#00E400,丽水市,#00E400,优,9,6,#00E400,25,2026-05-15 18:00:00
28,优,331127,87,27.9772,优,--,8,9,88,优,#00E400,#00E400,2,景宁县政府,#00E400,28,优,优,优,331100,#00E400,119.6311,#00E400,6,优,0.5,优,#00E400,--,331127002,--,#00E400,丽水市,#00E400,优,24,--,#00E400,25,2026-05-15 18:00:00
29,良,330213,90,29.6506,优,--,20,9,109,优,#00E400,#00E400,10,奉化教育局,#FFFF00,29,优,优,优,330200,#00E400,121.4042,#00E400,12,优,0.4,优,#00E400,#00E400,330283005,优,#00E400,宁波市,#00E400,优,21,12,#00E400,30,2026-05-15 18:00:00
30,良,330213,92,29.6774,优,--,22,7,108,优,#00E400,#00E400,6,大桥市场,#FFFF00,29,优,优,优,330200,#00E400,121.4237,#00E400,11,优,0.4,优,#00E400,#00E400,330213001,优,#00E400,宁波市,#00E400,优,19,13,#00E400,30,2026-05-15 18:00:00
31,良,330305,91,27.8342,优,--,15,6,101,优,#00E400,#00E400,6,洞头气象局,#FFFF00,29,优,优,优,330300,#00E400,121.1502,#00E400,13,优,0.4,优,#00E400,#00E400,330305001,优,#00E400,温州市,#00E400,优,20,8,#00E400,30,2026-05-15 18:00:00
32,良,330382,90,28.0297,优,--,14,10,102,优,#00E400,#00E400,4,柳市,#FFFF00,29,优,优,优,330300,#00E400,120.891,#00E400,9,优,0.4,优,#00E400,#00E400,330382002,优,#00E400,温州市,#00E400,优,18,8,#00E400,30,2026-05-15 18:00:00
33,优,330624,90,29.4938,优,--,21,8,98,优,#00E400,#00E400,5,城东站,#00E400,29,优,优,优,330600,#00E400,120.9109,#00E400,12,优,0.5,优,#00E400,#00E400,330624002,优,#00E400,绍兴市,#00E400,优,22,10,#00E400,30,2026-05-15 18:00:00
34,优,330781,90,29.216166,优,--,10,11,96,优,#00E400,#00E400,7,兰溪监测站,#00E400,29,优,优,优,330700,#00E400,119.459992,#00E400,9,优,0.5,优,#00E400,#00E400,330781001,优,#00E400,金华市,#00E400,优,19,4,#00E400,30,2026-05-15 18:00:00
35,优,330783,90,29.27739,优,--,14,8,91,优,#00E400,#00E400,5,东阳环保大楼,#00E400,29,优,优,优,330700,#00E400,120.23692,#00E400,9,优,0.5,优,#00E400,#00E400,330783002,优,#00E400,金华市,#00E400,优,16,9,#00E400,30,2026-05-15 18:00:00
36,优,330784,91,28.8854,优,--,18,7,89,优,#00E400,#00E400,7,永康一中,#00E400,29,优,优,优,330700,#00E400,120.0439,#00E400,6,优,0.5,优,#00E400,#00E400,330784001,优,#00E400,金华市,#00E400,优,15,10,#00E400,30,2026-05-15 18:00:00
37,优,330822,91,28.901,优,--,10,10,100,优,#00E400,#00E400,4,常山环保大楼,#00E400,29,优,优,优,330800,#00E400,118.5196,#00E400,4,优,0.5,优,#00E400,#00E400,330822001,优,#00E400,衢州市,#00E400,优,11,3,#00E400,30,2026-05-15 18:00:00
38,优,330822,92,28.9012,优,--,13,9,100,优,#00E400,#00E400,5,图书馆大楼,#00E400,29,优,优,优,330800,#00E400,118.5062,#00E400,3,优,0.1,优,#00E400,#00E400,330822002,优,#00E400,衢州市,#00E400,优,18,2,#00E400,30,2026-05-15 18:00:00
39,良,330881,90,28.7282,优,--,16,10,103,优,#00E400,#00E400,6,人民医院,#FFFF00,29,优,优,优,330800,#00E400,118.6227,#00E400,4,优,0.4,优,#00E400,#00E400,330881002,优,#00E400,衢州市,#00E400,优,10,10,#00E400,30,2026-05-15 18:00:00
40,良,331082,90,28.84326,优,--,25,13,103,优,#00E400,#00E400,4,巾山实验小学,#FFFF00,29,优,优,优,331000,#00E400,121.136,#00E400,10,优,0.4,优,#00E400,#00E400,331082002,优,#00E400,台州市,#00E400,优,20,14,#00E400,30,2026-05-15 18:00:00
41,优,331081,92,28.39136,优,--,17,5,99,优,#00E400,#00E400,3,之江高级中学,#00E400,29,优,优,优,331000,#00E400,121.37696,#00E400,10,优,0.3,优,#00E400,#00E400,331081002,优,#00E400,台州市,#00E400,优,14,13,#00E400,30,2026-05-15 18:00:00
42,优,331126,91,27.629585,优,--,4,5,87,优,#00E400,#00E400,8,庆元监测楼,#00E400,29,优,优,优,331100,#00E400,119.054809,#00E400,4,优,0.4,优,#00E400,#00E400,331126001,优,#00E400,丽水市,#00E400,优,8,3,#00E400,30,2026-05-15 18:00:00
43,优,330723,90,28.9178,优,--,16,14,92,优,#00E400,#00E400,8,武义北岭幼儿园,#00E400,29,优,优,优,330700,#00E400,119.8022,#00E400,7,优,0.5,优,#00E400,#00E400,330723003,优,#00E400,金华市,#00E400,优,15,10,#00E400,30,2026-05-15 18:00:00
44,良,330225,95,29.4767,优,--,21,10,106,优,#00E400,#00E400,9,文峰小学,#FFFF00,30,优,优,优,330200,#00E400,121.8864,#00E400,17,优,0.4,优,#00E400,#00E400,330225001,优,#00E400,宁波市,#00E400,优,25,11,#00E400,45,2026-05-15 18:00:00
45,优,330329,94,27.5438,优,--,3,7,96,优,#00E400,#00E400,6,泰顺实验中学,#00E400,30,优,优,优,330300,#00E400,119.716111,#00E400,11,优,0.3,优,#00E400,--,330329002,--,#00E400,温州市,#00E400,优,14,--,#00E400,45,2026-05-15 18:00:00
46,良,330683,94,29.5901,优,--,--,9,105,优,#00E400,#00E400,5,马寅初初中,#FFFF00,30,优,优,--,330600,#00E400,120.8249,#00E400,10,优,0.4,优,#00E400,#00E400,330683001,优,#00E400,绍兴市,#00E400,优,26,12,--,45,2026-05-15 18:00:00
47,良,330624,95,29.5036,优,--,19,9,105,优,#00E400,#00E400,5,钟楼站,#FFFF00,30,优,优,优,330600,#00E400,120.8938,#00E400,12,优,0.4,优,#00E400,#00E400,330624001,优,#00E400,绍兴市,#00E400,优,21,10,#00E400,45,2026-05-15 18:00:00
48,优,330726,96,29.465746,优,--,18,15,95,优,#00E400,#00E400,6,浦江实验中学,#00E400,30,优,优,优,330700,#00E400,119.875227,#00E400,13,优,0.5,优,#00E400,#00E400,330726001,优,#00E400,金华市,#00E400,优,26,9,#00E400,45,2026-05-15 18:00:00
49,优,330726,94,29.439787,优,--,21,12,89,优,#00E400,#00E400,3,浦江中学,#00E400,30,优,优,优,330700,#00E400,119.924638,#00E400,10,优,0.3,优,#00E400,#00E400,330726002,优,#00E400,金华市,#00E400,优,15,10,#00E400,45,2026-05-15 18:00:00
50,优,330782,93,29.305096,优,--,16,12,97,优,#00E400,#00E400,6,江东,#00E400,30,优,优,优,330700,#00E400,120.090442,#00E400,9,优,0.5,优,#00E400,#00E400,330782002,优,#00E400,金华市,#00E400,优,17,9,#00E400,45,2026-05-15 18:00:00
51,优,330783,93,29.30093,优,--,18,12,98,优,#00E400,#00E400,6,广厦学院,#00E400,30,优,优,优,330700,#00E400,120.24157,#00E400,12,优,0.5,优,#00E400,#00E400,330783001,优,#00E400,金华市,#00E400,优,21,12,#00E400,45,2026-05-15 18:00:00
52,良,330921,96,30.2517,优,--,26,7,103,优,#00E400,#00E400,7,岱山高亭,#FFFF00,30,优,优,优,330900,#00E400,122.1958,#00E400,13,优,0.5,优,#00E400,#00E400,330921002,优,#00E400,舟山市,#00E400,优,22,13,#00E400,45,2026-05-15 18:00:00
53,良,331083,94,28.2221,优,--,15,8,102,优,#00E400,#00E400,6,楚门中心小学,#FFFF00,30,优,优,优,331000,#00E400,121.2846,#00E400,10,优,0.6,优,#00E400,#00E400,331021002,优,#00E400,台州市,#00E400,优,22,10,#00E400,45,2026-05-15 18:00:00
54,优,331024,94,28.8589,优,--,20,13,95,优,#00E400,#00E400,8,仙居环监站,#00E400,30,优,优,优,331000,#00E400,120.7248,#00E400,13,优,0.5,优,#00E400,#00E400,331024001,优,#00E400,台州市,#00E400,优,24,11,#00E400,45,2026-05-15 18:00:00
55,优,331024,94,28.7403,优,--,16,8,93,优,#00E400,#00E400,6,新生中学,#00E400,30,优,优,优,331000,#00E400,120.4728,#00E400,11,优,0.4,优,#00E400,#00E400,331024002,优,#00E400,台州市,#00E400,优,17,10,#00E400,45,2026-05-15 18:00:00
56,优,331122,95,28.6628,优,--,13,14,97,优,#00E400,#00E400,7,信访大楼,#00E400,30,优,优,优,331100,#00E400,120.0856,#00E400,12,优,0.5,优,#00E400,#00E400,331122002,优,#00E400,丽水市,#00E400,优,26,8,#00E400,45,2026-05-15 18:00:00
57,优,331125,93,28.1173,优,--,5,10,89,优,#00E400,#00E400,6,云和监测楼,#00E400,30,优,优,优,331100,#00E400,119.5626,#00E400,8,优,0.4,优,#00E400,#00E400,331125001,优,#00E400,丽水市,#00E400,优,10,3,#00E400,45,2026-05-15 18:00:00
58,优,331181,93,28.076,优,--,5,9,89,优,#00E400,#00E400,8,粮食大楼,#00E400,30,优,优,优,331100,#00E400,119.1217,#00E400,4,优,0.4,优,#00E400,--,331181002,--,#00E400,丽水市,#00E400,优,14,--,#00E400,45,2026-05-15 18:00:00
59,良,330803,97,28.9844,优,--,13,8,103,优,#00E400,#00E400,5,衢州三中（市）,#FFFF00,31,优,优,优,330800,#00E400,118.9628,#00E400,3,优,0.4,优,#00E400,#00E400,330803704,优,#00E400,衢州市,#00E400,优,8,8,#00E400,60,2026-05-15 18:00:00
60,良,330122,98,29.7955,优,--,20,19,102,优,#00E400,#00E400,6,桐庐江南,#FFFF00,31,优,优,优,330100,#00E400,119.6874,#00E400,16,优,0.4,优,#00E400,#00E400,330122001,优,#00E400,杭州市,#00E400,优,26,11,#00E400,60,2026-05-15 18:00:00
61,优,330182,84,29.4769,优,--,18,12,86,优,#00E400,#00E400,7,建德监测大楼,#00E400,31,优,优,优,330100,#00E400,119.2711,#00E400,15,优,0.6,优,#00E400,#00E400,330182T_2,优,#00E400,杭州市,#00E400,优,31,9,#00E400,60,2026-05-15 18:00:00
62,良,330213,97,29.693,优,--,21,7,110,优,#00E400,#00E400,7,溪口政府大楼,#FFFF00,31,优,优,优,330200,#00E400,121.2774,#00E400,12,优,0.3,优,#00E400,#00E400,330283T_1,优,#00E400,宁波市,#00E400,优,20,12,#00E400,60,2026-05-15 18:00:00
63,优,330226,97,29.3125,优,--,23,7,95,优,#00E400,#00E400,6,宁海水利局,#00E400,31,优,优,优,330200,#00E400,121.4306,#00E400,8,优,0.4,优,#00E400,#00E400,330226001,优,#00E400,宁波市,#00E400,优,16,14,#00E400,60,2026-05-15 18:00:00
64,优,330226,97,29.2878,优,--,22,6,98,优,#00E400,#00E400,7,宁海城南站,#00E400,31,优,优,优,330200,#00E400,121.4201,#00E400,10,优,0.3,优,#00E400,#00E400,330226002,优,#00E400,宁波市,#00E400,优,18,13,#00E400,60,2026-05-15 18:00:00
65,优,330782,99,29.335473,优,--,18,9,98,优,#00E400,#00E400,4,北苑,#00E400,31,优,优,优,330700,#00E400,120.078609,#00E400,9,优,0.4,优,#00E400,#00E400,330782001,优,#00E400,金华市,#00E400,优,18,11,#00E400,60,2026-05-15 18:00:00
66,优,330825,98,29.0464,优,--,15,7,97,优,#00E400,#00E400,5,龙游二高,#00E400,31,优,优,优,330800,#00E400,119.204,#00E400,7,优,0.2,优,#00E400,#00E400,330825002,优,#00E400,衢州市,#00E400,优,17,9,#00E400,60,2026-05-15 18:00:00
67,优,331121,99,28.1094,优,--,16,22,96,优,#00E400,#00E400,8,青田中学,#00E400,31,优,优,优,331100,#00E400,120.3161,#00E400,14,优,0.4,优,#00E400,#00E400,331121002,优,#00E400,丽水市,#00E400,优,28,11,#00E400,60,2026-05-15 18:00:00
68,优,331124,98,28.4505,优,--,3,10,96,优,#00E400,#00E400,4,松阳监测楼,#00E400,31,优,优,优,331100,#00E400,119.4799,#00E400,6,优,0.4,优,#00E400,#00E400,331124001,优,#00E400,丽水市,#00E400,优,11,3,#00E400,60,2026-05-15 18:00:00
69,优,331126,97,27.6211,优,--,2,3,91,优,#00E400,#00E400,4,庆元气象局,#00E400,31,优,优,优,331100,#00E400,119.0788,#00E400,2,优,0.4,优,#00E400,#00E400,331126002,优,#00E400,丽水市,#00E400,优,2,2,#00E400,60,2026-05-15 18:00:00
70,优,331181,99,28.08007,优,--,4,4,92,优,#00E400,#00E400,8,龙泉环保大楼,#00E400,31,优,优,优,331100,#00E400,119.1328,#00E400,5,优,0.3,优,#00E400,--,331181001,--,#00E400,丽水市,#00E400,优,9,--,#00E400,60,2026-05-15 18:00:00
71,良,330383,97,27.5617,优,--,11,8,108,优,#00E400,#00E400,5,龙港实验中学,#FFFF00,31,优,优,优,330300,#00E400,120.5355,#00E400,9,优,0.4,优,#00E400,#00E400,330303101,优,#00E400,温州市,#00E400,优,19,6,#00E400,60,2026-05-15 18:00:00
72,良,330282,101,30.1636,优,--,29,11,122,优,#00E400,#00E400,6,慈溪环保大楼,#FFFF00,32,优,优,优,330200,#00E400,121.2677,#00E400,9,优,0.4,优,#00E400,#00E400,330282001,优,#00E400,宁波市,#00E400,优,14,17,#00E400,73,2026-05-15 18:00:00
73,良,330329,101,27.557,优,--,9,15,104,优,#00E400,#00E400,6,罗阳,#FFFF00,32,优,优,优,330300,#00E400,119.7084,#00E400,20,优,0.5,优,#00E400,#00E400,330329001,优,#00E400,温州市,#00E400,优,29,4,#00E400,73,2026-05-15 18:00:00
74,良,330683,101,29.5663,优,--,18,12,108,优,#00E400,#00E400,5,丽湖小区,#FFFF00,32,优,优,优,330600,#00E400,120.8173,#00E400,9,优,0.5,优,#00E400,#00E400,330683002,优,#00E400,绍兴市,#00E400,优,18,9,#00E400,73,2026-05-15 18:00:00
75,优,330182,86,29.4638,优,--,19,37,94,优,#00E400,#00E400,4,第二中学,#00E400,33,优,优,优,330100,#00E400,119.2821,#00E400,13,优,0.5,优,#00E400,#00E400,330182002,优,#00E400,杭州市,#00E400,优,33,10,#00E400,76,2026-05-15 18:00:00
76,良,330281,103,30.0497,优,--,23,13,122,优,#00E400,#00E400,6,龙山公园,#FFFF00,33,优,优,优,330200,#00E400,121.1475,#00E400,13,优,0.4,优,#00E400,#00E400,330281001,优,#00E400,宁波市,#00E400,优,20,16,#00E400,76,2026-05-15 18:00:00
77,良,330281,105,30.0358,优,--,22,14,124,优,#00E400,#00E400,5,姚江小学,#FFFF00,33,优,优,优,330200,#00E400,121.1221,#00E400,14,优,0.4,优,#00E400,#00E400,330281002,优,#00E400,宁波市,#00E400,优,22,14,#00E400,76,2026-05-15 18:00:00
78,良,330282,104,30.1786,优,--,31,10,128,优,#00E400,#00E400,5,慈溪实验小学,#FFFF00,33,优,优,优,330200,#00E400,121.2525,#00E400,10,优,0.5,优,#00E400,#00E400,330282002,优,#00E400,宁波市,#00E400,优,16,17,#00E400,76,2026-05-15 18:00:00
79,良,330681,103,29.726389,优,--,18,7,102,优,#00E400,#00E400,6,青少年宫,#FFFF00,33,优,优,优,330600,#00E400,120.199722,#00E400,10,优,0.4,优,#00E400,#00E400,330681002,优,#00E400,绍兴市,#00E400,优,18,11,#00E400,76,2026-05-15 18:00:00
80,优,331125,105,28.1062,优,--,10,6,96,优,#00E400,#00E400,6,云和三中,#00E400,33,优,优,优,331100,#00E400,119.5728,#00E400,6,优,0.3,优,#00E400,#00E400,331125002,优,#00E400,丽水市,#00E400,优,12,3,#00E400,76,2026-05-15 18:00:00
81,良,330212,103,29.7736,优,--,17,9,111,优,#00E400,#00E400,4,钱湖水厂,#FFFF00,33,优,优,优,330200,#00E400,121.6330,#00E400,13,优,0.4,优,#00E400,#00E400,2013302120001,优,#00E400,宁波市,#00E400,优,17,11,#00E400,76,2026-05-15 18:00:00
82,良,330681,106,29.7257,优,--,19,6,109,优,#00E400,#00E400,6,城新小学,#FFFF00,34,优,优,优,330600,#00E400,120.272,#00E400,15,优,0.3,优,#00E400,#00E400,330681505,优,#00E400,绍兴市,#00E400,优,18,11,#00E400,83,2026-05-15 18:00:00
83,优,331124,106,28.4516,优,--,6,9,100,优,#00E400,#00E400,6,和平水厂,#00E400,34,优,优,优,331100,#00E400,119.4699,#00E400,5,优,0.3,优,#00E400,#00E400,331124002,优,#00E400,丽水市,#00E400,优,10,2,#00E400,83,2026-05-15 18:00:00
84,良,330782,107,29.2637,优,--,19,6,103,优,#00E400,#00E400,3,儿童公园,#FFFF00,34,优,优,优,330700,#00E400,120.0321,#00E400,9,优,0.3,优,#00E400,#00E400,330782004,优,#00E400,金华市,#00E400,优,18,9,#00E400,83,2026-05-15 18:00:00
85,优,330328,43,27.7838,优,--,7,25,90,优,#00E400,#00E400,9,大峃,#00E400,35,优,优,优,330300,#00E400,120.085,#00E400,19,优,0.3,优,#00E400,#00E400,330328001,优,#00E400,温州市,#00E400,优,35,4,#00E400,86,2026-05-15 18:00:00
86,良,330482,112,30.7292,优,--,23,9,121,优,#00E400,#00E400,9,陆家桥村,#FFFF00,35,优,优,优,330400,#00E400,120.9953,#00E400,19,优,0.5,优,#00E400,#00E400,330482002,优,#00E400,嘉兴市,#00E400,优,29,15,#00E400,86,2026-05-15 18:00:00
87,良,330421,111,30.836,优,--,28,9,121,优,#00E400,#00E400,5,嘉善监测大楼,#FFFF00,35,优,优,优,330400,#00E400,120.9226,#00E400,15,优,0.3,优,#00E400,#00E400,330421001,优,#00E400,嘉兴市,#00E400,优,27,16,#00E400,86,2026-05-15 18:00:00
88,良,330727,110,29.051486,优,--,13,9,112,优,#00E400,#00E400,8,国税大楼,#FFFF00,35,优,优,优,330700,#00E400,120.438346,#00E400,12,优,0.5,优,#00E400,#00E400,330727002,优,#00E400,金华市,#00E400,优,12,6,#00E400,86,2026-05-15 18:00:00
89,良,330727,109,29.039869,优,--,13,5,112,优,#00E400,#00E400,6,南园初中,#FFFF00,35,优,优,优,330700,#00E400,120.440622,#00E400,13,优,0.4,优,#00E400,#00E400,330727003,优,#00E400,金华市,#00E400,优,19,7,#00E400,86,2026-05-15 18:00:00
90,良,330825,111,29.0392,优,--,12,11,111,优,#00E400,#00E400,5,建设大楼,#FFFF00,35,优,优,优,330800,#00E400,119.1675,#00E400,6,优,0.2,优,#00E400,#00E400,330825001,优,#00E400,衢州市,#00E400,优,13,7,#00E400,86,2026-05-15 18:00:00
91,良,331121,109,28.1341,优,--,17,10,107,优,#00E400,#00E400,9,塔山小学,#FFFF00,35,优,优,优,331100,#00E400,120.2936,#00E400,14,优,0.4,优,#00E400,#00E400,331121001,优,#00E400,丽水市,#00E400,优,29,9,#00E400,86,2026-05-15 18:00:00
92,良,331122,111,28.6574,优,--,11,18,106,优,#00E400,#00E400,7,缙云中学,#FFFF00,35,优,优,优,331100,#00E400,120.0696,#00E400,11,优,0.5,优,#00E400,#00E400,331122001,优,#00E400,丽水市,#00E400,优,18,5,#00E400,86,2026-05-15 18:00:00
93,良,330110,110,30.2635,优,--,25,13,121,优,#00E400,#00E400,7,海辰小学,#FFFF00,35,优,优,优,330100,#00E400,119.9842,#00E400,10,优,0.5,优,#00E400,#00E400,2013301100001,优,#00E400,杭州市,#00E400,优,20,15,#00E400,86,2026-05-15 18:00:00
94,良,330122,113,29.8058,优,--,21,12,112,优,#00E400,#00E400,4,桐庐江北,#FFFF00,36,优,优,优,330100,#00E400,119.669,#00E400,11,优,0.6,优,#00E400,#00E400,330122002,优,#00E400,杭州市,#00E400,优,24,9,#00E400,95,2026-05-15 18:00:00
95,良,330225,113,29.2003,优,--,22,13,116,优,#00E400,#00E400,7,石浦新港小学,#FFFF00,36,优,优,优,330200,#00E400,121.934,#00E400,21,优,0.4,优,#00E400,#00E400,330225002,优,#00E400,宁波市,#00E400,优,31,12,#00E400,95,2026-05-15 18:00:00
96,良,330482,113,30.6937,优,--,25,11,124,优,#00E400,#00E400,8,平湖幼儿园,#FFFF00,36,优,优,优,330400,#00E400,121.0259,#00E400,19,优,0.3,优,#00E400,#00E400,330482001,优,#00E400,嘉兴市,#00E400,优,33,14,#00E400,95,2026-05-15 18:00:00
97,良,330481,115,30.5137,优,--,26,5,124,优,#00E400,#00E400,8,硖石街道,#FFFF00,36,优,优,优,330400,#00E400,120.7082,#00E400,20,优,0.4,优,#00E400,#00E400,330481002,优,#00E400,嘉兴市,#00E400,优,31,15,#00E400,95,2026-05-15 18:00:00
98,良,330421,121,30.8307,优,--,22,9,132,优,#00E400,#00E400,9,气象观测台,#FFFF00,38,优,优,优,330400,#00E400,120.9356,#00E400,11,优,0.4,优,#00E400,#00E400,330421002,优,#00E400,嘉兴市,#00E400,优,28,13,#00E400,99,2026-05-15 18:00:00
99,良,330483,121,30.6488,优,--,30,14,134,优,#00E400,#00E400,6,茅盾小学,#FFFF00,38,优,优,优,330400,#00E400,120.5498,#00E400,13,优,0.3,优,#00E400,#00E400,330483001,优,#00E400,嘉兴市,#00E400,优,37,14,#00E400,99,2026-05-15 18:00:00
100,良,330483,119,30.625,优,--,33,15,134,优,#00E400,#00E400,6,振东新六中站,#FFFF00,38,优,优,优,330400,#00E400,120.5613,#00E400,15,优,0.4,优,#00E400,#00E400,330483002,优,#00E400,嘉兴市,#00E400,优,31,15,#00E400,99,2026-05-15 18:00:00
101,良,330481,124,30.5261,优,--,30,7,133,优,#00E400,#00E400,7,海宁监测大楼,#FFFF00,39,优,优,优,330400,#00E400,120.6739,#00E400,20,优,0.2,优,#00E400,#00E400,330481001,优,#00E400,嘉兴市,#00E400,优,31,15,#00E400,102,2026-05-15 18:00:00
102,良,330521,123,30.5231,优,--,28,10,131,优,#00E400,#00E400,7,地信科创园,#FFFF00,39,优,优,优,330500,#00E400,119.9781,#00E400,10,优,0.4,优,#00E400,#00E400,330521001,优,#00E400,湖州市,#00E400,优,23,18,#00E400,102,2026-05-15 18:00:00
103,良,330483,124,30.6355,优,--,26,6,138,优,#00E400,#00E400,10,文化中心,#FFFF00,39,优,优,优,330400,#00E400,120.5795,#00E400,14,优,0.5,优,#00E400,#00E400,330483003,优,#00E400,嘉兴市,#00E400,优,27,15,#00E400,102,2026-05-15 18:00:00
104,良,330424,110,30.5042,优,--,25,11,119,优,#00E400,#00E400,8,高级中学,#FFFF00,40,优,优,优,330400,#00E400,120.9413,#00E400,23,优,0.3,优,#00E400,#00E400,330424001,优,#00E400,嘉兴市,#00E400,优,40,14,#00E400,105,2026-05-15 18:00:00
105,良,330481,127,30.5524,优,--,30,9,142,优,#00E400,#00E400,7,胜利社区,#FFFF00,40,优,优,优,330400,#00E400,120.6713,#00E400,17,优,0.4,优,#00E400,#00E400,330481003,优,#00E400,嘉兴市,#00E400,优,31,15,#00E400,105,2026-05-15 18:00:00
106,良,330521,130,30.548493,优,--,31,10,139,优,#00E400,#00E400,7,春晖小学,#FFFF00,41,优,优,优,330500,#00E400,119.9505,#00E400,15,优,0.5,优,#00E400,#00E400,330521003,优,#00E400,湖州市,#00E400,优,31,18,#00E400,107,2026-05-15 18:00:00
107,良,330424,118,30.5299,优,--,22,11,120,优,#00E400,#00E400,5,海盐商贸学校,#FFFF00,42,优,优,优,330400,#00E400,120.9293,#00E400,26,优,0.3,优,#00E400,#00E400,330424002,优,#00E400,嘉兴市,#00E400,优,42,13,#00E400,108,2026-05-15 18:00:00
108,良,330523,137,30.5974,优,--,18,8,133,优,#00E400,#00E400,5,安吉城东,#FFFF00,43,优,优,优,330500,#00E400,119.6953,#00E400,11,优,0.3,优,#00E400,#00E400,330523002,优,#00E400,湖州市,#00E400,优,17,12,#00E400,109,2026-05-15 18:00:00
109,良,330523,139,30.6422,优,--,24,11,136,优,#00E400,#00E400,7,安吉实验小学,#FFFF00,44,优,优,优,330500,#00E400,119.6768,#00E400,16,优,0.3,优,#00E400,#00E400,330523001,优,#00E400,湖州市,#00E400,优,37,16,#00E400,110,2026-05-15 18:00:00
110,良,330483,144,30.7369,优,--,26,14,155,优,#00E400,#00E400,9,植材小学,#FFFF00,45,优,优,优,330400,#00E400,120.4902,#00E400,19,优,0.5,优,#00E400,#00E400,330483509,优,#00E400,嘉兴市,#00E400,优,35,14,#00E400,111,2026-05-15 18:00:00
111,良,330522,155,31.0143,优,--,32,15,147,优,#00E400,#00E400,4,职教中心,#FFFF00,49,优,优,优,330500,#00E400,119.8935,#00E400,16,优,0.3,优,#00E400,#00E400,330522001,优,#00E400,湖州市,#00E400,优,33,15,#00E400,112,2026-05-15 18:00:00
112,优,330381,77,27.791645,优,PM₁₀,16,11,84,优,#FFFF00,#00E400,6,花园桥,#00E400,52,优,良,优,330300,#00E400,120.62372,#00E400,13,良,0.4,优,#00E400,#00E400,330381001,优,#FFFF00,温州市,#00E400,优,52,8,#00E400,113,2026-05-15 18:00:00
113,优,330127,82,29.605,优,--,12,8,84,优,#00E400,#00E400,--,老年活动中心,#00E400,--,优,--,优,330100,--,119.0372,#00E400,13,优,0.6,优,#00E400,#00E400,330127T_4,优,--,杭州市,#00E400,--,19,8,#00E400,114,2026-05-15 18:00:00
114,优,330326,83,27.6593,优,--,9,5,89,优,#00E400,#00E400,--,平阳监测站,#00E400,--,优,--,优,330300,--,120.5705,#00E400,11,优,0.5,优,#00E400,#00E400,330326001,优,--,温州市,#00E400,--,18,7,#00E400,114,2026-05-15 18:00:00
115,良,330522,143,31.0263,--,--,20,12,136,优,#00E400,#00E400,5,龙山新区,#FFFF00,--,优,--,优,330500,#00E400,119.9046,#00E400,17,优,--,优,--,#00E400,330522002,优,--,湖州市,#00E400,优,27,11,#00E400,114,2026-05-15 18:00:00
116,优,330681,95,29.6818,优,--,17,4,94,优,#00E400,--,7,杨树畈,#00E400,--,优,--,优,330600,#00E400,120.2359,#00E400,--,优,0.4,--,#00E400,--,330681001,--,--,绍兴市,#00E400,优,22,--,#00E400,114,2026-05-15 18:00:00
117,优,331123,97,28.5991,优,--,8,4,97,优,#00E400,#00E400,--,遂昌民政局,#00E400,--,优,--,优,331100,--,119.2622,#00E400,6,优,0.4,优,#00E400,#00E400,331123001,优,--,丽水市,#00E400,--,12,3,#00E400,114,2026-05-15 18:00:00
