timepoint,stationcode,longitude,latitude,area,positionname,primarypollutant,aqi,pm10,pm10_24h,pm2_5,pm2_5_24h,o3,o3_24h,o3_8h,o3_8h_24h,no2,no2_24h,so2,so2_24h,co,co_24h
2026-06-17T1900,2568A,102.2503,31.8896,阿坝藏族羌族自治州,马师校,,26,26,19,9,7,52,52,73,73,10,5,3,3,0.3,0.3
2026-06-17T1900,3994A,102.2174,31.9016,阿坝藏族羌族自治州,马尔康中学西区,,22,15,22,9,7,69,69,78,78,9,6,2,2,0.3,0.3
2026-06-17T1900,2695A,80.2899,41.1684,阿克苏地区,电视台,,42,30,47,22,26,133,133,127,127,2,6,3,3,0.5,0.6
2026-06-17T1900,2696A,80.2592,41.1541,阿克苏地区,艺术中心,,47,31,54,22,18,148,148,135,135,7,10,4,4,0.6,0.7
2026-06-17T1900,2205A,105.699,38.8409,阿拉善盟,蒙二幼,,45,33,34,7,10,142,142,141,141,8,7,10,10,0.4,0.5
2026-06-17T1900,2206A,105.7198,38.8508,阿拉善盟,环保局新楼,,44,28,31,3,9,138,138,133,133,7,5,12,12,0.5,0.4
2026-06-17T1900,2708A,88.1266,47.8515,阿勒泰地区,市站,,39,17,23,3,3,122,122,116,116,12,9,7,7,0.1,0.1
2026-06-17T1900,4166A,88.1198,47.7931,阿勒泰地区,阿勒泰路33号,,37,14,25,3,6,118,118,114,114,4,7,6,6,0.3,0.3
2026-06-17T1900,2630A,80.1171,32.4999,阿里地区,阿里监测站,臭氧1小时(O3_1h),58,9,8,3,2,166,166,146,146,2,3,2,2,0.3,0.3
2026-06-17T1900,3192A,80.0906,32.5029,阿里地区,阿里藏医院,臭氧1小时(O3_1h),57,10,8,3,3,165,165,148,148,2,2,5,5,0.2,0.3
2026-06-17T1900,2644A,109.0088,32.6974,安康市,汉滨区检察院,,21,13,36,6,21,67,67,50,50,6,11,5,5,0.4,0.5
2026-06-17T1900,4054A,109.0324,32.6913,安康市,市邮政管理局,,23,12,35,8,23,72,72,60,60,5,13,3,5,0.5,0.6
2026-06-17T1900,2291A,117.0806,30.5181,安庆市,环科院,,41,28,27,3,16,131,131,157,156,5,11,8,10,0.6,0.7
2026-06-17T1900,2292A,117.0331,30.5118,安庆市,马山宾馆,,41,25,25,10,18,130,130,158,158,24,12,10,10,0.7,0.8
2026-06-17T1900,2294A,116.9897,30.6146,安庆市,安庆大学,臭氧1小时(O3_1h),57,30,28,15,17,165,165,181,181,5,9,4,5,0.4,0.4
2026-06-17T1900,3173A,117.0598,30.5351,安庆市,市人大,,50,24,26,9,17,160,160,173,173,10,12,6,6,0.5,0.5
2026-06-17T1900,3123A,105.9408,26.2431,安顺市,凤凰山,,23,NA,19,16,15,43,43,57,43,5,6,8,7,0.5,0.5
2026-06-17T1900,3124A,105.9443,26.2567,安顺市,金钟山,,26,NA,9,18,16,44,44,60,46,3,3,8,7,0.4,0.5
2026-06-17T1900,3125A,105.8983,26.248,安顺市,娄家坡,,32,NA,18,22,15,42,42,59,44,5,4,6,6,0.5,0.4
2026-06-17T1900,1819A,114.3552,36.1017,安阳市,红庙街,臭氧1小时(O3_1h),95,50,39,26,23,196,196,187,187,11,9,3,5,0.3,0.4
2026-06-17T1900,1820A,114.361,36.0681,安阳市,银杏小区,臭氧1小时(O3_1h),99,37,33,27,25,199,199,194,194,4,6,2,4,0.2,0.2
2026-06-17T1900,3141A,114.3921,36.0879,安阳市,信访局,臭氧1小时(O3_1h),102,42,41,27,25,204,204,200,200,12,9,1,2,0.3,0.3
2026-06-17T1900,3669A,114.4706,36.0634,安阳市,左辅环卫站,臭氧1小时(O3_1h),80,43,45,21,24,184,184,181,181,14,17,1,3,0.5,0.5
2026-06-17T1900,4117A,114.2918,36.0769,安阳市,钢三路198号,臭氧1小时(O3_1h),74,34,41,18,22,179,179,179,179,10,11,3,4,0.4,0.5
2026-06-17T1900,1748A,123.0441,41.1201,鞍山市,深沟寺,,50,47,38,35,26,95,95,90,90,12,9,5,5,0.7,0.6
2026-06-17T1900,1749A,123.011,41.0931,鞍山市,太阳城,细颗粒物(PM2.5),72,56,33,46,30,102,102,88,88,12,10,7,8,0.9,0.8
2026-06-17T1900,1750A,123.0483,41.1445,鞍山市,太平,颗粒物(PM10),56,58,43,36,25,106,106,92,92,13,11,4,4,0.9,0.7
2026-06-17T1900,1751A,122.964,41.0968,鞍山市,铁西三道街,细颗粒物(PM2.5),64,60,41,42,28,112,112,94,94,15,14,6,6,0.9,0.8
2026-06-17T1900,1753A,123.0219,41.0822,鞍山市,明达新区,细颗粒物(PM2.5),66,59,37,43,26,108,108,90,90,11,9,6,6,0.7,0.6
2026-06-17T1900,4201A,122.944647,41.082639,鞍山市,兴盛南路290号,细颗粒物(PM2.5),80,59,37,50,31,103,103,89,89,12,12,6,7,0.7,0.7
2026-06-17T1900,2195A,107.4206,40.7609,巴彦淖尔市,附二中,,50,34,27,17,11,159,159,152,152,11,8,14,13,0.5,0.5
2026-06-17T1900,2196A,107.37,40.7372,巴彦淖尔市,市环保大楼,,47,33,32,12,8,149,149,155,155,8,7,10,11,0.6,0.6
2026-06-17T1900,1956A,86.1476,41.7529,巴音郭楞蒙古自治州,孔雀公园,颗粒物(PM10),78,88,153,34,58,113,113,110,110,3,19,5,6,0.1,0.2
2026-06-17T1900,1957A,86.1971,41.7166,巴音郭楞蒙古自治州,棉纺厂,颗粒物(PM10),107,136,196,40,66,117,117,117,117,4,9,/,/,/,/
2026-06-17T1900,1958A,86.236,41.7172,巴音郭楞蒙古自治州,经济开发区,颗粒物(PM10),94,111,146,40,58,102,102,106,106,4,5,2,2,0.1,0.1
2026-06-17T1900,3181A,106.776805,31.852614,巴中市,市五中,,30,28,34,21,27,44,44,51,51,9,15,7,7,0.6,0.7
2026-06-17T1900,3183A,106.7419,31.8654,巴中市,圣泉水务公司,,30,27,33,21,28,46,46,57,57,18,17,8,8,0.9,0.8
2026-06-17T1900,3616A,106.7617,31.8343,巴中市,市中心医院,,30,25,34,21,27,51,51,60,60,13,16,8,7,0.7,0.6
2026-06-17T1900,2235A,122.7909,45.608,白城市,洮北区环保局,NA,NA,NA,23,NA,29,NA,NA,125,125,NA,10,NA,6,NA,0.5
2026-06-17T1900,2236A,122.8741,45.5725,白城市,市环保局,,38,NA,15,18,15,119,119,122,122,9,13,4,4,0.4,0.4
2026-06-17T1900,2231A,126.4219,41.9172,白山市,喜丰,NA,NA,23,50,14,20,51,51,77,77,18,20,NA,10,0.7,0.6
2026-06-17T1900,2232A,126.4082,41.9416,白山市,环保局,,20,15,27,10,18,63,63,79,79,13,9,12,10,0.6,0.6
2026-06-17T1900,2647A,104.1727,36.5448,白银市,第三小学,NA,NA,53,39,16,20,118,118,115,115,NA,10,4,14,0.2,0.3
2026-06-17T1900,2648A,104.1467,36.5482,白银市,动力公司,,36,32,34,14,17,113,113,114,114,8,10,3,6,0.3,0.4
2026-06-17T1900,2512A,106.6102,23.901,百色市,市监测站,,18,18,32,7,12,50,50,81,81,8,12,8,8,0.4,0.5
2026-06-17T1900,2513A,106.6524,23.8842,百色市,市中心血站,,27,27,28,14,16,62,62,83,83,10,12,9,11,0.8,0.2
2026-06-17T1900,4133A,106.6273,23.8798,百色市,龙景西路,,35,35,37,6,14,55,55,89,89,11,14,11,11,0.5,0.6
2026-06-17T1900,2270A,117.396,32.9389,蚌埠市,工人疗养院,,34,24,31,3,16,108,108,118,118,8,18,4,6,0.3,0.4
2026-06-17T1900,2271A,117.3606,32.9428,蚌埠市,百货大楼,,34,22,24,3,16,106,106,122,122,10,17,7,8,0.4,0.5
2026-06-17T1900,2273A,117.4183,32.8909,蚌埠市,蚌埠学院,NA,NA,NA,24,NA,17,92,92,114,113,14,8,6,5,0.3,0.3
2026-06-17T1900,2274A,117.3534,32.9672,蚌埠市,淮上区政府,,35,22,27,3,15,109,109,126,126,9,13,5,6,0.2,0.3
2026-06-17T1900,2275A,117.3143,32.8977,蚌埠市,高新区,,34,17,25,3,15,108,108,124,124,12,13,8,8,0.2,0.3
2026-06-17T1900,3715A,117.3091,32.9314,蚌埠市,蚌埠田家炳中学,,35,31,33,3,14,110,110,126,126,5,10,5,6,0.4,0.4
2026-06-17T1900,1585A,109.8761,40.6533,包头市,市环境监测站,,50,NA,17,13,8,159,159,162,162,24,12,8,8,0.4,0.3
2026-06-17T1900,1587A,109.9992,40.5843,包头市,包头八中,臭氧1小时(O3_1h),52,15,30,10,12,161,161,148,148,11,14,9,16,0.3,0.4
2026-06-17T1900,1589A,109.8641,40.6288,包头市,惠龙物流,臭氧1小时(O3_1h),59,14,17,7,11,167,167,155,155,15,14,9,9,0.2,0.2
2026-06-17T1900,1590A,110.0376,40.5546,包头市,东河鸿龙湾,,49,NA,25,18,11,156,156,151,151,8,13,6,11,0.5,0.5
2026-06-17T1900,3283A,109.9154,40.5684,包头市,滨河大厦,,49,18,20,14,12,155,155,148,148,9,13,7,11,0.4,0.4
2026-06-17T1900,3419A,109.9449,40.6259,包头市,包头市委党校,臭氧1小时(O3_1h),55,NA,12,9,9,164,164,153,153,13,13,8,10,0.6,0.7
2026-06-17T1900,3683A,109.8332,40.6577,包头市,昆区政府,臭氧1小时(O3_1h),52,22,19,18,9,161,161,150,150,16,13,10,7,0.6,0.5
2026-06-17T1900,1931A,107.0802,34.3129,宝鸡市,竹园沟,,30,NA,25,21,22,39,39,81,77,4,6,6,6,0.8,0.7
2026-06-17T1900,1933A,107.1429,34.3549,宝鸡市,监测站,,36,36,36,21,23,49,49,103,98,11,11,5,5,0.3,0.4
2026-06-17T1900,1934A,107.1172,34.3759,宝鸡市,技工学校,,26,19,33,18,25,50,50,115,109,9,8,5,7,0.7,0.7
2026-06-17T1900,1936A,107.2025,34.3518,宝鸡市,文理学院,,48,42,35,33,25,87,87,113,113,20,15,8,8,0.6,0.4
2026-06-17T1900,1937A,107.2396,34.3626,宝鸡市,三迪小学,细颗粒物(PM2.5),84,NA,42,52,29,108,108,128,128,24,16,7,8,0.7,0.6
2026-06-17T1900,4155A,107.1721,34.3558,宝鸡市,滨河北路,NA,NA,36,42,29,27,59,59,103,100,NA,11,6,6,0.8,0.7
2026-06-17T1900,4308A,107.3898,34.3601,宝鸡市,陈仓区北开路21号,细颗粒物(PM2.5),52,45,46,36,34,111,111,140,140,12,20,4,11,0.5,0.5
2026-06-17T1900,1051A,115.4803,38.8568,保定市,游泳馆,,50,28,26,26,20,158,158,156,156,6,6,3,3,0.0,0.1
2026-06-17T1900,1052A,115.509,38.8895,保定市,华电二区,,47,29,23,20,15,150,150,151,151,5,5,3,2,0.5,0.5
2026-06-17T1900,1053A,115.4588,38.9037,保定市,接待中心,,49,29,26,25,17,155,155,155,155,6,5,1,1,0.1,0.1
2026-06-17T1900,1054A,115.4484,38.8344,保定市,地表水厂,臭氧1小时(O3_1h),55,40,35,20,15,164,164,160,160,4,6,2,2,0.4,0.5
2026-06-17T1900,3581A,115.3136,38.9511,保定市,满城区生态环境分局,NA,NA,NA,19,NA,13,146,146,153,153,8,6,NA,2,0.2,0.1
2026-06-17T1900,3582A,115.4709,38.7628,保定市,清苑区第二中学,臭氧1小时(O3_1h),52,50,41,21,18,161,161,156,156,12,11,2,2,0.3,0.3
2026-06-17T1900,3583A,115.6231,39.0223,保定市,徐水物探局,,47,40,26,21,16,150,150,148,148,8,8,3,2,0.4,0.3
2026-06-17T1900,4004A,115.4199,38.8665,保定市,双鹰农机,NA,NA,34,27,29,19,156,156,160,160,NA,5,3,2,0.1,0.1
2026-06-17T1900,4034A,115.515,38.8589,保定市,植保所站,臭氧1小时(O3_1h),58,33,25,28,16,166,166,162,162,7,7,3,5,0.1,0.1
2026-06-17T1900,2594A,99.1589,25.1137,保山市,市环境监测站,,19,8,10,6,6,58,58,65,64,4,6,6,4,0.3,0.3
2026-06-17T1900,2595A,99.1616,25.1381,保山市,市环保局,,33,NA,12,23,15,58,58,65,63,2,4,4,4,0.5,0.3
2026-06-17T1900,1867A,109.1435,21.4085,北海市,海滩公园,颗粒物(PM10),87,101,40,15,7,84,84,69,69,6,5,1,3,0.7,0.7
2026-06-17T1900,1868A,109.0983,21.466,北海市,新市环保局,,33,26,15,23,17,97,97,75,75,6,8,3,3,0.6,0.6
2026-06-17T1900,1869A,109.1775,21.5232,北海市,北海工业园,,34,34,16,13,10,65,65,50,48,6,7,2,1,0.5,0.4
2026-06-17T1900,3400A,109.1844,21.4396,北海市,龙潭自来水厂,,23,23,14,10,4,70,70,48,48,4,4,3,4,0.4,0.6
2026-06-17T1900,1001A,116.3611,39.8786,北京市,万寿西宫,臭氧1小时(O3_1h),62,9,16,9,12,169,169,144,144,9,9,3,3,0.2,0.3
2026-06-17T1900,1003A,116.4174,39.9289,北京市,东四,臭氧1小时(O3_1h),72,8,16,3,11,177,177,148,148,11,11,2,2,0.4,0.4
2026-06-17T1900,1004A,116.4073,39.8858,北京市,天坛,,49,11,16,6,10,154,154,135,135,11,12,1,1,0.4,0.4
2026-06-17T1900,1005A,116.4622,39.9364,北京市,农展馆,,50,11,18,3,11,158,158,133,133,12,12,4,3,0.3,0.3
2026-06-17T1900,1006A,116.3399,39.9293,北京市,官园,,50,11,19,7,12,159,159,129,129,12,13,5,4,0.2,0.3
2026-06-17T1900,1007A,116.2879,39.9613,北京市,海淀万柳,,48,9,17,3,11,153,153,130,130,13,15,4,4,0.3,0.3
2026-06-17T1900,1008A,116.6635,40.1349,北京市,顺义新城,,47,10,23,3,19,149,149,119,119,9,8,2,2,0.2,0.4
2026-06-17T1900,1009A,116.6275,40.327,北京市,怀柔镇,,41,10,25,6,18,131,131,108,108,12,9,1,1,0.2,0.3
2026-06-17T1900,1010A,116.2295,40.217,北京市,昌平镇,,35,7,20,3,15,109,109,108,108,7,15,4,4,0.3,0.5
2026-06-17T1900,1011A,116.3968,39.982,北京市,奥体中心,,43,10,18,6,13,135,135,107,107,10,11,3,3,0.4,0.4
2026-06-17T1900,3418A,116.8336,40.4095,北京市,密云新城,,45,12,18,3,11,143,143,104,104,7,6,1,1,0.4,0.4
2026-06-17T1900,3671A,116.0879,39.9725,北京市,门头沟三家店,,37,16,11,11,7,117,117,110,110,13,11,4,4,0.6,0.4
2026-06-17T1900,3672A,116.1507,39.8246,北京市,丰台云岗,,45,8,19,8,11,141,141,134,134,10,10,1,1,0.3,0.3
2026-06-17T1900,3674A,115.9578,39.7602,北京市,房山燕山,,29,22,17,8,10,91,91,112,111,19,9,3,3,0.4,0.5
2026-06-17T1900,3675A,116.4669,39.7734,北京市,大兴旧宫,,48,8,19,7,14,152,152,144,144,7,18,2,1,0.4,0.5
2026-06-17T1900,3694A,115.9859,40.4562,北京市,延庆石河营,,37,6,18,3,13,118,118,105,105,7,8,2,2,0.3,0.4
2026-06-17T1900,3695A,116.6151,40.3052,北京市,怀柔新城,,39,8,22,3,15,124,124,101,101,9,7,3,2,0.4,0.5
2026-06-17T1900,3696A,116.2542,39.8764,北京市,丰台小屯,,43,10,19,7,11,135,135,123,123,10,12,3,2,0.4,0.4
2026-06-17T1900,3697A,116.8399,40.3843,北京市,密云镇,,44,12,20,8,12,138,138,105,105,8,6,3,3,0.5,0.5
2026-06-17T1900,4057A,115.9423,40.4431,北京市,延庆百泉,,38,6,16,3,11,121,121,111,111,5,9,1,1,0.3,0.3
2026-06-17T1900,4058A,116.6598,39.9164,北京市,通州新华,,47,11,24,3,14,148,148,121,121,13,17,3,3,0.4,0.5
2026-06-17T1900,4182A,116.1942,39.9158,北京市,石景山八角,,45,12,22,7,13,143,143,126,126,18,18,2,3,0.6,0.6
2026-06-17T1900,4194A,117.078628,40.151726,北京市,平谷新城,,44,15,17,8,10,139,139,121,121,4,3,3,3,0.4,0.4
2026-06-17T1900,1761A,123.8274146,41.31234549,本溪市,大峪,,32,30,25,22,19,61,61,85,83,7,8,6,6,0.6,0.5
2026-06-17T1900,1763A,123.7169,41.3094,本溪市,彩屯,,40,32,30,28,27,65,65,75,75,18,18,9,9,3.5,2.2
2026-06-17T1900,1764A,123.7672166,41.28649327,本溪市,东明,,34,34,26,19,18,83,83,96,88,14,10,6,7,0.6,0.6
2026-06-17T1900,1765A,123.799345,41.266614,本溪市,新立屯,,30,23,23,21,16,66,66,93,78,15,8,7,8,0.6,0.5
2026-06-17T1900,1766A,123.829144,41.336777,本溪市,威宁,,33,NA,27,23,19,73,73,79,79,6,6,7,7,0.6,0.5
2026-06-17T1900,2587A,105.287,27.3133,毕节市,八中,,22,21,30,15,18,38,38,41,34,8,12,6,7,0.6,0.5
2026-06-17T1900,2588A,105.3079,27.2987,毕节市,师专,,16,13,27,11,18,36,36,41,36,9,9,6,8,0.6,0.5
2026-06-17T1900,4263A,105.3688,27.3598,毕节市,工业大道,,15,10,27,3,14,46,46,45,39,6,9,6,6,/,/
2026-06-17T1900,1629A,117.9961,37.3604,滨州市,第二水厂,臭氧1小时(O3_1h),68,56,44,22,20,174,174,176,176,9,15,6,8,0.6,0.6
2026-06-17T1900,1630A,117.9789,37.3931,滨州市,北中新校,臭氧1小时(O3_1h),78,48,38,23,21,182,182,181,181,18,16,10,11,0.6,0.7
2026-06-17T1900,3514A,117.9379,37.3959,滨州市,中海酒店,NA,NA,41,33,22,21,192,192,181,181,NA,8,8,10,0.4,0.4
2026-06-17T1900,3515A,117.9381509,37.35547456,滨州市,开发区一中,臭氧1小时(O3_1h),65,58,46,22,19,172,172,171,171,5,17,7,9,0.5,0.6
2026-06-17T1900,3516A,118.0914,37.6938,滨州市,金海六路,臭氧1小时(O3_1h),82,61,46,40,34,185,185,180,180,21,21,8,7,0.4,0.4
2026-06-17T1900,4028A,117.9955,37.3752,滨州市,滨州市西街道办事处,臭氧1小时(O3_1h),73,48,38,25,20,178,178,174,174,10,14,5,6,0.4,0.5
2026-06-17T1900,2311A,115.8071,33.8399,亳州市,污水处理厂,臭氧1小时(O3_1h),54,21,15,8,13,163,163,153,153,9,12,4,5,0.2,0.2
2026-06-17T1900,2312A,115.7789,33.8519,亳州市,三国揽胜宫,臭氧1小时(O3_1h),54,26,30,8,11,163,163,153,153,6,8,4,4,0.2,0.2
2026-06-17T1900,3332A,115.7631,33.803,亳州市,亳州学院,臭氧1小时(O3_1h),63,20,16,7,13,170,170,160,160,6,8,5,5,0.2,0.3
2026-06-17T1900,2693A,82.0482,44.8553,博尔塔拉蒙古自治州,市党校,,32,27,21,14,8,100,100,116,116,6,5,5,3,0.3,0.3
2026-06-17T1900,2694A,82.0805,44.8966,博尔塔拉蒙古自治州,市环保局,,35,35,30,7,7,106,106,110,110,14,11,6,6,0.3,0.3
2026-06-17T1900,1071A,116.8733,38.2922,沧州市,沧县城建局,臭氧1小时(O3_1h),63,36,36,32,30,170,170,161,161,9,10,4,5,0.6,0.6
2026-06-17T1900,1072A,116.8462,38.3189,沧州市,电视转播站,颗粒物(PM10),69,76,51,41,25,144,144,138,138,12,12,9,7,0.4,0.4
2026-06-17T1900,1073A,116.8588,38.3161,沧州市,市环保局,细颗粒物(PM2.5),68,67,54,44,32,155,155,152,152,10,10,3,4,0.4,0.4
2026-06-17T1900,3324A,116.8011,38.294,沧州市,河北水利电力学院,细颗粒物(PM2.5),56,39,34,38,28,161,161,152,152,10,11,5,5,0.3,0.3
2026-06-17T1900,2622A,97.1813,31.1289,昌都市,昌都监测站,,38,17,8,3,3,120,120,119,119,11,6,7,7,0.5,0.5
2026-06-17T1900,3719A,97.1707,31.1428,昌都市,昌都会议中心,,45,6,6,3,4,144,144,136,136,3,4,5,5,0.4,0.4
2026-06-17T1900,2692A,87.2722,44.0298,昌吉回族自治州,新区政务中心,,33,25,24,14,11,105,105,111,111,6,10,7,8,0.1,0.2
2026-06-17T1900,3613A,87.3069,44.0093,昌吉回族自治州,亚心广场,,32,22,34,13,14,102,102,110,110,10,13,6,7,0.2,0.2
2026-06-17T1900,4164A,87.2057,43.9289,昌吉回族自治州,财政所,,35,35,49,3,18,105,105,114,114,3,9,6,6,0.1,0.2
2026-06-17T1900,1120A,125.2874,43.9024,长春市,客车厂,,27,16,18,8,15,86,86,87,78,22,11,6,5,0.6,0.5
2026-06-17T1900,1121A,125.2943,43.8508,长春市,邮电学院,,18,13,17,8,15,56,56,90,75,5,7,6,6,0.5,0.5
2026-06-17T1900,1122A,125.3648,43.8745,长春市,劳动公园,,26,22,20,16,16,82,82,89,77,17,12,7,6,0.7,0.7
2026-06-17T1900,1123A,125.3233,43.8781,长春市,园林处,,25,11,19,7,16,80,80,87,78,8,8,2,2,0.5,0.5
2026-06-17T1900,1124A,125.4604,43.7904,长春市,净月潭,NA,NA,NA,19,NA,16,NA,NA,89,71,NA,5,NA,5,NA,0.4
2026-06-17T1900,1126A,125.38,43.8422,长春市,经开区环卫处,,25,15,20,10,17,80,80,86,74,13,11,5,5,0.5,0.5
2026-06-17T1900,1127A,125.234,43.7761,长春市,高新区管委会,,26,9,17,6,15,83,83,88,81,10,7,6,6,0.4,0.4
2026-06-17T1900,1128A,125.1695,43.83,长春市,岱山公园,,31,15,19,3,16,99,99,90,90,16,19,3,3,0.3,0.3
2026-06-17T1900,4281A,125.334645,43.916281,长春市,北亚泰大街1068号,,29,23,22,11,16,90,90,82,78,20,15,5,4,0.6,0.5
2026-06-17T1900,1335A,113.082,28.2421,长沙市,经开区环保局,,40,32,42,21,28,128,128,143,141,3,11,4,9,0.5,0.6
2026-06-17T1900,1336A,112.8873,28.2202,长沙市,高开区环保局,,50,37,42,24,27,158,158,158,158,3,10,4,4,0.6,0.7
2026-06-17T1900,1337A,113.0785,28.2012,长沙市,马坡岭,,42,33,40,22,27,134,134,144,142,5,10,6,7,0.7,0.8
2026-06-17T1900,1338A,112.9448,28.1894,长沙市,湖南师范大学,颗粒物(PM10),57,59,41,32,24,123,123,154,151,10,9,8,8,0.2,0.2
2026-06-17T1900,1339A,113.0177,28.1322,长沙市,雨花区环保局,,42,NA,38,25,25,134,134,136,136,2,5,6,6,0.8,0.8
2026-06-17T1900,1340A,112.9795,28.2593,长沙市,伍家岭,,42,35,48,22,29,134,134,158,156,6,15,4,4,0.5,0.5
2026-06-17T1900,1341A,113.002,28.1944,长沙市,火车新站,,40,40,39,24,26,128,128,136,135,9,10,8,8,0.3,0.3
2026-06-17T1900,1342A,112.9846,28.1177,长沙市,天心区环保局,,46,22,38,19,24,145,145,146,146,7,10,4,5,0.2,0.2
2026-06-17T1900,1343A,112.8906,28.1307,长沙市,湖南中医药大学,,50,33,42,23,27,157,157,150,150,7,17,7,7,0.5,0.6
2026-06-17T1900,1727A,113.1146,36.1547,长治市,清华站,,44,37,31,21,20,138,138,184,NA,9,8,8,9,0.4,0.5
2026-06-17T1900,1730A,113.0887,36.2126,长治市,审计局,,41,28,32,17,21,130,130,179,173,4,5,9,10,0.4,0.4
2026-06-17T1900,1731A,113.0845,36.1856,长治市,长治八中,,42,28,37,16,22,132,132,174,167,19,14,12,12,0.3,0.5
2026-06-17T1900,2845A,113.1561,36.1912,长治市,德盛苑,,44,19,31,15,21,138,138,184,175,6,9,9,10,0.4,0.4
2026-06-17T1900,3568A,113.0603,36.0464,长治市,向阳小学,颗粒物(PM10),64,69,63,20,24,145,145,167,161,6,6,14,14,0.7,0.7
2026-06-17T1900,3569A,112.8788,36.315,长治市,屯留一中,,46,32,34,25,23,146,146,163,160,8,7,8,9,0.7,0.6
2026-06-17T1900,4189A,113.113092,36.199482,长治市,英华南巷50号,,38,36,38,19,23,121,121,187,175,9,8,8,9,0.8,0.8
2026-06-17T1900,4190A,113.23666,36.33435,长治市,学府街1号,,45,26,38,13,23,141,141,180,173,6,8,3,5,0.5,0.6
2026-06-17T1900,1854A,111.696,28.9725,常德市,市二中,,41,34,41,24,33,131,131,160,159,6,14,8,9,0.9,1
2026-06-17T1900,3138A,111.7152,29.0288,常德市,武陵区永安,,43,33,45,22,34,136,136,156,155,3,8,6,8,0.9,1
2026-06-17T1900,3139A,111.6891,28.9881,常德市,鼎城区玉霞,,42,36,43,23,35,132,132,165,163,10,15,9,10,0.9,0.9
2026-06-17T1900,3140A,111.6651,29.0526,常德市,武陵区长庚,NA,NA,NA,43,NA,33,146,146,161,161,NA,9,NA,10,0.7,0.8
2026-06-17T1900,1196A,119.9524,31.7586,常州市,市监测站,,43,13,29,3,17,135,135,146,146,19,16,8,7,0.3,0.4
2026-06-17T1900,1200A,119.9351,31.703,常州市,武进监测站,,44,22,25,10,16,140,140,138,138,11,8,16,11,0.3,0.3
2026-06-17T1900,3002A,119.9701,31.813,常州市,行政中心,,33,17,23,3,16,103,103,128,128,12,13,8,6,0.2,0.4
2026-06-17T1900,3003A,120.0434,31.7726,常州市,经开区,,35,17,29,3,15,111,111,135,135,11,12,3,4,0.6,0.8
2026-06-17T1900,3010A,119.8919,31.7892,常州市,钟楼,,44,19,32,3,16,139,139,155,155,12,14,8,8,0.5,0.6
2026-06-17T1900,3429A,119.8595,31.706,常州市,武进经发区,,45,29,32,16,20,141,141,157,157,20,12,8,7,0.7,0.8
2026-06-17T1900,3430A,119.5812,31.7256,常州市,金坛城区,,50,24,34,17,22,160,160,154,154,8,11,6,6,0.6,0.7
2026-06-17T1900,4089A,119.9551,31.863,常州市,崇义南街5-H号,NA,NA,21,27,3,16,93,93,124,124,NA,12,10,9,0.6,0.7
2026-06-17T1900,2220A,120.4318,41.588,朝阳市,西梁,,32,21,24,14,18,101,101,111,110,7,8,4,4,0.6,0.7
2026-06-17T1900,2221A,120.452,41.565,朝阳市,河畔小区,,31,13,22,9,21,99,99,115,112,6,7,8,9,0.7,0.8
2026-06-17T1900,2222A,120.4176,41.5648,朝阳市,八里堡,,33,29,23,12,24,104,104,115,114,9,10,4,5,0.6,0.7
2026-06-17T1900,3026A,116.6179,23.6608,潮州市,市政府,,24,24,13,11,9,48,48,61,61,14,12,4,4,0.6,0.6
2026-06-17T1900,4036A,116.646,23.676,潮州市,金山,,18,18,13,9,8,47,47,61,61,10,9,2,2,0.5,0.4
2026-06-17T1900,2473A,113.0116,25.8228,郴州市,市职中,,20,20,43,8,35,62,62,107,104,3,13,7,11,0.6,0.8
2026-06-17T1900,2475A,113.0381,25.8074,郴州市,市审计局,,22,22,41,7,35,69,69,106,104,7,17,4,8,/,/
2026-06-17T1900,2476A,113.0348,25.7757,郴州市,市环保局,,23,19,43,3,37,71,71,103,102,5,18,5,10,0.5,0.8
2026-06-17T1900,4252A,113.0138,25.8011,郴州市,好美居路49号,,23,14,41,14,27,73,73,107,106,4,15,7,11,/,/
2026-06-17T1900,1431A,103.9727,30.7242,成都市,金泉两河,NA,NA,NA,26,NA,23,68,68,81,79,20,13,2,2,0.3,0.2
2026-06-17T1900,1432A,104.1423,30.6765,成都市,十里店,,33,33,32,13,22,85,85,90,90,8,9,4,4,0.5,0.5
2026-06-17T1900,1433A,104.0594,30.5765,成都市,三瓦窑,,32,32,31,12,25,86,86,91,91,10,15,4,4,0.6,0.6
2026-06-17T1900,1434A,104.1122,30.6306,成都市,沙河铺,,28,28,31,11,22,75,75,76,76,13,14,5,5,0.5,0.4
2026-06-17T1900,2880A,104.0219,30.6561,成都市,大石西路,,40,40,35,18,26,77,77,78,78,13,14,4,4,0.6,0.5
2026-06-17T1900,3136A,104.2724,30.559,成都市,龙泉驿区区政府,,24,9,18,9,20,76,76,84,84,6,10,7,6,0.4,0.4
2026-06-17T1900,3357A,104.0028,30.6891,成都市,金博路,,30,25,20,21,23,76,76,80,79,19,16,6,6,0.7,0.7
2026-06-17T1900,3359A,104.056,30.5228,成都市,华阳,,25,19,25,10,19,79,79,85,85,12,11,2,2,0.9,0.9
2026-06-17T1900,3488A,104.387954,30.746684,成都市,青白江技师分院,NA,NA,16,30,11,24,69,69,78,78,11,17,NA,6,0.6,0.7
2026-06-17T1900,3489A,104.0788,30.4054,成都市,科学城,,27,NA,23,8,18,85,85,90,90,7,8,5,5,0.4,0.5
2026-06-17T1900,4011A,103.8505,30.6946,成都市,光华大道三段,,43,NA,27,30,24,80,80,90,90,16,11,3,3,0.4,0.4
2026-06-17T1900,4144A,104.3257,30.6406,成都市,八角井街185号,,25,21,31,11,21,79,79,81,81,7,14,4,4,0.4,0.4
2026-06-17T1900,4224A,104.2433276,30.53529463,成都市,鲸龙路1057号,,28,9,27,3,19,87,87,91,91,11,14,7,7,0.7,0.6
2026-06-17T1900,1062A,117.9531,40.908,承德市,铁路,,29,28,26,11,15,92,92,101,101,15,14,4,3,0.2,0.3
2026-06-17T1900,1063A,117.9397,40.9763,承德市,中国银行,,33,21,27,3,14,104,104,105,105,7,9,3,2,0.2,0.3
2026-06-17T1900,4073A,117.9462,40.95,承德市,杏林街1号,,37,18,25,7,18,118,118,113,113,6,8,4,2,0.2,0.3
2026-06-17T1900,4274A,117.7994,40.9605,承德市,滨河大街98号,,41,41,20,21,11,74,74,111,107,4,6,3,2,0.4,0.3
2026-06-17T1900,2314A,117.4698,30.6617,池州市,池州学院,臭氧1小时(O3_1h),69,44,29,26,17,175,175,162,162,19,14,9,5,0.7,0.9
2026-06-17T1900,3237A,117.4918,30.6617,池州市,展览馆,臭氧1小时(O3_1h),72,33,27,23,16,177,177,166,166,15,11,7,4,0.5,0.6
2026-06-17T1900,3333A,117.5626,30.695,池州市,第八中学,臭氧1小时(O3_1h),52,32,26,21,17,161,161,159,159,18,11,5,4,0.5,0.5
2026-06-17T1900,3334A,117.5037,30.6242,池州市,第十二中学,臭氧1小时(O3_1h),74,34,24,26,15,179,179,169,169,14,14,7,5,0.6,0.7
2026-06-17T1900,1744A,118.9229,42.2816,赤峰市,松山一中,,35,NA,10,14,4,112,112,114,114,10,11,11,10,0.5,0.5
2026-06-17T1900,1745A,118.9588,42.2733,赤峰市,哈达街,,36,10,9,10,5,114,114,113,113,11,13,13,13,0.4,0.4
2026-06-17T1900,1746A,118.8792,42.2551,赤峰市,天义路,,33,NA,6,9,5,105,105,101,101,10,11,6,7,0.2,0.3
2026-06-17T1900,3058A,119.2656,42.0356,赤峰市,银河街,,35,17,15,13,8,111,111,109,109,12,10,10,12,0.5,0.6
2026-06-17T1900,3286A,118.9359,42.3146,赤峰市,桥北物流园区,,33,NA,9,7,5,103,103,106,106,12,15,3,3,0.4,0.5
2026-06-17T1900,2521A,107.3473,22.4137,崇左市,市环保局江州分局,,19,19,21,3,9,55,55,76,76,8,7,2,2,0.5,0.5
2026-06-17T1900,4256A,107.375,22.3736,崇左市,石景林东路7号,,19,NA,18,3,11,59,59,81,80,9,9,2,2,0.6,0.7
2026-06-17T1900,3207A,118.31131,32.3033,滁州市,市政府原办公楼,,35,17,24,16,29,111,111,125,125,5,9,5,5,0.4,0.4
2026-06-17T1900,3331A,118.3268,32.2633,滁州市,图书馆,,34,22,27,6,20,108,108,119,119,4,7,9,9,0.3,0.3
2026-06-17T1900,4101A,118.3196,32.3335,滁州市,银山路666号,,35,22,23,10,20,110,110,123,123,9,9,4,4,0.2,0.2
2026-06-17T1900,4102A,118.3426,32.2979,滁州市,黄山路555号,,35,24,32,10,23,109,109,121,121,11,14,8,8,0.2,0.2
2026-06-17T1900,2606A,101.5379,25.0492,楚雄彝族自治州,市经济开发区,,15,10,10,3,5,45,45,46,46,5,4,2,1,0.6,0.6
2026-06-17T1900,4153A,101.5536,25.0343,楚雄彝族自治州,团结路562号,NA,NA,NA,8,8,6,50,50,50,50,NA,3,3,2,NA,0.3
2026-06-17T1900,2549A,107.5087,31.2186,达州市,市环境监测站,,30,30,35,16,19,41,41,57,57,26,26,6,6,0.5,0.4
2026-06-17T1900,2550A,107.4988,31.2132,达州市,凤凰小区,,29,29,35,14,16,49,49,66,66,18,23,6,6,0.4,0.4
2026-06-17T1900,2551A,107.5081,31.1987,达州市,达县机关宾馆,,31,31,35,17,21,42,42,54,54,26,32,5,5,0.2,0.2
2026-06-17T1900,2552A,107.4644,31.2124,达州市,市政中心,,33,33,38,14,18,58,58,66,66,18,23,4,4,0.4,0.4
2026-06-17T1900,2614A,100.2168,25.5818,大理白族自治州,大理市环境监测站,,15,9,9,3,4,48,48,56,56,6,6,5,5,0.5,0.4
2026-06-17T1900,2615A,100.1542,25.7055,大理白族自治州,大理古城,,11,11,10,7,6,27,27,56,53,22,9,6,6,0.4,0.3
2026-06-17T1900,1109A,121.6119,38.974,大连市,甘井子,"颗粒物(PM10),细颗粒物(PM2.5)",56,58,36,38,24,82,82,100,100,30,15,10,10,0.6,0.5
2026-06-17T1900,1110A,121.565,38.9509,大连市,周水子,,49,39,29,34,23,97,97,103,103,27,17,8,7,0.6,0.5
2026-06-17T1900,1111A,121.5637,38.8849,大连市,星海三站,,43,39,33,30,21,82,82,95,95,27,10,8,8,0.6,0.5
2026-06-17T1900,1112A,121.6301,38.9117,大连市,青泥洼桥,,36,33,32,25,19,112,112,111,111,12,9,8,8,0.8,0.8
2026-06-17T1900,1113A,121.6248,38.8643,大连市,傅家庄,,30,23,25,21,22,82,82,97,95,29,8,11,11,0.4,0.4
2026-06-17T1900,1114A,121.5117,38.8636,大连市,七贤岭,,44,44,34,30,20,96,96,99,99,25,16,8,8,1.0,0.7
2026-06-17T1900,1116A,121.7507,39.1339,大连市,金州,细颗粒物(PM2.5),70,51,28,45,25,99,99,105,105,22,13,8,9,0.8,0.6
2026-06-17T1900,1117A,121.7811,39.0495,大连市,开发区,,33,27,29,23,24,99,99,99,99,24,19,11,10,0.5,0.5
2026-06-17T1900,1118A,121.9762,39.0631,大连市,双D港,,29,29,28,18,22,57,57,75,75,42,22,7,7,0.7,0.7
2026-06-17T1900,4082A,121.2548,38.8188,大连市,旅顺,,40,34,29,28,22,84,84,95,95,27,13,7,7,0.4,0.4
2026-06-17T1900,1789A,124.8085,46.0381,大庆市,大同区,,43,14,29,13,15,137,137,136,136,9,16,3,4,0.4,0.5
2026-06-17T1900,1790A,125.1166,46.5255,大庆市,龙凤区,,41,41,43,16,21,113,113,111,111,15,17,5,6,0.3,0.3
2026-06-17T1900,1791A,124.8894,46.4007,大庆市,红岗区,,39,33,43,13,16,124,124,122,122,7,11,6,6,0.4,0.5
2026-06-17T1900,1792A,125.1391,46.578,大庆市,萨尔图区,,33,33,27,20,20,104,104,110,110,21,16,5,5,0.5,0.5
2026-06-17T1900,1793A,124.9026,46.6217,大庆市,让胡路区,,39,32,34,20,24,123,123,123,123,10,19,3,4,0.6,0.7
2026-06-17T1900,3481A,125.127,46.6277,大庆市,萨区政府监测点,,30,30,31,18,18,86,86,108,108,8,7,5,7,0.4,0.4
2026-06-17T1900,1723A,113.2926,40.0759,大同市,云冈宾馆,,42,11,23,7,13,134,134,134,134,12,12,5,6,0.1,0.3
2026-06-17T1900,1724A,113.3437,40.0921,大同市,大同大学,,41,15,21,8,13,131,131,127,127,8,12,7,7,0.5,0.6
2026-06-17T1900,1725A,113.2637,40.129,大同市,安家小村,,43,23,30,15,15,135,135,133,133,9,10,8,10,0.3,0.5
2026-06-17T1900,3282A,113.3399,40.0586,大同市,大同市卫生学校,,48,48,26,12,16,147,147,141,141,10,12,7,7,0.5,0.6
2026-06-17T1900,3565A,113.1371,40.1122,大同市,云冈站,,42,17,22,8,15,132,132,137,137,6,13,5,6,0.5,0.8
2026-06-17T1900,3566A,113.1186,40.2556,大同市,图书馆,,42,18,26,16,15,133,133,139,139,10,12,6,7,0.6,1
2026-06-17T1900,3567A,113.5931,40.0459,大同市,区一中,,45,16,19,11,14,143,143,140,140,10,9,8,7,0.4,0.5
2026-06-17T1900,4199A,113.2798248,40.09972476,大同市,魏都大道141号,,40,19,27,11,14,128,128,126,126,11,15,6,6,0.4,0.6
2026-06-17T1900,2269A,124.1068,50.4091,大兴安岭地区,科技局,,31,20,20,11,13,99,99,99,99,3,4,8,7,0.3,0.3
2026-06-17T1900,3663A,124.117,50.4279,大兴安岭地区,红旗社区,,34,NA,10,10,13,106,106,107,107,6,6,5,6,0.1,0.3
2026-06-17T1900,1600A,124.33,40.0625,丹东市,江湾东路,,29,28,33,20,24,71,71,94,85,13,16,5,9,0.5,0.6
2026-06-17T1900,1601A,124.4242,40.1513,丹东市,临江后街,,29,23,49,20,28,71,71,92,82,11,15,4,5,0.5,0.6
2026-06-17T1900,1602A,124.3935,40.1461,丹东市,元宝山,,33,29,45,23,27,60,60,87,75,16,16,4,6,0.7,0.7
2026-06-17T1900,1603A,124.3634,40.1093,丹东市,民主桥,,32,32,38,22,27,65,65,88,78,14,16,7,8,0.8,0.7
2026-06-17T1900,3541A,109.5726195,19.51688767,儋州市,第一中学子站,,35,35,26,17,13,45,45,54,53,8,6,3,4,0.4,0.4
2026-06-17T1900,3542A,109.5567,19.5187,儋州市,东坡学校子站,,26,26,24,18,14,50,50,58,57,5,5,6,5,0.5,0.5
2026-06-17T1900,2616A,98.5611,24.4273,德宏傣族景颇族自治州,德宏州监测站,,18,9,9,7,11,57,57,64,64,6,6,5,5,0.5,0.5
2026-06-17T1900,3677A,98.5887,24.4366,德宏傣族景颇族自治州,芒市人民政府综合楼,,20,20,30,11,9,50,50,58,58,8,7,6,7,0.2,0.5
2026-06-17T1900,1901A,104.424,31.1209,德阳市,东山公园,,21,NA,24,13,24,66,66,66,66,4,12,2,3,0.6,0.6
2026-06-17T1900,1902A,104.3827,31.1318,德阳市,西小区,,23,20,36,16,26,73,73,74,74,10,16,6,6,0.8,0.9
2026-06-17T1900,1904A,104.3553,31.1091,德阳市,耐火材料厂,,26,25,34,18,30,82,82,82,82,8,15,2,2,0.4,0.4
2026-06-17T1900,4145A,104.4144,31.1495,德阳市,市林业局,,27,20,30,14,25,85,85,83,83,9,16,8,8,0.7,0.8
2026-06-17T1900,1622A,116.3034,37.4675,德州市,儿童乐园,臭氧1小时(O3_1h),83,48,40,18,18,186,186,176,176,15,13,9,10,0.8,0.7
2026-06-17T1900,1624A,116.2992,37.4449,德州市,监理站,臭氧1小时(O3_1h),84,56,43,19,18,187,187,177,177,12,11,12,13,0.5,0.5
2026-06-17T1900,3066A,116.2722,37.438,德州市,九衢泉纯净水厂,臭氧1小时(O3_1h),75,48,39,21,19,180,180,167,167,17,17,13,11,0.8,0.7
2026-06-17T1900,3371A,116.3693,37.44,德州市,开发区人民医院,臭氧1小时(O3_1h),68,61,41,21,18,174,174,166,166,14,11,9,9,0.7,0.6
2026-06-17T1900,3511A,116.5687,37.3331,德州市,陵城艺术中心,臭氧1小时(O3_1h),80,46,39,17,18,184,184,174,174,10,13,10,8,0.4,0.4
2026-06-17T1900,4292A,116.352738,37.420875,德州市,新河东路,臭氧1小时(O3_1h),65,48,35,21,17,172,172,167,167,26,16,10,10,0.9,0.7
2026-06-17T1900,2621A,99.7054,27.8319,迪庆藏族自治州,迪庆州站,,20,10,15,8,8,62,62,63,63,8,9,7,7,0.5,0.5
2026-06-17T1900,3180A,99.7122,27.8129,迪庆藏族自治州,质量技术监督局,,21,15,13,10,7,66,66,65,65,10,9,10,10,0.2,0.2
2026-06-17T1900,4257A,104.6092,35.5962,定西市,将台街,,35,29,31,22,19,111,111,113,113,5,6,4,4,0.2,0.2
2026-06-17T1900,4309A,104.6159,35.5701,定西市,正龙路62号,,36,36,41,11,17,112,112,111,111,5,7,4,4,0.2,0.2
