,O3H8_level,regioncode,O3,latitude,CO_level,SYWRW,PM10H24,NO2,O3H8,O3_level,PM10_color,PM25_color,SO2,sitename,O3H8_color,AQI,NO2_level,AQI_level,PM10H24_level,districtcode,SO2_color,longitude,NO2_color,PM25,PM10_level,CO,PM25_level,CO_color,PM25H24_color,sitecode,PM25H24_level,AQI_color,districtname,O3_color,SO2_level,PM10,PM25H24,PM10H24_color,sort,time
0,良,330921,75,30.2669,优,--,29,28,102,优,#00E400,#00E400,5,岱山环保大楼,#FFFF00,24,优,优,优,330900,#00E400,122.2199,#00E400,11,优,0.4,优,#00E400,#00E400,330921001,优,#00E400,舟山市,#00E400,优,21,17,#00E400,1,2026-06-02 20:00:00
1,良,331083,82,28.2221,优,--,31,13,103,优,#00E400,#00E400,6,楚门中心小学,#FFFF00,26,优,优,优,331000,#00E400,121.2846,#00E400,13,优,0.7,优,#00E400,#00E400,331021002,优,#00E400,台州市,#00E400,优,24,19,#00E400,2,2026-06-02 20:00:00
2,良,331081,84,28.39136,优,--,31,7,143,优,#00E400,#00E400,3,之江高级中学,#FFFF00,27,优,优,优,331000,#00E400,121.37696,#00E400,14,优,0.5,优,#00E400,#00E400,331081002,优,#00E400,台州市,#00E400,优,22,18,#00E400,3,2026-06-02 20:00:00
3,良,330225,93,29.2003,优,--,36,25,146,优,#00E400,#00E400,8,石浦新港小学,#FFFF00,33,优,优,优,330200,#00E400,121.934,#00E400,22,优,0.5,优,#00E400,#00E400,330225002,优,#00E400,宁波市,#00E400,优,33,22,#00E400,4,2026-06-02 20:00:00
4,优,331125,35,28.1173,优,--,31,13,62,优,#00E400,#00E400,5,云和监测楼,#00E400,33,优,优,优,331100,#00E400,119.5626,#00E400,23,优,0.5,优,#00E400,#00E400,331125001,优,#00E400,丽水市,#00E400,优,31,23,#00E400,4,2026-06-02 20:00:00
5,良,331081,70,28.37558,优,--,30,14,115,优,#00E400,#00E400,6,温岭环监站,#FFFF00,34,优,优,优,331000,#00E400,121.36579,#00E400,16,优,0.5,优,#00E400,#00E400,331081001,优,#00E400,台州市,#00E400,优,34,21,#00E400,6,2026-06-02 20:00:00
6,优,331127,26,28.002222,优,--,30,21,60,优,#00E400,#00E400,4,红星小学,#00E400,36,优,优,优,331100,#00E400,119.636389,#00E400,24,优,0.5,优,#00E400,#00E400,331127003,优,#00E400,丽水市,#00E400,优,36,19,#00E400,7,2026-06-02 20:00:00
7,优,330305,70,27.8342,优,--,24,5,76,优,#00E400,#00E400,8,洞头气象局,#00E400,36,优,优,优,330300,#00E400,121.1502,#00E400,25,优,0.4,优,#00E400,#00E400,330305001,优,#00E400,温州市,#00E400,优,32,14,#00E400,7,2026-06-02 20:00:00
8,良,331083,96,28.12715,优,--,--,6,102,优,#00E400,#00E400,11,玉环环监站,#FFFF00,36,优,优,--,331000,#00E400,121.2339,#00E400,19,优,0.6,优,#00E400,#00E400,331021001,优,#00E400,台州市,#00E400,优,36,28,--,7,2026-06-02 20:00:00
9,良,331124,76,28.4516,优,--,39,13,105,优,#00E400,#00E400,6,和平水厂,#FFFF00,36,优,优,优,331100,#00E400,119.4699,#00E400,20,优,0.7,优,#00E400,#00E400,331124002,优,#00E400,丽水市,#00E400,优,36,22,#00E400,7,2026-06-02 20:00:00
10,良,330182,60,29.4769,优,--,39,11,102,优,#00E400,#00E400,6,建德监测大楼,#FFFF00,38,优,优,优,330100,#00E400,119.2711,#00E400,25,优,0.7,优,#00E400,#00E400,330182T_2,优,#00E400,杭州市,#00E400,优,38,25,#00E400,11,2026-06-02 20:00:00
11,良,330182,70,29.4638,优,--,37,19,111,优,#00E400,#00E400,3,第二中学,#FFFF00,38,优,优,优,330100,#00E400,119.2821,#00E400,26,优,0.6,优,#00E400,#00E400,330182002,优,#00E400,杭州市,#00E400,优,38,26,#00E400,11,2026-06-02 20:00:00
12,优,331126,44,27.6211,优,--,27,10,75,优,#00E400,#00E400,5,庆元气象局,#00E400,38,优,优,优,331100,#00E400,119.0788,#00E400,26,优,0.8,优,#00E400,#00E400,331126002,优,#00E400,丽水市,#00E400,优,36,19,#00E400,11,2026-06-02 20:00:00
13,优,331181,55,28.076,优,--,32,10,78,优,#00E400,#00E400,9,粮食大楼,#00E400,38,优,优,优,331100,#00E400,119.1217,#00E400,26,优,0.7,优,#00E400,#00E400,331181002,优,#00E400,丽水市,#00E400,优,38,22,#00E400,11,2026-06-02 20:00:00
14,优,330127,60,29.5995,优,--,--,9,82,优,#00E400,#00E400,9,淳安环保大楼,#00E400,39,优,优,--,330100,#00E400,119.0481,#00E400,27,优,0.4,优,#00E400,#00E400,330127001,优,#00E400,杭州市,#00E400,优,38,27,--,15,2026-06-02 20:00:00
15,优,330329,101,27.5438,优,--,29,9,96,优,#00E400,#00E400,8,泰顺实验中学,#00E400,39,优,优,优,330300,#00E400,119.716111,#00E400,24,优,0.6,优,#00E400,#00E400,330329002,优,#00E400,温州市,#00E400,优,39,18,#00E400,15,2026-06-02 20:00:00
16,良,331024,105,28.7403,优,--,34,14,130,优,#00E400,#00E400,6,新生中学,#FFFF00,39,优,优,优,331000,#00E400,120.4728,#00E400,27,优,0.7,优,#00E400,#00E400,331024002,优,#00E400,台州市,#00E400,优,38,22,#00E400,15,2026-06-02 20:00:00
17,良,330382,112,28.1209,优,--,40,14,127,优,#00E400,#00E400,6,乐成,#FFFF00,40,优,优,优,330300,#00E400,120.9659,#00E400,25,优,0.6,优,#00E400,#00E400,330382001,优,#00E400,温州市,#00E400,优,40,26,#00E400,18,2026-06-02 20:00:00
18,良,330381,100,27.782284,优,--,41,16,127,优,#00E400,#00E400,9,安阳新区,#FFFF00,40,优,优,优,330300,#00E400,120.650915,#00E400,21,优,0.6,优,#00E400,#00E400,330381002,优,#00E400,温州市,#00E400,优,40,24,#00E400,18,2026-06-02 20:00:00
19,轻度污染,330424,126,30.5042,优,--,33,12,183,优,#00E400,#00E400,6,高级中学,#FF7E00,40,优,优,优,330400,#00E400,120.9413,#00E400,27,优,0.4,优,#00E400,#00E400,330424001,优,#00E400,嘉兴市,#00E400,优,26,27,#00E400,18,2026-06-02 20:00:00
20,轻度污染,330424,126,30.5299,优,--,40,16,191,优,#00E400,#00E400,5,海盐商贸学校,#FF7E00,40,优,优,优,330400,#00E400,120.9293,#00E400,15,优,0.4,优,#00E400,#00E400,330424002,优,#00E400,嘉兴市,#00E400,优,17,28,#00E400,18,2026-06-02 20:00:00
21,良,331022,115,29.11779,优,--,37,11,141,优,#00E400,#00E400,6,三门环监楼,#FFFF00,41,优,优,优,331000,#00E400,121.382189,#00E400,25,优,0.5,优,#00E400,#00E400,331022001,优,#00E400,台州市,#00E400,优,41,26,#00E400,22,2026-06-02 20:00:00
22,良,330781,102,29.216166,优,--,50,17,132,优,#00E400,#00E400,7,兰溪监测站,#FFFF00,42,优,优,优,330700,#00E400,119.459992,#00E400,28,优,0.7,优,#00E400,#00E400,330781001,优,#00E400,金华市,#00E400,优,42,32,#00E400,23,2026-06-02 20:00:00
23,良,330783,107,29.27739,优,--,74,16,149,优,#00E400,#00E400,7,东阳环保大楼,#FFFF00,42,优,优,良,330700,#00E400,120.23692,#00E400,26,优,0.7,优,#00E400,#FFFF00,330783002,良,#00E400,金华市,#00E400,优,42,46,#FFFF00,23,2026-06-02 20:00:00
24,优,330329,66,27.557,优,--,30,11,88,优,#00E400,#00E400,5,罗阳,#00E400,43,优,优,优,330300,#00E400,119.7084,#00E400,25,优,0.6,优,#00E400,#00E400,330329001,优,#00E400,温州市,#00E400,优,43,18,#00E400,25,2026-06-02 20:00:00
25,良,330781,102,29.229931,优,--,48,13,128,优,#00E400,#00E400,7,兰溪八中,#FFFF00,43,优,优,优,330700,#00E400,119.475172,#00E400,25,优,0.7,优,#00E400,#00E400,330781002,优,#00E400,金华市,#00E400,优,43,32,#00E400,25,2026-06-02 20:00:00
26,优,331126,40,27.629585,优,--,29,12,72,优,#00E400,#00E400,4,庆元监测楼,#00E400,43,优,优,优,331100,#00E400,119.054809,#00E400,30,优,0.6,优,#00E400,#00E400,331126001,优,#00E400,丽水市,#00E400,优,34,22,#00E400,25,2026-06-02 20:00:00
27,轻度污染,330782,92,29.305096,优,--,57,29,161,优,#00E400,#00E400,6,江东,#FF7E00,44,优,优,良,330700,#00E400,120.090442,#00E400,29,优,0.8,优,#00E400,#00E400,330782002,优,#00E400,金华市,#00E400,优,44,33,#FFFF00,28,2026-06-02 20:00:00
28,优,330824,51,29.1343,优,--,38,23,99,优,#00E400,#00E400,6,开化气象局,#00E400,45,优,优,优,330800,#00E400,118.402,#00E400,21,优,0.5,优,#00E400,#00E400,330824001,优,#00E400,衢州市,#00E400,优,45,20,#00E400,29,2026-06-02 20:00:00
29,优,331123,59,28.5991,优,--,31,15,96,优,#00E400,#00E400,5,遂昌民政局,#00E400,45,优,优,优,331100,#00E400,119.2622,#00E400,31,优,0.6,优,#00E400,#00E400,331123001,优,#00E400,丽水市,#00E400,优,40,22,#00E400,29,2026-06-02 20:00:00
30,良,331124,68,28.4505,优,--,41,16,102,优,#00E400,#00E400,4,松阳监测楼,#FFFF00,45,优,优,优,331100,#00E400,119.4799,#00E400,31,优,0.5,优,#00E400,#00E400,331124001,优,#00E400,丽水市,#00E400,优,37,31,#00E400,29,2026-06-02 20:00:00
31,轻度污染,330782,112,29.335473,优,--,66,20,165,优,#00E400,#00E400,6,北苑,#FF7E00,46,优,优,良,330700,#00E400,120.078609,#00E400,24,优,0.7,优,#00E400,#FFFF00,330782001,良,#00E400,金华市,#00E400,优,46,38,#FFFF00,32,2026-06-02 20:00:00
32,良,330824,77,29.1478,优,--,37,9,102,优,#00E400,#00E400,9,开化监测大楼,#FFFF00,46,优,优,优,330800,#00E400,118.4108,#00E400,32,优,0.6,优,#00E400,#00E400,330824002,优,#00E400,衢州市,#00E400,优,45,26,#00E400,32,2026-06-02 20:00:00
33,轻度污染,331022,147,29.1028,优,--,39,10,178,优,#00E400,#00E400,5,心湖站,#FF7E00,46,优,优,优,331000,#00E400,121.3918,#00E400,27,优,0.5,优,#00E400,#00E400,331022002,优,#00E400,台州市,#00E400,优,44,26,#00E400,32,2026-06-02 20:00:00
34,轻度污染,330213,150,29.6506,优,--,50,14,191,优,#00E400,#00E400,7,奉化教育局,#FF7E00,47,优,优,优,330200,#00E400,121.4042,#00E400,28,优,0.6,优,#00E400,#00E400,330283005,优,#00E400,宁波市,#00E400,优,42,31,#00E400,35,2026-06-02 20:00:00
35,良,330326,76,27.6593,优,--,41,19,115,优,#00E400,#00E400,10,平阳监测站,#FFFF00,48,优,优,优,330300,#00E400,120.5705,#00E400,21,优,0.9,优,#00E400,#00E400,330326001,优,#00E400,温州市,#00E400,优,48,28,#00E400,36,2026-06-02 20:00:00
36,良,330727,95,29.039869,优,--,41,15,158,优,#00E400,#00E400,6,南园初中,#FFFF00,48,优,优,优,330700,#00E400,120.440622,#00E400,33,优,0.6,优,#00E400,#00E400,330727003,优,#00E400,金华市,#00E400,优,47,28,#00E400,36,2026-06-02 20:00:00
37,良,330122,68,29.7955,优,--,49,23,116,优,#00E400,#00E400,6,桐庐江南,#FFFF00,49,优,优,优,330100,#00E400,119.6874,#00E400,29,优,0.6,优,#00E400,#00E400,330122001,优,#00E400,杭州市,#00E400,优,49,30,#00E400,38,2026-06-02 20:00:00
38,轻度污染,330226,154,29.2878,优,--,44,9,172,优,#00E400,#00E400,7,宁海城南站,#FF7E00,49,优,优,优,330200,#00E400,121.4201,#00E400,23,优,0.4,优,#00E400,#00E400,330226002,优,#00E400,宁波市,#00E400,优,33,29,#00E400,38,2026-06-02 20:00:00
39,良,330382,109,28.0297,优,--,47,12,114,优,#00E400,#00E400,6,柳市,#FFFF00,49,优,优,优,330300,#00E400,120.891,#00E400,23,优,0.6,优,#00E400,#00E400,330382002,优,#00E400,温州市,#00E400,优,49,25,#00E400,38,2026-06-02 20:00:00
40,良,330327,155,27.522222,优,--,44,11,142,优,#00E400,#00E400,12,苍南中学,#FFFF00,49,优,优,优,330300,#00E400,120.416111,#00E400,30,优,1.0,优,#00E400,#00E400,330327004,优,#00E400,温州市,#00E400,优,49,26,#00E400,38,2026-06-02 20:00:00
41,轻度污染,331082,148,28.873,优,--,38,14,162,优,#00E400,#00E400,7,临海环保大楼,#FF7E00,49,优,优,优,331000,#00E400,121.1769,#00E400,27,优,0.7,优,#00E400,#00E400,331082001,优,#00E400,台州市,#00E400,优,49,24,#00E400,38,2026-06-02 20:00:00
42,优,331123,75,28.5839,优,--,32,10,100,优,#00E400,#00E400,4,遂昌中学,#00E400,49,优,优,优,331100,#00E400,119.2656,#00E400,32,优,0.6,优,#00E400,#00E400,331123002,优,#00E400,丽水市,#00E400,优,49,19,#00E400,38,2026-06-02 20:00:00
43,轻度污染,330226,158,29.3125,优,--,44,12,176,优,#00E400,#00E400,6,宁海水利局,#FF7E00,50,优,优,优,330200,#00E400,121.4306,#00E400,24,优,0.4,优,#00E400,#00E400,330226001,优,#00E400,宁波市,#00E400,优,40,28,#00E400,44,2026-06-02 20:00:00
44,轻度污染,330482,142,30.6937,优,--,37,11,193,优,#00E400,#00E400,8,平湖幼儿园,#FF7E00,50,优,优,优,330400,#00E400,121.0259,#00E400,32,优,0.6,优,#00E400,#00E400,330482001,优,#00E400,嘉兴市,#00E400,优,50,26,#00E400,44,2026-06-02 20:00:00
45,轻度污染,330723,142,28.896108,优,--,46,12,166,优,#00E400,#00E400,8,武义县政府,#FF7E00,50,优,优,优,330700,#00E400,119.811352,#00E400,35,优,0.7,优,#00E400,#00E400,330723001,优,#00E400,金华市,#00E400,优,44,31,#00E400,44,2026-06-02 20:00:00
46,良,331122,84,28.6574,优,--,44,26,134,优,#00E400,#00E400,8,缙云中学,#FFFF00,50,优,优,优,331100,#00E400,120.0696,#00E400,35,优,0.7,优,#00E400,#00E400,331122001,优,#00E400,丽水市,#00E400,优,48,29,#00E400,44,2026-06-02 20:00:00
47,轻度污染,330723,130,28.9178,优,--,47,16,166,优,#00E400,#00E400,9,武义北岭幼儿园,#FF7E00,50,优,优,优,330700,#00E400,119.8022,#00E400,35,优,0.8,优,#00E400,#00E400,330723003,优,#00E400,金华市,#00E400,优,40,33,#00E400,44,2026-06-02 20:00:00
48,良,330324,96,28.044335,优,PM₁₀,58,24,138,优,#FFFF00,#00E400,8,瓯北,#FFFF00,51,优,良,良,330300,#00E400,120.654963,#00E400,20,良,0.7,优,#00E400,#00E400,330324002,优,#FFFF00,温州市,#00E400,优,51,30,#FFFF00,49,2026-06-02 20:00:00
49,优,330328,55,27.804722,优,PM₂.₅,35,7,88,优,#00E400,#FFFF00,7,文成中学,#00E400,52,优,良,优,330300,#00E400,120.077222,#00E400,36,优,0.5,良,#00E400,#00E400,330328002,优,#FFFF00,温州市,#00E400,优,43,26,#00E400,50,2026-06-02 20:00:00
50,轻度污染,330482,128,30.7292,优,PM₁₀,37,15,170,优,#FFFF00,#00E400,9,陆家桥村,#FF7E00,52,优,良,优,330400,#00E400,120.9953,#00E400,34,良,0.8,优,#00E400,#00E400,330482002,优,#FFFF00,嘉兴市,#00E400,优,52,26,#00E400,50,2026-06-02 20:00:00
51,轻度污染,330727,110,29.051486,优,PM₁₀,47,15,161,优,#FFFF00,#00E400,8,国税大楼,#FF7E00,52,优,良,优,330700,#00E400,120.438346,#00E400,30,良,0.6,优,#00E400,#00E400,330727002,优,#FFFF00,金华市,#00E400,优,52,28,#00E400,50,2026-06-02 20:00:00
52,良,330381,95,27.791645,优,PM₁₀,50,21,125,优,#FFFF00,#00E400,7,花园桥,#FFFF00,53,优,良,优,330300,#00E400,120.62372,#00E400,24,良,0.5,优,#00E400,#00E400,330381001,优,#FFFF00,温州市,#00E400,优,53,27,#00E400,53,2026-06-02 20:00:00
53,良,330825,94,29.0392,优,PM₁₀,54,35,127,优,#FFFF00,#00E400,6,建设大楼,#FFFF00,53,优,良,良,330800,#00E400,119.1675,#00E400,35,良,0.6,优,#00E400,#00E400,330825001,优,#FFFF00,衢州市,#00E400,优,54,35,#FFFF00,53,2026-06-02 20:00:00
54,良,330825,91,29.0464,优,PM₁₀,61,23,135,优,#FFFF00,#00E400,5,龙游二高,#FFFF00,53,优,良,良,330800,#00E400,119.204,#00E400,27,良,0.5,优,#00E400,#00E400,330825002,优,#FFFF00,衢州市,#00E400,优,54,34,#FFFF00,53,2026-06-02 20:00:00
55,良,330383,120,27.5617,优,PM₁₀,44,12,132,优,#FFFF00,#00E400,7,龙港实验中学,#FFFF00,53,优,良,优,330300,#00E400,120.5355,#00E400,32,良,0.7,优,#00E400,#00E400,330303101,优,#FFFF00,温州市,#00E400,优,53,28,#00E400,53,2026-06-02 20:00:00
56,良,330225,154,29.4767,优,PM₂.₅,36,10,159,优,#00E400,#FFFF00,9,文峰小学,#FFFF00,54,优,良,优,330200,#00E400,121.8864,#00E400,37,优,0.4,良,#00E400,#00E400,330225001,优,#FFFF00,宁波市,#00E400,优,43,30,#00E400,57,2026-06-02 20:00:00
57,良,331024,102,28.8589,优,PM₁₀,44,11,122,优,#FFFF00,#00E400,8,仙居环监站,#FFFF00,54,优,良,优,331000,#00E400,120.7248,#00E400,35,良,0.6,优,#00E400,#00E400,331024001,优,#FFFF00,台州市,#00E400,优,55,25,#00E400,57,2026-06-02 20:00:00
58,良,331121,136,28.1341,优,PM₁₀,50,15,123,优,#FFFF00,#00E400,6,塔山小学,#FFFF00,54,优,良,优,331100,#00E400,120.2936,#00E400,30,良,0.6,优,#00E400,#00E400,331121001,优,#FFFF00,丽水市,#00E400,优,55,29,#00E400,57,2026-06-02 20:00:00
59,轻度污染,330110,99,30.2635,优,PM₁₀,52,27,161,优,#FFFF00,#FFFF00,9,海辰小学,#FF7E00,54,优,良,良,330100,#00E400,119.9842,#00E400,36,良,0.6,良,#00E400,#00E400,2013301100001,优,#FFFF00,杭州市,#00E400,优,55,32,#FFFF00,57,2026-06-02 20:00:00
60,良,330803,105,28.9844,优,PM₁₀,58,13,122,优,#FFFF00,#00E400,7,衢州三中（市）,#FFFF00,56,优,良,良,330800,#00E400,118.9628,#00E400,32,良,0.6,优,#00E400,#00E400,330803704,优,#FFFF00,衢州市,#00E400,优,58,35,#FFFF00,61,2026-06-02 20:00:00
61,良,330726,108,29.465746,优,PM₁₀,46,13,132,优,#FFFF00,#FFFF00,6,浦江实验中学,#FFFF00,56,优,良,优,330700,#00E400,119.875227,#00E400,37,良,0.8,良,#00E400,#00E400,330726001,优,#FFFF00,金华市,#00E400,优,58,31,#00E400,61,2026-06-02 20:00:00
62,轻度污染,330213,165,29.693,优,O₃,53,13,192,良,#FFFF00,#00E400,7,溪口政府大楼,#FF7E00,57,优,良,良,330200,#00E400,121.2774,#00E400,34,良,0.5,优,#00E400,#00E400,330283T_1,优,#FFFF00,宁波市,#FFFF00,优,54,35,#FFFF00,63,2026-06-02 20:00:00
63,轻度污染,330212,165,29.7736,优,O₃,48,11,214,良,#00E400,#00E400,5,钱湖水厂,#FF7E00,57,优,良,优,330200,#00E400,121.6330,#00E400,28,优,0.5,优,#00E400,#00E400,2013302120001,优,#FFFF00,宁波市,#FFFF00,优,44,32,#00E400,63,2026-06-02 20:00:00
64,良,330726,116,29.439787,优,PM₂.₅,48,18,128,优,#FFFF00,#FFFF00,4,浦江中学,#FFFF00,58,优,良,优,330700,#00E400,119.924638,#00E400,39,良,0.7,良,#00E400,#FFFF00,330726002,良,#FFFF00,金华市,#00E400,优,56,36,#00E400,65,2026-06-02 20:00:00
65,轻度污染,330784,120,28.8854,优,PM₁₀,66,19,162,优,#FFFF00,#00E400,7,永康一中,#FF7E00,58,优,良,良,330700,#00E400,120.0439,#00E400,31,良,0.8,优,#00E400,#00E400,330784001,优,#FFFF00,金华市,#00E400,优,60,33,#FFFF00,65,2026-06-02 20:00:00
66,良,331122,72,28.6628,优,PM₁₀,48,43,130,优,#FFFF00,#00E400,7,信访大楼,#FFFF00,58,优,良,优,331100,#00E400,120.0856,#00E400,33,良,0.7,优,#00E400,#00E400,331122002,优,#FFFF00,丽水市,#00E400,优,61,27,#00E400,65,2026-06-02 20:00:00
67,轻度污染,330282,165,30.1636,优,PM₂.₅,36,27,186,良,#00E400,#FFFF00,5,慈溪环保大楼,#FF7E00,60,优,良,优,330200,#00E400,121.2677,#00E400,40,优,0.7,良,#00E400,#00E400,330282001,优,#FFFF00,宁波市,#FFFF00,优,35,25,#00E400,68,2026-06-02 20:00:00
68,良,330784,137,28.90016,优,PM₁₀,71,10,144,优,#FFFF00,#00E400,8,西城供电所,#FFFF00,60,优,良,良,330700,#00E400,120.01452,#00E400,35,良,0.7,优,#00E400,#FFFF00,330784002,良,#FFFF00,金华市,#00E400,优,63,36,#FFFF00,68,2026-06-02 20:00:00
69,良,331023,157,29.1504,优,PM₂.₅,42,13,155,优,#FFFF00,#FFFF00,6,育青中学,#FFFF00,60,优,良,优,331000,#00E400,121.0091,#00E400,40,良,0.6,良,#00E400,#00E400,331023001,优,#FFFF00,台州市,#00E400,优,58,31,#00E400,68,2026-06-02 20:00:00
70,轻度污染,331082,143,28.84326,优,PM₁₀,45,15,165,优,#FFFF00,#FFFF00,6,巾山实验小学,#FF7E00,60,优,良,优,331000,#00E400,121.136,#00E400,36,良,0.5,良,#00E400,#00E400,331082002,优,#FFFF00,台州市,#00E400,优,64,29,#00E400,68,2026-06-02 20:00:00
71,优,331181,47,28.08007,优,PM₁₀,47,16,75,优,#FFFF00,#FFFF00,8,龙泉环保大楼,#00E400,60,优,良,优,331100,#00E400,119.1328,#00E400,38,良,0.6,良,#00E400,#00E400,331181001,优,#FFFF00,丽水市,#00E400,优,63,25,#00E400,68,2026-06-02 20:00:00
72,轻度污染,330782,74,29.3686,优,PM₁₀,63,49,172,优,#FFFF00,#00E400,8,第五中学,#FF7E00,60,优,良,良,330700,#00E400,120.1345,#00E400,33,良,0.8,优,#00E400,#00E400,330782003,优,#FFFF00,金华市,#00E400,优,63,34,#FFFF00,68,2026-06-02 20:00:00
73,良,330383,103,27.5812,优,PM₁₀,47,28,132,优,#FFFF00,#FFFF00,10,龙港,#FFFF00,61,优,良,优,330300,#00E400,120.5489,#00E400,39,良,0.7,良,#00E400,#00E400,330327002,优,#FFFF00,温州市,#00E400,优,65,29,#00E400,74,2026-06-02 20:00:00
74,轻度污染,330483,163,30.6488,优,PM₁₀,43,15,173,良,#FFFF00,#FFFF00,7,茅盾小学,#FF7E00,62,优,良,优,330400,#00E400,120.5498,#00E400,38,良,0.6,良,#00E400,#00E400,330483001,优,#FFFF00,嘉兴市,#FFFF00,优,66,27,#00E400,75,2026-06-02 20:00:00
75,优,331125,29,28.1062,优,PM₂.₅,43,28,67,优,#FFFF00,#FFFF00,6,云和三中,#00E400,62,优,良,优,331100,#00E400,119.5728,#00E400,41,良,0.6,良,#00E400,#00E400,331125002,优,#FFFF00,丽水市,#00E400,优,62,24,#00E400,75,2026-06-02 20:00:00
76,良,331121,120,28.1094,优,PM₁₀,46,38,128,优,#FFFF00,#FFFF00,6,青田中学,#FFFF00,63,优,良,优,331100,#00E400,120.3161,#00E400,38,良,0.7,良,#00E400,#00E400,331121002,优,#FFFF00,丽水市,#00E400,优,67,29,#00E400,77,2026-06-02 20:00:00
77,良,330122,59,29.8058,优,PM₂.₅,48,19,115,优,#FFFF00,#FFFF00,6,桐庐江北,#FFFF00,64,优,良,优,330100,#00E400,119.669,#00E400,42,良,0.6,良,#00E400,#00E400,330122002,优,#FFFF00,杭州市,#00E400,优,67,28,#00E400,78,2026-06-02 20:00:00
78,良,330783,84,29.30093,优,PM₂.₅,58,35,150,优,#FFFF00,#FFFF00,7,广厦学院,#FFFF00,64,优,良,良,330700,#00E400,120.24157,#00E400,42,良,0.8,良,#00E400,#00E400,330783001,优,#FFFF00,金华市,#00E400,优,64,30,#FFFF00,78,2026-06-02 20:00:00
79,轻度污染,330282,174,30.1786,优,O₃,39,24,191,良,#FFFF00,#FFFF00,4,慈溪实验小学,#FF7E00,68,优,良,优,330200,#00E400,121.2525,#00E400,36,良,0.7,良,#00E400,#00E400,330282002,优,#FFFF00,宁波市,#FFFF00,优,61,24,#00E400,80,2026-06-02 20:00:00
80,轻度污染,330421,129,30.836,优,PM₂.₅,46,18,172,优,#FFFF00,#FFFF00,8,嘉善监测大楼,#FF7E00,68,优,良,优,330400,#00E400,120.9226,#00E400,44,良,0.5,良,#00E400,#00E400,330421001,优,#FFFF00,嘉兴市,#00E400,优,70,30,#00E400,80,2026-06-02 20:00:00
81,轻度污染,330421,132,30.8307,优,PM₁₀,46,21,193,优,#FFFF00,#FFFF00,10,气象观测台,#FF7E00,68,优,良,优,330400,#00E400,120.9356,#00E400,37,良,0.6,良,#00E400,#00E400,330421002,优,#FFFF00,嘉兴市,#00E400,优,74,28,#00E400,80,2026-06-02 20:00:00
82,轻度污染,330683,133,29.5901,优,PM₁₀,55,35,183,优,#FFFF00,#FFFF00,7,马寅初初中,#FF7E00,68,优,良,良,330600,#00E400,120.8249,#00E400,38,良,0.5,良,#00E400,#FFFF00,330683001,良,#FFFF00,绍兴市,#00E400,优,75,38,#FFFF00,80,2026-06-02 20:00:00
83,轻度污染,330483,174,30.7369,优,O₃,49,18,210,良,#FFFF00,#FFFF00,8,植材小学,#FF7E00,68,优,良,优,330400,#00E400,120.4902,#00E400,43,良,0.8,良,#00E400,#00E400,330483509,优,#FFFF00,嘉兴市,#FFFF00,优,60,35,#00E400,80,2026-06-02 20:00:00
84,良,330782,77,29.2637,优,PM₁₀,67,37,155,优,#FFFF00,#FFFF00,7,儿童公园,#FFFF00,69,优,良,良,330700,#00E400,120.0321,#00E400,39,良,0.6,良,#00E400,#FFFF00,330782004,良,#FFFF00,金华市,#00E400,优,76,39,#FFFF00,85,2026-06-02 20:00:00
85,良,330324,106,28.158269,优,PM₁₀,52,18,160,优,#FFFF00,#FFFF00,8,上塘,#FFFF00,70,优,良,良,330300,#00E400,120.694244,#00E400,42,良,0.6,良,#00E400,#00E400,330324001,优,#FFFF00,温州市,#00E400,优,77,33,#FFFF00,86,2026-06-02 20:00:00
86,轻度污染,330681,86,29.726389,优,PM₂.₅,54,26,173,优,#FFFF00,#FFFF00,7,青少年宫,#FF7E00,70,优,良,良,330600,#00E400,120.199722,#00E400,45,良,0.7,良,#00E400,#FFFF00,330681002,良,#FFFF00,绍兴市,#00E400,优,57,37,#FFFF00,86,2026-06-02 20:00:00
87,轻度污染,330213,177,29.6774,优,O₃,58,16,208,良,#FFFF00,#FFFF00,8,大桥市场,#FF7E00,72,优,良,良,330200,#00E400,121.4237,#00E400,36,良,0.7,良,#00E400,#FFFF00,330213001,良,#FFFF00,宁波市,#FFFF00,优,55,38,#FFFF00,88,2026-06-02 20:00:00
88,轻度污染,330281,177,30.0358,优,O₃,50,33,202,良,#00E400,#FFFF00,7,姚江小学,#FF7E00,72,优,良,优,330200,#00E400,121.1221,#00E400,37,优,0.7,良,#00E400,#FFFF00,330281002,良,#FFFF00,宁波市,#FFFF00,优,48,41,#00E400,88,2026-06-02 20:00:00
89,轻度污染,330683,131,29.5663,优,PM₂.₅,56,37,166,优,#FFFF00,#FFFF00,2,丽湖小区,#FF7E00,72,优,良,良,330600,#00E400,120.8173,#00E400,46,良,0.6,良,#00E400,#FFFF00,330683002,良,#FFFF00,绍兴市,#00E400,优,60,44,#FFFF00,88,2026-06-02 20:00:00
90,良,330483,145,30.625,优,PM₂.₅,48,19,156,优,#FFFF00,#FFFF00,7,振东新六中站,#FFFF00,74,优,良,优,330400,#00E400,120.5613,#00E400,47,良,0.6,良,#00E400,#00E400,330483002,优,#FFFF00,嘉兴市,#00E400,优,68,29,#00E400,91,2026-06-02 20:00:00
91,轻度污染,330523,131,30.6422,优,PM₂.₅,52,21,165,优,#FFFF00,#FFFF00,8,安吉实验小学,#FF7E00,74,优,良,良,330500,#00E400,119.6768,#00E400,47,良,0.7,良,#00E400,#00E400,330523001,优,#FFFF00,湖州市,#00E400,优,63,34,#FFFF00,91,2026-06-02 20:00:00
92,--,331023,159,29.1342,优,PM₂.₅,--,15,--,优,#FFFF00,#FFFF00,7,天台实验中学,--,74,优,良,--,331000,#00E400,121.0349,#00E400,47,良,0.7,良,#00E400,--,331023002,--,#FFFF00,台州市,#00E400,优,69,--,--,91,2026-06-02 20:00:00
93,优,330328,38,27.7838,优,PM₁₀,47,36,91,优,#FFFF00,#FFFF00,5,大峃,#00E400,75,优,良,优,330300,#00E400,120.085,#00E400,41,良,0.7,良,#00E400,#00E400,330328001,优,#FFFF00,温州市,#00E400,优,85,27,#00E400,94,2026-06-02 20:00:00
94,轻度污染,330681,148,29.7257,优,PM₂.₅,58,22,196,优,#FFFF00,#FFFF00,8,城新小学,#FF7E00,76,优,良,良,330600,#00E400,120.272,#00E400,48,良,0.5,良,#00E400,#FFFF00,330681505,良,#FFFF00,绍兴市,#00E400,优,73,38,#FFFF00,95,2026-06-02 20:00:00
95,轻度污染,330481,170,30.5137,优,PM₂.₅,41,21,197,良,#FFFF00,#FFFF00,11,硖石街道,#FF7E00,76,优,良,优,330400,#00E400,120.7082,#00E400,48,良,0.6,良,#00E400,#00E400,330481002,优,#FFFF00,嘉兴市,#FFFF00,优,75,27,#00E400,95,2026-06-02 20:00:00
96,良,330881,113,28.7465,优,PM₂.₅,54,14,123,优,#FFFF00,#FFFF00,17,江山环保大楼,#FFFF00,76,优,良,良,330800,#00E400,118.6301,#00E400,48,良,0.8,良,#00E400,#00E400,330881001,优,#FFFF00,衢州市,#00E400,优,71,34,#FFFF00,95,2026-06-02 20:00:00
97,轻度污染,330281,181,30.0497,优,O₃,49,23,196,良,#FFFF00,#FFFF00,7,龙山公园,#FF7E00,77,优,良,优,330200,#00E400,121.1475,#00E400,38,良,0.7,良,#00E400,#00E400,330281001,优,#FFFF00,宁波市,#FFFF00,优,60,35,#00E400,98,2026-06-02 20:00:00
98,轻度污染,330624,127,29.5036,优,PM₂.₅,58,27,188,优,#FFFF00,#FFFF00,5,钟楼站,#FF7E00,78,优,良,良,330600,#00E400,120.8938,#00E400,49,良,0.7,良,#00E400,#FFFF00,330624001,良,#FFFF00,绍兴市,#00E400,优,86,38,#FFFF00,99,2026-06-02 20:00:00
99,轻度污染,330483,182,30.6355,优,O₃,42,12,194,良,#FFFF00,#FFFF00,10,文化中心,#FF7E00,78,优,良,优,330400,#00E400,120.5795,#00E400,37,良,0.7,良,#00E400,#00E400,330483003,优,#FFFF00,嘉兴市,#FFFF00,优,58,29,#00E400,99,2026-06-02 20:00:00
100,轻度污染,330624,132,29.4938,优,PM₂.₅,53,30,203,优,#FFFF00,#FFFF00,5,城东站,#FF7E00,82,优,良,良,330600,#00E400,120.9109,#00E400,51,良,0.7,良,#00E400,#00E400,330624002,优,#FFFF00,绍兴市,#00E400,优,75,35,#FFFF00,101,2026-06-02 20:00:00
101,轻度污染,330521,188,30.5231,优,O₃,44,18,191,良,#FFFF00,#FFFF00,9,地信科创园,#FF7E00,85,优,良,优,330500,#00E400,119.9781,#00E400,37,良,0.6,良,#00E400,#00E400,330521001,优,#FFFF00,湖州市,#FFFF00,优,59,32,#00E400,102,2026-06-02 20:00:00
102,轻度污染,330681,119,29.6818,优,PM₂.₅,50,15,186,优,#FFFF00,#FFFF00,5,杨树畈,#FF7E00,86,优,良,优,330600,#00E400,120.2359,#00E400,53,良,0.5,良,#00E400,#FFFF00,330681001,良,#FFFF00,绍兴市,#00E400,优,62,41,#00E400,103,2026-06-02 20:00:00
103,轻度污染,330521,127,30.548493,优,PM₂.₅,52,51,181,优,#FFFF00,#FFFF00,9,春晖小学,#FF7E00,90,优,良,良,330500,#00E400,119.9505,#00E400,55,良,0.7,良,#00E400,#FFFF00,330521003,良,#FFFF00,湖州市,#00E400,优,77,36,#FFFF00,104,2026-06-02 20:00:00
104,轻度污染,330522,193,31.0263,优,O₃,59,17,204,良,#FFFF00,#FFFF00,7,龙山新区,#FF7E00,92,优,良,良,330500,#00E400,119.9046,#00E400,38,良,0.5,良,#00E400,#FFFF00,330522002,良,#FFFF00,湖州市,#FFFF00,优,58,37,#FFFF00,105,2026-06-02 20:00:00
105,轻度污染,330481,185,30.5261,优,PM₂.₅,46,19,194,良,#FFFF00,#FF7E00,9,海宁监测大楼,#FF7E00,101,优,轻度污染,优,330400,#00E400,120.6739,#00E400,61,良,0.4,轻度污染,#00E400,#00E400,330481001,优,#FF7E00,嘉兴市,#FFFF00,优,106,26,#00E400,106,2026-06-02 20:00:00
106,优,330881,95,28.7282,优,PM₂.₅,52,18,100,优,#FFFF00,#FF7E00,7,人民医院,#00E400,103,优,轻度污染,良,330800,#00E400,118.6227,#00E400,63,良,0.7,轻度污染,#00E400,#FFFF00,330881002,良,#FF7E00,衢州市,#00E400,优,67,37,#FFFF00,107,2026-06-02 20:00:00
107,轻度污染,330481,187,30.5524,优,PM₂.₅,43,28,208,良,#FFFF00,#FF7E00,9,胜利社区,#FF7E00,103,优,轻度污染,优,330400,#00E400,120.6713,#00E400,63,良,0.7,轻度污染,#00E400,#00E400,330481003,优,#FF7E00,嘉兴市,#FFFF00,优,106,26,#00E400,107,2026-06-02 20:00:00
108,中度污染,330522,207,31.0143,优,O₃,54,16,218,轻度污染,#FFFF00,#FFFF00,5,职教中心,#FF0000,104,优,轻度污染,良,330500,#00E400,119.8935,#00E400,40,良,0.4,良,#00E400,#FFFF00,330522001,良,#FF7E00,湖州市,#FF7E00,优,58,38,#FFFF00,109,2026-06-02 20:00:00
109,优,330127,76,29.605,优,--,36,11,98,优,#00E400,#00E400,--,老年活动中心,#00E400,--,优,--,优,330100,--,119.0372,#00E400,25,优,0.5,优,#00E400,#00E400,330127T_4,优,--,杭州市,#00E400,--,37,24,#00E400,110,2026-06-02 20:00:00
110,--,330326,--,27.6653,--,--,--,--,--,--,--,--,--,平阳县政府,--,--,--,--,--,330300,--,120.5611,--,--,--,--,--,--,--,330326002,--,--,温州市,--,--,--,--,--,110,2026-06-02 20:00:00
111,良,330327,143,27.503889,优,--,43,12,132,优,#FFFF00,#FFFF00,--,灵溪,#FFFF00,--,优,--,优,330300,--,120.395278,#00E400,37,良,1.0,良,#00E400,#00E400,330327001,优,--,温州市,#00E400,--,51,28,#00E400,110,2026-06-02 20:00:00
112,--,330523,--,30.5974,--,--,--,--,--,--,--,--,--,安吉城东,--,--,--,--,--,330500,--,119.6953,--,--,--,--,--,--,--,330523002,--,--,湖州市,--,--,--,--,--,110,2026-06-02 20:00:00
113,良,330822,--,28.901,优,--,43,--,110,--,#FFFF00,#FFFF00,--,常山环保大楼,#FFFF00,--,--,--,优,330800,--,118.5196,--,41,良,0.7,良,#00E400,#00E400,330822001,优,--,衢州市,--,--,69,23,#00E400,110,2026-06-02 20:00:00
114,良,330822,--,28.9012,--,--,42,--,118,--,#00E400,#00E400,--,图书馆大楼,#FFFF00,--,--,--,优,330800,--,118.5062,--,30,优,--,优,--,#00E400,330822002,优,--,衢州市,--,--,48,24,#00E400,110,2026-06-02 20:00:00
115,--,330922,--,30.7269,--,--,--,--,--,--,--,--,--,嵊泗菜园,--,--,--,--,--,330900,--,122.4464,--,--,--,--,--,--,--,330922001,--,--,舟山市,--,--,--,--,--,110,2026-06-02 20:00:00
116,良,330921,75,30.2517,优,--,22,20,118,优,#00E400,#00E400,--,岱山高亭,#FFFF00,--,优,--,优,330900,--,122.1958,#00E400,16,优,0.3,优,#00E400,#00E400,330921002,优,--,舟山市,#00E400,--,32,13,#00E400,110,2026-06-02 20:00:00
117,优,331127,38,27.9772,优,--,25,--,63,优,#00E400,#00E400,--,景宁县政府,#00E400,--,--,--,优,331100,--,119.6311,--,23,优,0.5,优,#00E400,#00E400,331127002,优,--,丽水市,#00E400,--,29,19,#00E400,110,2026-06-02 20:00:00
