,O3H8_level,regioncode,O3,latitude,CO_level,SYWRW,PM10H24,NO2,O3H8,O3_level,PM10_color,PM25_color,SO2,sitename,O3H8_color,AQI,NO2_level,AQI_level,PM10H24_level,districtcode,SO2_color,longitude,NO2_color,PM25,PM10_level,CO,PM25_level,CO_color,PM25H24_color,sitecode,PM25H24_level,AQI_color,districtname,O3_color,SO2_level,PM10,PM25H24,PM10H24_color,sort,time
0,良,331083,73,28.2221,优,--,31,14,115,优,#00E400,#00E400,6,楚门中心小学,#FFFF00,23,优,优,优,331000,#00E400,121.2846,#00E400,12,优,0.7,优,#00E400,#00E400,331021002,优,#00E400,台州市,#00E400,优,23,19,#00E400,1,2026-06-02 19:00:00
1,良,330921,67,30.2669,优,--,30,41,106,优,#00E400,#00E400,6,岱山环保大楼,#FFFF00,24,优,优,优,330900,#00E400,122.2199,#00E400,13,优,0.4,优,#00E400,#00E400,330921001,优,#00E400,舟山市,#00E400,优,24,18,#00E400,2,2026-06-02 19:00:00
2,良,331081,86,28.39136,优,--,30,8,155,优,#00E400,#00E400,4,之江高级中学,#FFFF00,27,优,优,优,331000,#00E400,121.37696,#00E400,15,优,0.5,优,#00E400,#00E400,331081002,优,#00E400,台州市,#00E400,优,23,18,#00E400,3,2026-06-02 19:00:00
3,良,331124,84,28.4516,优,--,40,9,110,优,#00E400,#00E400,5,和平水厂,#FFFF00,29,优,优,优,331100,#00E400,119.4699,#00E400,16,优,0.7,优,#00E400,#00E400,331124002,优,#00E400,丽水市,#00E400,优,29,22,#00E400,4,2026-06-02 19:00:00
4,优,331127,34,28.002222,优,--,29,18,67,优,#00E400,#00E400,4,红星小学,#00E400,35,优,优,优,331100,#00E400,119.636389,#00E400,23,优,0.5,优,#00E400,#00E400,331127003,优,#00E400,丽水市,#00E400,优,35,18,#00E400,5,2026-06-02 19:00:00
5,良,330781,112,29.216166,优,--,50,11,138,优,#00E400,#00E400,7,兰溪监测站,#FFFF00,35,优,优,优,330700,#00E400,119.459992,#00E400,24,优,0.7,优,#00E400,#00E400,330781001,优,#00E400,金华市,#00E400,优,35,32,#00E400,5,2026-06-02 19:00:00
6,优,331125,37,28.1173,优,--,30,14,70,优,#00E400,#00E400,5,云和监测楼,#00E400,35,优,优,优,331100,#00E400,119.5626,#00E400,24,优,0.5,优,#00E400,#00E400,331125001,优,#00E400,丽水市,#00E400,优,31,22,#00E400,5,2026-06-02 19:00:00
7,优,330127,70,29.5995,优,--,--,6,86,优,#00E400,#00E400,9,淳安环保大楼,#00E400,36,优,优,--,330100,#00E400,119.0481,#00E400,25,优,0.4,优,#00E400,#00E400,330127001,优,#00E400,杭州市,#00E400,优,34,27,--,8,2026-06-02 19:00:00
8,优,330329,101,27.5438,优,--,30,8,95,优,#00E400,#00E400,8,泰顺实验中学,#00E400,36,优,优,优,330300,#00E400,119.716111,#00E400,21,优,0.5,优,#00E400,#00E400,330329002,优,#00E400,温州市,#00E400,优,36,19,#00E400,8,2026-06-02 19:00:00
9,良,331083,114,28.12715,优,--,--,7,110,优,#00E400,#00E400,11,玉环环监站,#FFFF00,36,优,优,--,331000,#00E400,121.2339,#00E400,17,优,0.6,优,#00E400,#00E400,331021001,优,#00E400,台州市,#00E400,优,32,28,--,8,2026-06-02 19:00:00
10,优,331126,54,27.6211,优,--,26,8,80,优,#00E400,#00E400,5,庆元气象局,#00E400,36,优,优,优,331100,#00E400,119.0788,#00E400,25,优,0.8,优,#00E400,#00E400,331126002,优,#00E400,丽水市,#00E400,优,35,19,#00E400,8,2026-06-02 19:00:00
11,良,330182,78,29.4638,优,--,37,18,121,优,#00E400,#00E400,4,第二中学,#FFFF00,37,优,优,优,330100,#00E400,119.2821,#00E400,25,优,0.6,优,#00E400,#00E400,330182002,优,#00E400,杭州市,#00E400,优,37,26,#00E400,12,2026-06-02 19:00:00
12,良,330781,109,29.229931,优,--,48,12,135,优,#00E400,#00E400,6,兰溪八中,#FFFF00,37,优,优,优,330700,#00E400,119.475172,#00E400,21,优,0.7,优,#00E400,#00E400,330781002,优,#00E400,金华市,#00E400,优,37,33,#00E400,12,2026-06-02 19:00:00
13,良,331081,71,28.37558,优,--,29,14,124,优,#00E400,#00E400,6,温岭环监站,#FFFF00,37,优,优,优,331000,#00E400,121.36579,#00E400,16,优,0.5,优,#00E400,#00E400,331081001,优,#00E400,台州市,#00E400,优,37,21,#00E400,12,2026-06-02 19:00:00
14,优,330305,81,27.8342,优,--,23,5,78,优,#00E400,#00E400,8,洞头气象局,#00E400,38,优,优,优,330300,#00E400,121.1502,#00E400,26,优,0.3,优,#00E400,#00E400,330305001,优,#00E400,温州市,#00E400,优,30,13,#00E400,15,2026-06-02 19:00:00
15,轻度污染,330783,122,29.27739,优,--,74,12,162,优,#00E400,#00E400,6,东阳环保大楼,#FF7E00,39,优,优,良,330700,#00E400,120.23692,#00E400,25,优,0.7,优,#00E400,#FFFF00,330783002,良,#00E400,金华市,#00E400,优,39,46,#FFFF00,16,2026-06-02 19:00:00
16,良,330822,93,28.901,优,--,42,20,110,优,#00E400,#00E400,9,常山环保大楼,#FFFF00,39,优,优,优,330800,#00E400,118.5196,#00E400,21,优,0.7,优,#00E400,#00E400,330822001,优,#00E400,衢州市,#00E400,优,39,22,#00E400,16,2026-06-02 19:00:00
17,优,331181,67,28.076,优,--,33,11,82,优,#00E400,#00E400,9,粮食大楼,#00E400,39,优,优,优,331100,#00E400,119.1217,#00E400,27,优,0.7,优,#00E400,#00E400,331181002,优,#00E400,丽水市,#00E400,优,39,23,#00E400,16,2026-06-02 19:00:00
18,优,331127,37,27.9772,优,--,25,25,68,优,#00E400,#00E400,4,景宁县政府,#00E400,39,优,优,优,331100,#00E400,119.6311,#00E400,27,优,0.5,优,#00E400,#00E400,331127002,优,#00E400,丽水市,#00E400,优,33,19,#00E400,16,2026-06-02 19:00:00
19,良,330182,67,29.4769,优,--,40,10,113,优,#00E400,#00E400,6,建德监测大楼,#FFFF00,40,优,优,优,330100,#00E400,119.2711,#00E400,25,优,0.7,优,#00E400,#00E400,330182T_2,优,#00E400,杭州市,#00E400,优,40,25,#00E400,20,2026-06-02 19:00:00
20,良,330225,126,29.2003,优,--,36,22,151,优,#00E400,#00E400,8,石浦新港小学,#FFFF00,40,优,优,优,330200,#00E400,121.934,#00E400,23,优,0.5,优,#00E400,#00E400,330225002,优,#00E400,宁波市,#00E400,优,32,22,#00E400,20,2026-06-02 19:00:00
21,良,330382,126,28.1209,优,--,40,13,136,优,#00E400,#00E400,6,乐成,#FFFF00,40,优,优,优,330300,#00E400,120.9659,#00E400,22,优,0.7,优,#00E400,#00E400,330382001,优,#00E400,温州市,#00E400,优,36,27,#00E400,20,2026-06-02 19:00:00
22,良,331123,92,28.5839,优,--,31,8,105,优,#00E400,#00E400,4,遂昌中学,#FFFF00,40,优,优,优,331100,#00E400,119.2656,#00E400,24,优,0.6,优,#00E400,#00E400,331123002,优,#00E400,丽水市,#00E400,优,40,18,#00E400,20,2026-06-02 19:00:00
23,优,331126,46,27.629585,优,--,28,12,78,优,#00E400,#00E400,5,庆元监测楼,#00E400,40,优,优,优,331100,#00E400,119.054809,#00E400,28,优,0.6,优,#00E400,#00E400,331126001,优,#00E400,丽水市,#00E400,优,34,21,#00E400,20,2026-06-02 19:00:00
24,良,330122,87,29.7955,优,--,49,15,128,优,#00E400,#00E400,6,桐庐江南,#FFFF00,41,优,优,优,330100,#00E400,119.6874,#00E400,24,优,0.5,优,#00E400,#00E400,330122001,优,#00E400,杭州市,#00E400,优,41,30,#00E400,25,2026-06-02 19:00:00
25,轻度污染,330782,118,29.335473,优,--,66,19,180,优,#00E400,#00E400,6,北苑,#FF7E00,41,优,优,良,330700,#00E400,120.078609,#00E400,22,优,0.7,优,#00E400,#FFFF00,330782001,良,#00E400,金华市,#00E400,优,41,39,#FFFF00,25,2026-06-02 19:00:00
26,轻度污染,330782,108,29.305096,优,--,57,19,176,优,#00E400,#00E400,6,江东,#FF7E00,41,优,优,良,330700,#00E400,120.090442,#00E400,25,优,0.8,优,#00E400,#00E400,330782002,优,#00E400,金华市,#00E400,优,41,33,#FFFF00,25,2026-06-02 19:00:00
27,良,330381,110,27.782284,优,--,41,19,135,优,#00E400,#00E400,10,安阳新区,#FFFF00,42,优,优,优,330300,#00E400,120.650915,#00E400,22,优,0.7,优,#00E400,#00E400,330381002,优,#00E400,温州市,#00E400,优,42,24,#00E400,28,2026-06-02 19:00:00
28,优,330329,86,27.557,优,--,29,12,91,优,#00E400,#00E400,7,罗阳,#00E400,42,优,优,优,330300,#00E400,119.7084,#00E400,24,优,0.6,优,#00E400,#00E400,330329001,优,#00E400,温州市,#00E400,优,42,18,#00E400,28,2026-06-02 19:00:00
29,轻度污染,330783,128,29.30093,优,--,58,10,167,优,#00E400,#00E400,6,广厦学院,#FF7E00,42,优,优,良,330700,#00E400,120.24157,#00E400,29,优,0.7,优,#00E400,#00E400,330783001,优,#00E400,金华市,#00E400,优,38,29,#FFFF00,28,2026-06-02 19:00:00
30,良,330824,80,29.1478,优,--,36,8,108,优,#00E400,#00E400,9,开化监测大楼,#FFFF00,42,优,优,优,330800,#00E400,118.4108,#00E400,29,优,0.5,优,#00E400,#00E400,330824002,优,#00E400,衢州市,#00E400,优,41,26,#00E400,28,2026-06-02 19:00:00
31,良,330824,88,29.1343,优,--,38,8,108,优,#00E400,#00E400,6,开化气象局,#FFFF00,42,优,优,优,330800,#00E400,118.402,#00E400,24,优,0.5,优,#00E400,#00E400,330824001,优,#00E400,衢州市,#00E400,优,42,20,#00E400,28,2026-06-02 19:00:00
32,良,331024,121,28.7403,优,--,34,16,136,优,#00E400,#00E400,6,新生中学,#FFFF00,42,优,优,优,331000,#00E400,120.4728,#00E400,28,优,0.8,优,#00E400,#00E400,331024002,优,#00E400,台州市,#00E400,优,42,23,#00E400,28,2026-06-02 19:00:00
33,良,331124,77,28.4505,优,--,42,12,109,优,#00E400,#00E400,4,松阳监测楼,#FFFF00,42,优,优,优,331100,#00E400,119.4799,#00E400,29,优,0.5,优,#00E400,#00E400,331124001,优,#00E400,丽水市,#00E400,优,33,32,#00E400,28,2026-06-02 19:00:00
34,优,331181,68,28.08007,优,--,46,10,79,优,#00E400,#00E400,8,龙泉环保大楼,#00E400,42,优,优,优,331100,#00E400,119.1328,#00E400,28,优,0.6,优,#00E400,#00E400,331181001,优,#00E400,丽水市,#00E400,优,42,24,#00E400,28,2026-06-02 19:00:00
35,轻度污染,330782,125,29.3686,优,--,63,17,194,优,#00E400,#00E400,8,第五中学,#FF7E00,42,优,优,良,330700,#00E400,120.1345,#00E400,24,优,0.7,优,#00E400,#00E400,330782003,优,#00E400,金华市,#00E400,优,42,34,#FFFF00,28,2026-06-02 19:00:00
36,轻度污染,330424,136,30.5042,优,--,33,11,178,优,#00E400,#00E400,6,高级中学,#FF7E00,43,优,优,优,330400,#00E400,120.9413,#00E400,29,优,0.4,优,#00E400,#00E400,330424001,优,#00E400,嘉兴市,#00E400,优,31,27,#00E400,37,2026-06-02 19:00:00
37,良,331123,81,28.5991,优,--,31,9,103,优,#00E400,#00E400,6,遂昌民政局,#FFFF00,43,优,优,优,331100,#00E400,119.2622,#00E400,30,优,0.6,优,#00E400,#00E400,331123001,优,#00E400,丽水市,#00E400,优,40,22,#00E400,37,2026-06-02 19:00:00
38,良,330382,114,28.0297,优,--,47,10,122,优,#00E400,#00E400,6,柳市,#FFFF00,44,优,优,优,330300,#00E400,120.891,#00E400,19,优,0.6,优,#00E400,#00E400,330382002,优,#00E400,温州市,#00E400,优,44,25,#00E400,39,2026-06-02 19:00:00
39,轻度污染,330424,139,30.5299,优,--,41,15,186,优,#00E400,#00E400,5,海盐商贸学校,#FF7E00,44,优,优,优,330400,#00E400,120.9293,#00E400,24,优,0.5,优,#00E400,#00E400,330424002,优,#00E400,嘉兴市,#00E400,优,31,28,#00E400,39,2026-06-02 19:00:00
40,轻度污染,330681,110,29.726389,优,--,54,15,191,优,#00E400,#00E400,7,青少年宫,#FF7E00,45,优,优,良,330600,#00E400,120.199722,#00E400,28,优,0.5,优,#00E400,#FFFF00,330681002,良,#00E400,绍兴市,#00E400,优,45,36,#FFFF00,41,2026-06-02 19:00:00
41,轻度污染,330110,124,30.2635,优,--,52,13,175,优,#00E400,#00E400,9,海辰小学,#FF7E00,45,优,优,良,330100,#00E400,119.9842,#00E400,29,优,0.6,优,#00E400,#00E400,2013301100001,优,#00E400,杭州市,#00E400,优,45,32,#FFFF00,41,2026-06-02 19:00:00
42,优,330328,63,27.804722,优,--,35,7,98,优,#00E400,#00E400,7,文成中学,#00E400,48,优,优,优,330300,#00E400,120.077222,#00E400,33,优,0.5,优,#00E400,#00E400,330328002,优,#00E400,温州市,#00E400,优,41,26,#00E400,43,2026-06-02 19:00:00
43,良,331024,92,28.8589,优,--,43,12,130,优,#00E400,#00E400,7,仙居环监站,#FFFF00,48,优,优,优,331000,#00E400,120.7248,#00E400,29,优,0.6,优,#00E400,#00E400,331024001,优,#00E400,台州市,#00E400,优,48,24,#00E400,43,2026-06-02 19:00:00
44,良,331121,147,28.1341,优,--,50,8,125,优,#00E400,#00E400,6,塔山小学,#FFFF00,48,优,优,优,331100,#00E400,120.2936,#00E400,28,优,0.6,优,#00E400,#00E400,331121001,优,#00E400,丽水市,#00E400,优,48,29,#00E400,43,2026-06-02 19:00:00
45,轻度污染,330226,156,29.2878,优,--,44,10,175,优,#00E400,#00E400,7,宁海城南站,#FF7E00,49,优,优,优,330200,#00E400,121.4201,#00E400,25,优,0.4,优,#00E400,#00E400,330226002,优,#00E400,宁波市,#00E400,优,36,29,#00E400,46,2026-06-02 19:00:00
46,良,330825,110,29.0464,优,--,61,13,147,优,#00E400,#00E400,5,龙游二高,#FFFF00,49,优,优,良,330800,#00E400,119.204,#00E400,25,优,0.5,优,#00E400,#00E400,330825002,优,#00E400,衢州市,#00E400,优,49,34,#FFFF00,46,2026-06-02 19:00:00
47,良,331122,117,28.6628,优,--,47,26,140,优,#00E400,#00E400,7,信访大楼,#FFFF00,49,优,优,优,331100,#00E400,120.0856,#00E400,29,优,0.7,优,#00E400,#00E400,331122002,优,#00E400,丽水市,#00E400,优,49,27,#00E400,46,2026-06-02 19:00:00
48,轻度污染,330723,148,28.9178,优,--,47,13,171,优,#00E400,#00E400,9,武义北岭幼儿园,#FF7E00,49,优,优,优,330700,#00E400,119.8022,#00E400,34,优,0.8,优,#00E400,#00E400,330723003,优,#00E400,金华市,#00E400,优,39,33,#00E400,46,2026-06-02 19:00:00
49,良,330383,123,27.5617,优,--,44,14,135,优,#00E400,#00E400,8,龙港实验中学,#FFFF00,49,优,优,优,330300,#00E400,120.5355,#00E400,29,优,0.7,优,#00E400,#00E400,330303101,优,#00E400,温州市,#00E400,优,49,27,#00E400,46,2026-06-02 19:00:00
50,轻度污染,330681,145,29.7257,优,--,57,15,206,优,#00E400,#00E400,7,城新小学,#FF7E00,50,优,优,良,330600,#00E400,120.272,#00E400,32,优,0.4,优,#00E400,#FFFF00,330681505,良,#00E400,绍兴市,#00E400,优,50,37,#FFFF00,51,2026-06-02 19:00:00
51,良,330324,111,28.044335,优,--,58,27,147,优,#00E400,#00E400,9,瓯北,#FFFF00,50,优,优,良,330300,#00E400,120.654963,#00E400,19,优,0.8,优,#00E400,#00E400,330324002,优,#00E400,温州市,#00E400,优,50,30,#FFFF00,51,2026-06-02 19:00:00
52,良,330327,159,27.522222,优,--,45,12,141,优,#00E400,#00E400,12,苍南中学,#FFFF00,50,优,优,优,330300,#00E400,120.416111,#00E400,26,优,1.0,优,#00E400,#00E400,330327004,优,#00E400,温州市,#00E400,优,44,27,#00E400,51,2026-06-02 19:00:00
53,轻度污染,330482,159,30.6937,优,--,37,13,195,优,#00E400,#00E400,8,平湖幼儿园,#FF7E00,50,优,优,优,330400,#00E400,121.0259,#00E400,30,优,0.6,优,#00E400,#00E400,330482001,优,#00E400,嘉兴市,#00E400,优,47,26,#00E400,51,2026-06-02 19:00:00
54,良,330822,103,28.9012,优,--,42,11,118,优,#00E400,#00E400,6,图书馆大楼,#FFFF00,50,优,优,优,330800,#00E400,118.5062,#00E400,25,优,0.6,优,#00E400,#00E400,330822002,优,#00E400,衢州市,#00E400,优,50,23,#00E400,51,2026-06-02 19:00:00
55,良,330383,121,27.5812,优,PM₁₀,47,19,139,优,#FFFF00,#00E400,10,龙港,#FFFF00,51,优,良,优,330300,#00E400,120.5489,#00E400,35,良,0.7,优,#00E400,#00E400,330327002,优,#FFFF00,温州市,#00E400,优,51,29,#00E400,56,2026-06-02 19:00:00
56,良,331022,129,29.11779,优,PM₁₀,36,12,145,优,#FFFF00,#00E400,6,三门环监楼,#FFFF00,51,优,良,优,331000,#00E400,121.382189,#00E400,33,良,0.6,优,#00E400,#00E400,331022001,优,#FFFF00,台州市,#00E400,优,51,26,#00E400,56,2026-06-02 19:00:00
57,良,331122,108,28.6574,优,PM₁₀,44,30,142,优,#FFFF00,#00E400,8,缙云中学,#FFFF00,51,优,良,优,331100,#00E400,120.0696,#00E400,35,良,0.7,优,#00E400,#00E400,331122001,优,#FFFF00,丽水市,#00E400,优,51,28,#00E400,56,2026-06-02 19:00:00
58,轻度污染,330723,155,28.896108,优,PM₂.₅,46,9,170,优,#00E400,#FFFF00,8,武义县政府,#FF7E00,52,优,良,优,330700,#00E400,119.811352,#00E400,36,优,0.8,良,#00E400,#00E400,330723001,优,#FFFF00,金华市,#00E400,优,44,31,#00E400,59,2026-06-02 19:00:00
59,良,330825,103,29.0392,优,PM₁₀,54,24,139,优,#FFFF00,#00E400,5,建设大楼,#FFFF00,53,优,良,良,330800,#00E400,119.1675,#00E400,34,良,0.6,优,#00E400,#00E400,330825001,优,#FFFF00,衢州市,#00E400,优,53,35,#FFFF00,60,2026-06-02 19:00:00
60,轻度污染,331082,161,28.873,优,PM₁₀,38,13,164,良,#FFFF00,#00E400,7,临海环保大楼,#FF7E00,53,优,良,优,331000,#00E400,121.1769,#00E400,29,良,0.6,优,#00E400,#00E400,331082001,优,#FFFF00,台州市,#FFFF00,优,54,24,#00E400,60,2026-06-02 19:00:00
61,轻度污染,330727,124,29.051486,优,PM₁₀,46,13,170,优,#FFFF00,#00E400,8,国税大楼,#FF7E00,54,优,良,优,330700,#00E400,120.438346,#00E400,32,良,0.6,优,#00E400,#00E400,330727002,优,#FFFF00,金华市,#00E400,优,55,28,#00E400,62,2026-06-02 19:00:00
62,轻度污染,330727,117,29.039869,优,PM₂.₅,41,12,169,优,#00E400,#FFFF00,7,南园初中,#FF7E00,54,优,良,优,330700,#00E400,120.440622,#00E400,37,优,0.6,良,#00E400,#00E400,330727003,优,#FFFF00,金华市,#00E400,优,49,27,#00E400,62,2026-06-02 19:00:00
63,轻度污染,330784,149,28.8854,优,PM₁₀,66,12,171,优,#FFFF00,#00E400,8,永康一中,#FF7E00,54,优,良,良,330700,#00E400,120.0439,#00E400,27,良,0.8,优,#00E400,#00E400,330784001,优,#FFFF00,金华市,#00E400,优,55,32,#FFFF00,62,2026-06-02 19:00:00
64,良,331121,154,28.1094,优,PM₁₀,46,22,132,优,#FFFF00,#00E400,6,青田中学,#FFFF00,54,优,良,优,331100,#00E400,120.3161,#00E400,32,良,0.6,优,#00E400,#00E400,331121002,优,#FFFF00,丽水市,#00E400,优,55,29,#00E400,62,2026-06-02 19:00:00
65,轻度污染,330782,114,29.2637,优,PM₁₀,66,23,172,优,#FFFF00,#00E400,7,儿童公园,#FF7E00,54,优,良,良,330700,#00E400,120.0321,#00E400,30,良,0.5,优,#00E400,#FFFF00,330782004,良,#FFFF00,金华市,#00E400,优,55,38,#FFFF00,62,2026-06-02 19:00:00
66,良,330122,69,29.8058,优,PM₁₀,47,21,128,优,#FFFF00,#00E400,5,桐庐江北,#FFFF00,55,优,良,优,330100,#00E400,119.669,#00E400,33,良,0.6,优,#00E400,#00E400,330122002,优,#FFFF00,杭州市,#00E400,优,57,28,#00E400,67,2026-06-02 19:00:00
67,轻度污染,330324,132,28.158269,优,PM₁₀,52,15,165,优,#FFFF00,#00E400,8,上塘,#FF7E00,55,优,良,良,330300,#00E400,120.694244,#00E400,30,良,0.5,优,#00E400,#00E400,330324001,优,#FFFF00,温州市,#00E400,优,57,33,#FFFF00,67,2026-06-02 19:00:00
68,良,330326,96,27.6593,优,PM₁₀,41,19,124,优,#FFFF00,#00E400,10,平阳监测站,#FFFF00,55,优,良,优,330300,#00E400,120.5705,#00E400,29,良,0.9,优,#00E400,#00E400,330326001,优,#FFFF00,温州市,#00E400,优,56,29,#00E400,67,2026-06-02 19:00:00
69,良,330381,102,27.791645,优,PM₁₀,50,30,134,优,#FFFF00,#00E400,8,花园桥,#FFFF00,56,优,良,优,330300,#00E400,120.62372,#00E400,25,良,0.6,优,#00E400,#00E400,330381001,优,#FFFF00,温州市,#00E400,优,58,27,#00E400,70,2026-06-02 19:00:00
70,良,331023,156,29.1504,优,"PM₁₀,PM₂.₅",41,13,158,优,#FFFF00,#FFFF00,6,育青中学,#FFFF00,56,优,良,优,331000,#00E400,121.0091,#00E400,38,良,0.6,良,#00E400,#00E400,331023001,优,#FFFF00,台州市,#00E400,优,58,30,#00E400,70,2026-06-02 19:00:00
71,良,330803,115,28.9844,优,PM₁₀,57,11,127,优,#FFFF00,#00E400,7,衢州三中（市）,#FFFF00,57,优,良,良,330800,#00E400,118.9628,#00E400,32,良,0.6,优,#00E400,#00E400,330803704,优,#FFFF00,衢州市,#00E400,优,59,34,#FFFF00,72,2026-06-02 19:00:00
72,良,330726,133,29.465746,优,PM₁₀,46,7,139,优,#FFFF00,#FFFF00,7,浦江实验中学,#FFFF00,57,优,良,优,330700,#00E400,119.875227,#00E400,36,良,0.8,良,#00E400,#00E400,330726001,优,#FFFF00,金华市,#00E400,优,59,31,#00E400,72,2026-06-02 19:00:00
73,轻度污染,330226,166,29.3125,优,O₃,44,12,177,良,#00E400,#00E400,6,宁海水利局,#FF7E00,58,优,良,优,330200,#00E400,121.4306,#00E400,26,优,0.4,优,#00E400,#00E400,330226001,优,#FFFF00,宁波市,#FFFF00,优,43,27,#00E400,74,2026-06-02 19:00:00
74,良,330726,133,29.439787,优,PM₂.₅,48,12,136,优,#FFFF00,#FFFF00,4,浦江中学,#FFFF00,58,优,良,优,330700,#00E400,119.924638,#00E400,39,良,0.7,良,#00E400,#FFFF00,330726002,良,#FFFF00,金华市,#00E400,优,53,36,#00E400,74,2026-06-02 19:00:00
75,优,331125,38,28.1062,优,PM₁₀,42,25,77,优,#FFFF00,#FFFF00,6,云和三中,#00E400,58,优,良,优,331100,#00E400,119.5728,#00E400,36,良,0.6,良,#00E400,#00E400,331125002,优,#FFFF00,丽水市,#00E400,优,60,23,#00E400,74,2026-06-02 19:00:00
76,轻度污染,330482,153,30.7292,优,PM₁₀,37,23,174,优,#FFFF00,#FFFF00,10,陆家桥村,#FF7E00,59,优,良,优,330400,#00E400,120.9953,#00E400,36,良,0.8,良,#00E400,#00E400,330482002,优,#FFFF00,嘉兴市,#00E400,优,62,26,#00E400,77,2026-06-02 19:00:00
77,轻度污染,330681,123,29.6818,优,PM₂.₅,49,10,200,优,#FFFF00,#FFFF00,5,杨树畈,#FF7E00,60,优,良,优,330600,#00E400,120.2359,#00E400,40,良,0.4,良,#00E400,#FFFF00,330681001,良,#FFFF00,绍兴市,#00E400,优,53,40,#00E400,78,2026-06-02 19:00:00
78,良,330784,144,28.90016,优,PM₁₀,72,9,150,优,#FFFF00,#00E400,8,西城供电所,#FFFF00,60,优,良,良,330700,#00E400,120.01452,#00E400,33,良,0.7,优,#00E400,#FFFF00,330784002,良,#FFFF00,金华市,#00E400,优,63,36,#FFFF00,78,2026-06-02 19:00:00
79,轻度污染,331082,157,28.84326,优,PM₁₀,45,16,167,优,#FFFF00,#00E400,6,巾山实验小学,#FF7E00,60,优,良,优,331000,#00E400,121.136,#00E400,35,良,0.5,优,#00E400,#00E400,331082002,优,#FFFF00,台州市,#00E400,优,63,29,#00E400,78,2026-06-02 19:00:00
80,轻度污染,330421,169,30.836,优,O₃,46,11,177,良,#00E400,#00E400,7,嘉善监测大楼,#FF7E00,62,优,良,优,330400,#00E400,120.9226,#00E400,29,优,0.5,优,#00E400,#00E400,330421001,优,#FFFF00,嘉兴市,#FFFF00,优,46,30,#00E400,81,2026-06-02 19:00:00
81,良,330881,133,28.7465,优,PM₂.₅,54,8,127,优,#FFFF00,#FFFF00,8,江山环保大楼,#FFFF00,64,优,良,良,330800,#00E400,118.6301,#00E400,42,良,1.0,良,#00E400,#00E400,330881001,优,#FFFF00,衢州市,#00E400,优,61,33,#FFFF00,82,2026-06-02 19:00:00
82,良,330225,165,29.4767,优,PM₂.₅,35,11,158,良,#00E400,#FFFF00,8,文峰小学,#FFFF00,66,优,良,优,330200,#00E400,121.8864,#00E400,43,优,0.4,良,#00E400,#00E400,330225001,优,#FFFF00,宁波市,#FFFF00,优,47,29,#00E400,83,2026-06-02 19:00:00
83,轻度污染,330523,171,30.6422,优,PM₂.₅,51,11,170,良,#FFFF00,#FFFF00,8,安吉实验小学,#FF7E00,66,优,良,良,330500,#00E400,119.6768,#00E400,43,良,0.6,良,#00E400,#00E400,330523001,优,#FFFF00,湖州市,#FFFF00,优,62,33,#FFFF00,83,2026-06-02 19:00:00
84,轻度污染,330483,173,30.6488,优,O₃,43,13,174,良,#FFFF00,#FFFF00,6,茅盾小学,#FF7E00,67,优,良,优,330400,#00E400,120.5498,#00E400,37,良,0.6,良,#00E400,#00E400,330483001,优,#FFFF00,嘉兴市,#FFFF00,优,65,26,#00E400,85,2026-06-02 19:00:00
85,轻度污染,330624,161,29.5036,优,PM₁₀,57,20,199,良,#FFFF00,#FFFF00,5,钟楼站,#FF7E00,67,优,良,良,330600,#00E400,120.8938,#00E400,43,良,0.6,良,#00E400,#FFFF00,330624001,良,#FFFF00,绍兴市,#FFFF00,优,73,38,#FFFF00,85,2026-06-02 19:00:00
86,轻度污染,330683,160,29.5663,优,PM₂.₅,57,23,172,优,#FFFF00,#FFFF00,2,丽湖小区,#FF7E00,68,优,良,良,330600,#00E400,120.8173,#00E400,44,良,0.6,良,#00E400,#FFFF00,330683002,良,#FFFF00,绍兴市,#00E400,优,58,44,#FFFF00,87,2026-06-02 19:00:00
87,轻度污染,330282,176,30.1636,优,O₃,38,23,189,良,#00E400,#00E400,5,慈溪环保大楼,#FF7E00,70,优,良,优,330200,#00E400,121.2677,#00E400,32,优,0.6,优,#00E400,#00E400,330282001,优,#FFFF00,宁波市,#FFFF00,优,28,24,#00E400,88,2026-06-02 19:00:00
88,良,330483,156,30.625,优,PM₂.₅,49,16,158,优,#FFFF00,#FFFF00,7,振东新六中站,#FFFF00,74,优,良,优,330400,#00E400,120.5613,#00E400,47,良,0.6,良,#00E400,#00E400,330483002,优,#FFFF00,嘉兴市,#00E400,优,65,29,#00E400,89,2026-06-02 19:00:00
89,轻度污染,330282,180,30.1786,优,O₃,39,21,194,良,#FFFF00,#00E400,4,慈溪实验小学,#FF7E00,75,优,良,优,330200,#00E400,121.2525,#00E400,30,良,0.6,优,#00E400,#00E400,330282002,优,#FFFF00,宁波市,#FFFF00,优,52,23,#00E400,90,2026-06-02 19:00:00
90,良,330328,50,27.7838,优,PM₁₀,46,31,103,优,#FFFF00,#FFFF00,5,大峃,#FFFF00,75,优,良,优,330300,#00E400,120.085,#00E400,40,良,0.7,良,#00E400,#00E400,330328001,优,#FFFF00,温州市,#00E400,优,85,26,#00E400,90,2026-06-02 19:00:00
91,--,331023,165,29.1342,优,PM₂.₅,--,15,--,良,#FFFF00,#FFFF00,6,天台实验中学,--,76,优,良,--,331000,#00E400,121.0349,#00E400,48,良,0.7,良,#00E400,--,331023002,--,#FFFF00,台州市,#FFFF00,优,69,--,--,92,2026-06-02 19:00:00
92,轻度污染,330481,182,30.5261,优,O₃,44,16,193,良,#FFFF00,#FFFF00,8,海宁监测大楼,#FF7E00,78,优,良,优,330400,#00E400,120.6739,#00E400,44,良,0.4,良,#00E400,#00E400,330481001,优,#FFFF00,嘉兴市,#FFFF00,优,71,25,#00E400,93,2026-06-02 19:00:00
93,轻度污染,330624,172,29.4938,优,PM₂.₅,52,26,215,良,#FFFF00,#FFFF00,5,城东站,#FF7E00,80,优,良,良,330600,#00E400,120.9109,#00E400,50,良,0.7,良,#00E400,#00E400,330624002,优,#FFFF00,绍兴市,#FFFF00,优,70,35,#FFFF00,94,2026-06-02 19:00:00
94,轻度污染,330213,186,29.6506,优,O₃,51,16,194,良,#00E400,#00E400,7,奉化教育局,#FF7E00,83,优,良,良,330200,#00E400,121.4042,#00E400,31,优,0.6,优,#00E400,#00E400,330283005,优,#FFFF00,宁波市,#FFFF00,优,46,31,#FFFF00,95,2026-06-02 19:00:00
95,轻度污染,331022,187,29.1028,优,O₃,38,11,182,良,#FFFF00,#FFFF00,6,心湖站,#FF7E00,84,优,良,优,331000,#00E400,121.3918,#00E400,37,良,0.5,良,#00E400,#00E400,331022002,优,#FFFF00,台州市,#FFFF00,优,59,25,#00E400,96,2026-06-02 19:00:00
96,轻度污染,330683,188,29.5901,优,O₃,55,19,190,良,#FFFF00,#00E400,7,马寅初初中,#FF7E00,85,优,良,良,330600,#00E400,120.8249,#00E400,35,良,0.5,优,#00E400,#FFFF00,330683001,良,#FFFF00,绍兴市,#FFFF00,优,72,38,#FFFF00,97,2026-06-02 19:00:00
97,轻度污染,330421,189,30.8307,优,O₃,47,13,200,良,#FFFF00,#00E400,10,气象观测台,#FF7E00,87,优,良,优,330400,#00E400,120.9356,#00E400,34,良,0.7,优,#00E400,#00E400,330421002,优,#FFFF00,嘉兴市,#FFFF00,优,61,28,#00E400,98,2026-06-02 19:00:00
98,轻度污染,330281,190,30.0358,优,O₃,50,27,203,良,#00E400,#00E400,7,姚江小学,#FF7E00,88,优,良,优,330200,#00E400,121.1221,#00E400,35,优,0.7,优,#00E400,#FFFF00,330281002,良,#FFFF00,宁波市,#FFFF00,优,42,42,#00E400,99,2026-06-02 19:00:00
99,轻度污染,330483,194,30.6355,优,O₃,41,11,194,良,#FFFF00,#FFFF00,9,文化中心,#FF7E00,93,优,良,优,330400,#00E400,120.5795,#00E400,37,良,0.7,良,#00E400,#00E400,330483003,优,#FFFF00,嘉兴市,#FFFF00,优,60,28,#00E400,100,2026-06-02 19:00:00
100,轻度污染,330281,195,30.0497,优,O₃,49,20,196,良,#FFFF00,#00E400,7,龙山公园,#FF7E00,94,优,良,优,330200,#00E400,121.1475,#00E400,35,良,0.7,优,#00E400,#00E400,330281001,优,#FFFF00,宁波市,#FFFF00,优,54,35,#00E400,101,2026-06-02 19:00:00
101,轻度污染,330521,198,30.548493,优,O₃,51,24,189,良,#FFFF00,#FFFF00,9,春晖小学,#FF7E00,98,优,良,良,330500,#00E400,119.9505,#00E400,46,良,0.6,良,#00E400,#00E400,330521003,优,#FFFF00,湖州市,#FFFF00,优,66,35,#FFFF00,102,2026-06-02 19:00:00
102,轻度污染,330213,199,29.693,优,O₃,54,19,193,良,#FFFF00,#FFFF00,6,溪口政府大楼,#FF7E00,99,优,良,良,330200,#00E400,121.2774,#00E400,42,良,0.6,良,#00E400,#00E400,330283T_1,优,#FFFF00,宁波市,#FFFF00,优,65,35,#FFFF00,103,2026-06-02 19:00:00
103,轻度污染,330481,199,30.5524,优,O₃,42,18,209,良,#FFFF00,#FFFF00,8,胜利社区,#FF7E00,99,优,良,优,330400,#00E400,120.6713,#00E400,46,良,0.6,良,#00E400,#00E400,330481003,优,#FFFF00,嘉兴市,#FFFF00,优,73,25,#00E400,103,2026-06-02 19:00:00
104,轻度污染,330522,201,31.0263,优,O₃,59,14,201,轻度污染,#FFFF00,#FFFF00,8,龙山新区,#FF7E00,101,优,轻度污染,良,330500,#00E400,119.9046,#00E400,39,良,0.5,良,#00E400,#FFFF00,330522002,良,#FF7E00,湖州市,#FF7E00,优,59,37,#FFFF00,105,2026-06-02 19:00:00
105,轻度污染,330483,205,30.7369,优,O₃,50,11,214,轻度污染,#FFFF00,#FFFF00,8,植材小学,#FF7E00,103,优,轻度污染,优,330400,#00E400,120.4902,#00E400,39,良,0.7,良,#00E400,#00E400,330483509,优,#FF7E00,嘉兴市,#FF7E00,优,54,35,#00E400,106,2026-06-02 19:00:00
106,轻度污染,330212,208,29.7736,优,O₃,48,12,214,轻度污染,#00E400,#00E400,5,钱湖水厂,#FF7E00,104,优,轻度污染,优,330200,#00E400,121.6330,#00E400,26,优,0.5,优,#00E400,#00E400,2013302120001,优,#FF7E00,宁波市,#FF7E00,优,41,32,#00E400,107,2026-06-02 19:00:00
107,轻度污染,330481,209,30.5137,优,O₃,41,23,198,轻度污染,#FFFF00,#FF7E00,11,硖石街道,#FF7E00,105,优,轻度污染,优,330400,#00E400,120.7082,#00E400,62,良,0.6,轻度污染,#00E400,#00E400,330481002,优,#FF7E00,嘉兴市,#FF7E00,优,96,27,#00E400,108,2026-06-02 19:00:00
108,轻度污染,330521,211,30.5231,优,O₃,44,15,192,轻度污染,#FFFF00,#00E400,9,地信科创园,#FF7E00,106,优,轻度污染,优,330500,#00E400,119.9781,#00E400,34,良,0.6,优,#00E400,#00E400,330521001,优,#FF7E00,湖州市,#FF7E00,优,54,32,#00E400,109,2026-06-02 19:00:00
109,中度污染,330522,216,31.0143,优,O₃,54,17,216,轻度污染,#FFFF00,#FFFF00,5,职教中心,#FF0000,108,优,轻度污染,良,330500,#00E400,119.8935,#00E400,40,良,0.4,良,#00E400,#FFFF00,330522001,良,#FF7E00,湖州市,#FF7E00,优,57,38,#FFFF00,110,2026-06-02 19:00:00
110,轻度污染,330213,217,29.6774,优,O₃,58,20,207,轻度污染,#FFFF00,#FFFF00,7,大桥市场,#FF7E00,109,优,轻度污染,良,330200,#00E400,121.4237,#00E400,37,良,0.7,良,#00E400,#FFFF00,330213001,良,#FF7E00,宁波市,#FF7E00,优,55,38,#FFFF00,111,2026-06-02 19:00:00
111,良,330127,81,29.605,优,--,36,14,103,优,#00E400,#00E400,--,老年活动中心,#FFFF00,--,优,--,优,330100,--,119.0372,#00E400,29,优,0.6,优,#00E400,#00E400,330127T_4,优,--,杭州市,#00E400,--,43,24,#00E400,112,2026-06-02 19:00:00
112,--,330326,--,27.6653,--,--,--,--,--,--,--,--,--,平阳县政府,--,--,--,--,--,330300,--,120.5611,--,--,--,--,--,--,--,330326002,--,--,温州市,--,--,--,--,--,112,2026-06-02 19:00:00
113,良,330327,146,27.503889,优,--,44,15,130,优,#00E400,#00E400,--,灵溪,#FFFF00,--,优,--,优,330300,--,120.395278,#00E400,35,优,1.0,优,#00E400,#00E400,330327001,优,--,温州市,#00E400,--,49,28,#00E400,112,2026-06-02 19:00:00
114,--,330523,--,30.5974,--,--,--,--,--,--,--,--,--,安吉城东,--,--,--,--,--,330500,--,119.6953,--,--,--,--,--,--,--,330523002,--,--,湖州市,--,--,--,--,--,112,2026-06-02 19:00:00
115,良,330881,--,28.7282,优,--,52,--,105,--,#FFFF00,#FFFF00,--,人民医院,#FFFF00,--,--,--,良,330800,--,118.6227,--,58,良,0.7,良,#00E400,#FFFF00,330881002,良,--,衢州市,--,--,61,36,#FFFF00,112,2026-06-02 19:00:00
116,--,330922,--,30.7269,--,--,--,--,--,--,--,--,--,嵊泗菜园,--,--,--,--,--,330900,--,122.4464,--,--,--,--,--,--,--,330922001,--,--,舟山市,--,--,--,--,--,112,2026-06-02 19:00:00
117,良,330921,73,30.2517,优,--,22,29,123,优,#00E400,#00E400,--,岱山高亭,#FFFF00,--,优,--,优,330900,--,122.1958,#00E400,15,优,0.4,优,#00E400,#00E400,330921002,优,--,舟山市,#00E400,--,28,13,#00E400,112,2026-06-02 19:00:00
