,O3H8_level,regioncode,O3,latitude,CO_level,SYWRW,PM10H24,NO2,O3H8,O3_level,PM10_color,PM25_color,SO2,sitename,O3H8_color,AQI,NO2_level,AQI_level,PM10H24_level,districtcode,SO2_color,longitude,NO2_color,PM25,PM10_level,CO,PM25_level,CO_color,PM25H24_color,sitecode,PM25H24_level,AQI_color,districtname,O3_color,SO2_level,PM10,PM25H24,PM10H24_color,sort,time
0,优,331125,49,28.1173,优,--,19,12,83,优,#00E400,#00E400,6,云和监测楼,#00E400,25,优,优,优,331100,#00E400,119.5626,#00E400,17,优,0.5,优,#00E400,#00E400,331125001,优,#00E400,丽水市,#00E400,优,22,14,#00E400,1,2026-05-02 22:00:00
1,优,330824,30,29.1478,优,--,13,12,59,优,#00E400,#00E400,7,开化监测大楼,#00E400,27,优,优,优,330800,#00E400,118.4108,#00E400,18,优,0.5,优,#00E400,#00E400,330824002,优,#00E400,衢州市,#00E400,优,27,10,#00E400,2,2026-05-02 22:00:00
2,良,330922,71,30.7269,优,--,28,13,102,优,#00E400,#00E400,7,嵊泗菜园,#FFFF00,28,优,优,优,330900,#00E400,122.4464,#00E400,11,优,0.5,优,#00E400,#00E400,330922001,优,#00E400,舟山市,#00E400,优,28,18,#00E400,3,2026-05-02 22:00:00
3,优,331124,85,28.4516,优,--,24,8,88,优,#00E400,#00E400,5,和平水厂,#00E400,29,优,优,优,331100,#00E400,119.4699,#00E400,20,优,0.5,优,#00E400,#00E400,331124002,优,#00E400,丽水市,#00E400,优,25,16,#00E400,4,2026-05-02 22:00:00
4,优,330727,94,29.039869,优,--,27,7,96,优,#00E400,#00E400,5,南园初中,#00E400,30,优,优,优,330700,#00E400,120.440622,#00E400,18,优,0.5,优,#00E400,#00E400,330727003,优,#00E400,金华市,#00E400,优,30,15,#00E400,5,2026-05-02 22:00:00
5,优,331123,55,28.5839,优,--,22,11,87,优,#00E400,#00E400,5,遂昌中学,#00E400,30,优,优,优,331100,#00E400,119.2656,#00E400,21,优,0.5,优,#00E400,#00E400,331123002,优,#00E400,丽水市,#00E400,优,24,17,#00E400,5,2026-05-02 22:00:00
6,优,330624,56,29.4938,优,--,30,14,74,优,#00E400,#00E400,4,城东站,#00E400,31,优,优,优,330600,#00E400,120.9109,#00E400,20,优,0.6,优,#00E400,#00E400,330624002,优,#00E400,绍兴市,#00E400,优,31,19,#00E400,7,2026-05-02 22:00:00
7,优,331122,98,28.6574,优,--,21,13,97,优,#00E400,#00E400,8,缙云中学,#00E400,31,优,优,优,331100,#00E400,120.0696,#00E400,19,优,0.6,优,#00E400,#00E400,331122001,优,#00E400,丽水市,#00E400,优,27,14,#00E400,7,2026-05-02 22:00:00
8,优,331127,54,28.002222,优,--,27,10,87,优,#00E400,#00E400,5,红星小学,#00E400,32,优,优,优,331100,#00E400,119.636389,#00E400,22,优,0.6,优,#00E400,#00E400,331127003,优,#00E400,丽水市,#00E400,优,30,17,#00E400,9,2026-05-02 22:00:00
9,良,330381,97,27.782284,优,--,30,14,118,优,#00E400,#00E400,10,安阳新区,#FFFF00,32,优,优,优,330300,#00E400,120.650915,#00E400,18,优,0.5,优,#00E400,#00E400,330381002,优,#00E400,温州市,#00E400,优,32,17,#00E400,9,2026-05-02 22:00:00
10,优,331123,41,28.5991,优,--,22,17,77,优,#00E400,#00E400,4,遂昌民政局,#00E400,32,优,优,优,331100,#00E400,119.2622,#00E400,22,优,0.5,优,#00E400,#00E400,331123001,优,#00E400,丽水市,#00E400,优,32,14,#00E400,9,2026-05-02 22:00:00
11,优,331081,102,28.37558,优,--,31,10,100,优,#00E400,#00E400,6,温岭环监站,#00E400,33,优,优,优,331000,#00E400,121.36579,#00E400,22,优,0.4,优,#00E400,#00E400,331081001,优,#00E400,台州市,#00E400,优,33,24,#00E400,12,2026-05-02 22:00:00
12,良,330212,89,29.7736,优,--,26,9,114,优,#00E400,#00E400,4,钱湖水厂,#FFFF00,33,优,优,优,330200,#00E400,121.6330,#00E400,19,优,0.5,优,#00E400,#00E400,2013302120001,优,#00E400,宁波市,#00E400,优,33,16,#00E400,12,2026-05-02 22:00:00
13,优,331024,49,28.7403,优,--,28,16,76,优,#00E400,#00E400,7,新生中学,#00E400,34,优,优,优,331000,#00E400,120.4728,#00E400,20,优,0.5,优,#00E400,#00E400,331024002,优,#00E400,台州市,#00E400,优,34,18,#00E400,14,2026-05-02 22:00:00
14,良,330225,108,29.4767,优,--,33,7,115,优,#00E400,#00E400,8,文峰小学,#FFFF00,35,优,优,优,330200,#00E400,121.8864,#00E400,19,优,0.5,优,#00E400,#00E400,330225001,优,#00E400,宁波市,#00E400,优,35,20,#00E400,15,2026-05-02 22:00:00
15,良,330329,111,27.557,优,--,27,7,106,优,#00E400,#00E400,8,罗阳,#FFFF00,35,优,优,优,330300,#00E400,119.7084,#00E400,15,优,0.6,优,#00E400,#00E400,330329001,优,#00E400,温州市,#00E400,优,27,18,#00E400,15,2026-05-02 22:00:00
16,良,330329,110,27.5438,优,--,25,7,104,优,#00E400,#00E400,9,泰顺实验中学,#FFFF00,35,优,优,优,330300,#00E400,119.716111,#00E400,20,优,0.5,优,#00E400,#00E400,330329002,优,#00E400,温州市,#00E400,优,28,18,#00E400,15,2026-05-02 22:00:00
17,优,330683,77,29.5663,优,--,31,18,95,优,#00E400,#00E400,4,丽湖小区,#00E400,35,优,优,优,330600,#00E400,120.8173,#00E400,18,优,0.6,优,#00E400,#00E400,330683002,优,#00E400,绍兴市,#00E400,优,35,19,#00E400,15,2026-05-02 22:00:00
18,优,331127,50,27.9772,优,--,16,20,87,优,#00E400,#00E400,4,景宁县政府,#00E400,35,优,优,优,331100,#00E400,119.6311,#00E400,24,优,0.7,优,#00E400,#00E400,331127002,优,#00E400,丽水市,#00E400,优,20,17,#00E400,15,2026-05-02 22:00:00
19,优,330182,41,29.4769,优,--,--,12,68,优,#00E400,#00E400,7,建德监测大楼,#00E400,36,优,优,--,330100,#00E400,119.2711,#00E400,25,优,0.7,优,#00E400,#00E400,330182T_2,优,#00E400,杭州市,#00E400,优,33,17,--,20,2026-05-02 22:00:00
20,优,330182,34,29.4638,优,--,31,42,77,优,#00E400,#00E400,4,第二中学,#00E400,36,优,优,优,330100,#00E400,119.2821,#00E400,22,优,0.7,优,#00E400,#00E400,330182002,优,#00E400,杭州市,#00E400,优,36,18,#00E400,20,2026-05-02 22:00:00
21,优,330822,41,28.9012,优,--,34,32,71,优,#00E400,#00E400,4,图书馆大楼,#00E400,36,优,优,优,330800,#00E400,118.5062,#00E400,20,优,0.4,优,#00E400,#00E400,330822002,优,#00E400,衢州市,#00E400,优,36,16,#00E400,20,2026-05-02 22:00:00
22,优,331024,68,28.8589,优,--,32,10,82,优,#00E400,#00E400,8,仙居环监站,#00E400,36,优,优,优,331000,#00E400,120.7248,#00E400,25,优,0.5,优,#00E400,#00E400,331024001,优,#00E400,台州市,#00E400,优,34,21,#00E400,20,2026-05-02 22:00:00
23,优,331181,52,28.08007,优,--,33,11,77,优,#00E400,#00E400,8,龙泉环保大楼,#00E400,36,优,优,优,331100,#00E400,119.1328,#00E400,25,优,0.6,优,#00E400,#00E400,331181001,优,#00E400,丽水市,#00E400,优,35,17,#00E400,20,2026-05-02 22:00:00
24,良,330213,108,29.6506,优,--,35,12,126,优,#00E400,#00E400,7,奉化教育局,#FFFF00,37,优,优,优,330200,#00E400,121.4042,#00E400,16,优,0.4,优,#00E400,#00E400,330283005,优,#00E400,宁波市,#00E400,优,37,18,#00E400,25,2026-05-02 22:00:00
25,良,330305,117,27.8342,优,--,36,8,125,优,#00E400,#00E400,7,洞头气象局,#FFFF00,37,优,优,优,330300,#00E400,121.1502,#00E400,15,优,0.7,优,#00E400,#00E400,330305001,优,#00E400,温州市,#00E400,优,31,24,#00E400,25,2026-05-02 22:00:00
26,良,330382,87,28.1209,优,--,34,9,118,优,#00E400,#00E400,5,乐成,#FFFF00,37,优,优,优,330300,#00E400,120.9659,#00E400,20,优,0.6,优,#00E400,#00E400,330382001,优,#00E400,温州市,#00E400,优,37,22,#00E400,25,2026-05-02 22:00:00
27,良,330326,74,27.6593,优,--,28,11,102,优,#00E400,#00E400,10,平阳监测站,#FFFF00,37,优,优,优,330300,#00E400,120.5705,#00E400,21,优,0.6,优,#00E400,#00E400,330326001,优,#00E400,温州市,#00E400,优,37,17,#00E400,25,2026-05-02 22:00:00
28,优,330824,28,29.1343,优,--,29,15,55,优,#00E400,#00E400,6,开化气象局,#00E400,37,优,优,优,330800,#00E400,118.402,#00E400,20,优,0.4,优,#00E400,#00E400,330824001,优,#00E400,衢州市,#00E400,优,37,14,#00E400,25,2026-05-02 22:00:00
29,良,330921,87,30.2669,优,--,--,19,107,优,#00E400,#00E400,6,岱山环保大楼,#FFFF00,37,优,优,--,330900,#00E400,122.2199,#00E400,17,优,0.5,优,#00E400,--,330921001,--,#00E400,舟山市,#00E400,优,37,--,--,25,2026-05-02 22:00:00
30,良,331081,113,28.39136,优,--,34,4,115,优,#00E400,#00E400,4,之江高级中学,#FFFF00,38,优,优,优,331000,#00E400,121.37696,#00E400,19,优,0.4,优,#00E400,#00E400,331081002,优,#00E400,台州市,#00E400,优,38,18,#00E400,31,2026-05-02 22:00:00
31,优,331181,56,28.076,优,--,25,13,83,优,#00E400,#00E400,9,粮食大楼,#00E400,38,优,优,优,331100,#00E400,119.1217,#00E400,23,优,0.6,优,#00E400,#00E400,331181002,优,#00E400,丽水市,#00E400,优,38,15,#00E400,31,2026-05-02 22:00:00
32,优,330281,86,30.0358,优,--,32,19,96,优,#00E400,#00E400,7,姚江小学,#00E400,39,优,优,优,330200,#00E400,121.1221,#00E400,27,优,0.5,优,#00E400,#00E400,330281002,优,#00E400,宁波市,#00E400,优,34,24,#00E400,33,2026-05-02 22:00:00
33,良,330225,124,29.2003,优,--,34,11,124,优,#00E400,#00E400,6,石浦新港小学,#FFFF00,39,优,优,优,330200,#00E400,121.934,#00E400,21,优,0.5,优,#00E400,#00E400,330225002,优,#00E400,宁波市,#00E400,优,37,25,#00E400,33,2026-05-02 22:00:00
34,良,331083,119,28.12715,优,--,30,9,125,优,#00E400,#00E400,9,玉环环监站,#FFFF00,39,优,优,优,331000,#00E400,121.2339,#00E400,23,优,0.7,优,#00E400,#00E400,331021001,优,#00E400,台州市,#00E400,优,39,19,#00E400,33,2026-05-02 22:00:00
35,良,331083,123,28.2221,优,--,38,12,122,优,#00E400,#00E400,5,楚门中心小学,#FFFF00,39,优,优,优,331000,#00E400,121.2846,#00E400,16,优,0.6,优,#00E400,#00E400,331021002,优,#00E400,台州市,#00E400,优,35,23,#00E400,33,2026-05-02 22:00:00
36,良,331082,88,28.873,优,--,35,19,101,优,#00E400,#00E400,6,临海环保大楼,#FFFF00,39,优,优,优,331000,#00E400,121.1769,#00E400,18,优,0.4,优,#00E400,#00E400,331082001,优,#00E400,台州市,#00E400,优,39,19,#00E400,33,2026-05-02 22:00:00
37,良,330326,92,27.6653,优,--,31,14,113,优,#00E400,#00E400,7,平阳县政府,#FFFF00,40,优,优,优,330300,#00E400,120.5611,#00E400,19,优,0.6,优,#00E400,#00E400,330326002,优,#00E400,温州市,#00E400,优,40,18,#00E400,38,2026-05-02 22:00:00
38,优,330624,54,29.5036,优,--,30,17,80,优,#00E400,#00E400,5,钟楼站,#00E400,40,优,优,优,330600,#00E400,120.8938,#00E400,20,优,0.6,优,#00E400,#00E400,330624001,优,#00E400,绍兴市,#00E400,优,40,18,#00E400,38,2026-05-02 22:00:00
39,良,330382,131,28.0297,优,--,39,9,130,优,#00E400,#00E400,5,柳市,#FFFF00,41,优,优,优,330300,#00E400,120.891,#00E400,12,优,0.3,优,#00E400,#00E400,330382002,优,#00E400,温州市,#00E400,优,26,24,#00E400,40,2026-05-02 22:00:00
40,优,330328,49,27.804722,优,--,31,7,92,优,#00E400,#00E400,7,文成中学,#00E400,41,优,优,优,330300,#00E400,120.077222,#00E400,23,优,0.4,优,#00E400,#00E400,330328002,优,#00E400,温州市,#00E400,优,41,19,#00E400,40,2026-05-02 22:00:00
41,良,330327,109,27.503889,优,--,36,4,119,优,#00E400,#00E400,9,灵溪,#FFFF00,41,优,优,优,330300,#00E400,120.395278,#00E400,26,优,0.6,优,#00E400,#00E400,330327001,优,#00E400,温州市,#00E400,优,41,23,#00E400,40,2026-05-02 22:00:00
42,优,330921,75,30.2517,优,--,33,25,96,优,#00E400,#00E400,6,岱山高亭,#00E400,41,优,优,优,330900,#00E400,122.1958,#00E400,17,优,0.3,优,#00E400,#00E400,330921002,优,#00E400,舟山市,#00E400,优,41,18,#00E400,40,2026-05-02 22:00:00
43,良,330213,107,29.6774,优,--,34,12,120,优,#00E400,#00E400,6,大桥市场,#FFFF00,42,优,优,优,330200,#00E400,121.4237,#00E400,23,优,0.4,优,#00E400,#00E400,330213001,优,#00E400,宁波市,#00E400,优,42,21,#00E400,44,2026-05-02 22:00:00
44,良,331023,93,29.1504,优,--,37,13,106,优,#00E400,#00E400,4,育青中学,#FFFF00,42,优,优,优,331000,#00E400,121.0091,#00E400,19,优,0.4,优,#00E400,#00E400,331023001,优,#00E400,台州市,#00E400,优,42,19,#00E400,44,2026-05-02 22:00:00
45,良,331082,88,28.84326,优,--,37,18,104,优,#00E400,#00E400,4,巾山实验小学,#FFFF00,42,优,优,优,331000,#00E400,121.136,#00E400,22,优,0.4,优,#00E400,#00E400,331082002,优,#00E400,台州市,#00E400,优,42,23,#00E400,44,2026-05-02 22:00:00
46,优,331126,30,27.6211,优,--,24,14,62,优,#00E400,#00E400,4,庆元气象局,#00E400,42,优,优,优,331100,#00E400,119.0788,#00E400,29,优,0.8,优,#00E400,#00E400,331126002,优,#00E400,丽水市,#00E400,优,41,18,#00E400,44,2026-05-02 22:00:00
47,良,330281,89,30.0497,优,--,35,17,103,优,#00E400,#00E400,6,龙山公园,#FFFF00,43,优,优,优,330200,#00E400,121.1475,#00E400,26,优,0.6,优,#00E400,#00E400,330281001,优,#00E400,宁波市,#00E400,优,43,24,#00E400,48,2026-05-02 22:00:00
48,优,330522,31,31.0143,优,--,47,21,40,优,#00E400,#00E400,6,职教中心,#00E400,43,优,优,优,330500,#00E400,119.8935,#00E400,30,优,0.5,优,#00E400,#00E400,330522001,优,#00E400,湖州市,#00E400,优,42,33,#00E400,48,2026-05-02 22:00:00
49,优,330522,29,31.0263,优,--,49,21,42,优,#00E400,#00E400,5,龙山新区,#00E400,43,优,优,优,330500,#00E400,119.9046,#00E400,30,优,0.6,优,#00E400,#00E400,330522002,优,#00E400,湖州市,#00E400,优,39,32,#00E400,48,2026-05-02 22:00:00
50,优,330726,56,29.465746,优,--,31,13,86,优,#00E400,#00E400,5,浦江实验中学,#00E400,43,优,优,优,330700,#00E400,119.875227,#00E400,26,优,0.6,优,#00E400,#00E400,330726001,优,#00E400,金华市,#00E400,优,43,18,#00E400,48,2026-05-02 22:00:00
51,良,331023,83,29.1342,优,--,36,13,101,优,#00E400,#00E400,5,天台实验中学,#FFFF00,43,优,优,优,331000,#00E400,121.0349,#00E400,19,优,0.6,优,#00E400,#00E400,331023002,优,#00E400,台州市,#00E400,优,43,17,#00E400,48,2026-05-02 22:00:00
52,优,331124,78,28.4505,优,--,27,13,90,优,#00E400,#00E400,4,松阳监测楼,#00E400,43,优,优,优,331100,#00E400,119.4799,#00E400,20,优,0.6,优,#00E400,#00E400,331124001,优,#00E400,丽水市,#00E400,优,43,15,#00E400,48,2026-05-02 22:00:00
53,优,330683,54,29.5901,优,--,32,27,80,优,#00E400,#00E400,4,马寅初初中,#00E400,44,优,优,优,330600,#00E400,120.8249,#00E400,25,优,0.7,优,#00E400,#00E400,330683001,优,#00E400,绍兴市,#00E400,优,44,19,#00E400,54,2026-05-02 22:00:00
54,优,330727,95,29.051486,优,--,26,10,99,优,#00E400,#00E400,8,国税大楼,#00E400,45,优,优,优,330700,#00E400,120.438346,#00E400,31,优,0.6,优,#00E400,#00E400,330727002,优,#00E400,金华市,#00E400,优,35,19,#00E400,55,2026-05-02 22:00:00
55,优,330127,35,29.605,优,--,26,30,64,优,#00E400,#00E400,13,老年活动中心,#00E400,46,优,优,优,330100,#00E400,119.0372,#00E400,32,优,1.1,优,#00E400,#00E400,330127T_4,优,#00E400,杭州市,#00E400,优,46,17,#00E400,56,2026-05-02 22:00:00
56,良,330383,94,27.5812,优,--,42,14,110,优,#00E400,#00E400,9,龙港,#FFFF00,46,优,优,优,330300,#00E400,120.5489,#00E400,22,优,0.5,优,#00E400,#00E400,330327002,优,#00E400,温州市,#00E400,优,46,23,#00E400,56,2026-05-02 22:00:00
57,优,330784,75,28.8854,优,--,31,19,88,优,#00E400,#00E400,7,永康一中,#00E400,46,优,优,优,330700,#00E400,120.0439,#00E400,22,优,0.5,优,#00E400,#00E400,330784001,优,#00E400,金华市,#00E400,优,46,15,#00E400,56,2026-05-02 22:00:00
58,良,330213,51,29.693,优,--,31,23,101,优,#00E400,#00E400,5,溪口政府大楼,#FFFF00,47,优,优,优,330200,#00E400,121.2774,#00E400,29,优,0.4,优,#00E400,#00E400,330283T_1,优,#00E400,宁波市,#00E400,优,47,21,#00E400,59,2026-05-02 22:00:00
59,优,330324,58,28.158269,优,--,41,17,95,优,#00E400,#00E400,5,上塘,#00E400,47,优,优,优,330300,#00E400,120.694244,#00E400,25,优,0.6,优,#00E400,#00E400,330324001,优,#00E400,温州市,#00E400,优,47,23,#00E400,59,2026-05-02 22:00:00
60,良,331022,92,29.11779,优,--,35,11,107,优,#00E400,#00E400,6,三门环监楼,#FFFF00,47,优,优,优,331000,#00E400,121.382189,#00E400,26,优,0.6,优,#00E400,#00E400,331022001,优,#00E400,台州市,#00E400,优,47,23,#00E400,59,2026-05-02 22:00:00
61,优,330881,21,28.7465,优,--,41,28,69,优,#00E400,#00E400,6,江山环保大楼,#00E400,48,优,优,优,330800,#00E400,118.6301,#00E400,31,优,0.9,优,#00E400,#00E400,330881001,优,#00E400,衢州市,#00E400,优,48,26,#00E400,62,2026-05-02 22:00:00
62,优,330881,31,28.7282,优,--,41,37,73,优,#00E400,#00E400,4,人民医院,#00E400,48,优,优,优,330800,#00E400,118.6227,#00E400,32,优,0.7,优,#00E400,#00E400,330881002,优,#00E400,衢州市,#00E400,优,48,26,#00E400,62,2026-05-02 22:00:00
63,优,330324,101,28.044335,优,--,38,20,99,优,#00E400,#00E400,7,瓯北,#00E400,49,优,优,优,330300,#00E400,120.654963,#00E400,21,优,0.6,优,#00E400,#00E400,330324002,优,#00E400,温州市,#00E400,优,49,21,#00E400,64,2026-05-02 22:00:00
64,良,330226,88,29.2878,优,--,33,17,130,优,#00E400,#00E400,6,宁海城南站,#FFFF00,50,优,优,优,330200,#00E400,121.4201,#00E400,28,优,0.4,优,#00E400,#00E400,330226002,优,#00E400,宁波市,#00E400,优,50,20,#00E400,65,2026-05-02 22:00:00
65,优,330523,35,30.5974,优,--,40,22,57,优,#00E400,#00E400,5,安吉城东,#00E400,50,优,优,优,330500,#00E400,119.6953,#00E400,34,优,0.6,优,#00E400,#00E400,330523002,优,#00E400,湖州市,#00E400,优,50,26,#00E400,65,2026-05-02 22:00:00
66,良,330282,81,30.1636,优,PM₁₀,32,21,107,优,#FFFF00,#00E400,6,慈溪环保大楼,#FFFF00,51,优,良,优,330200,#00E400,121.2677,#00E400,23,良,0.6,优,#00E400,#00E400,330282001,优,#FFFF00,宁波市,#00E400,优,51,18,#00E400,67,2026-05-02 22:00:00
67,良,330226,101,29.3125,优,PM₁₀,34,15,132,优,#FFFF00,#00E400,7,宁海水利局,#FFFF00,51,优,良,优,330200,#00E400,121.4306,#00E400,27,良,0.4,优,#00E400,#00E400,330226001,优,#FFFF00,宁波市,#00E400,优,51,21,#00E400,67,2026-05-02 22:00:00
68,优,331122,92,28.6628,优,PM₁₀,33,8,92,优,#FFFF00,#00E400,7,信访大楼,#00E400,51,优,良,优,331100,#00E400,120.0856,#00E400,23,良,0.6,优,#00E400,#00E400,331122002,优,#FFFF00,丽水市,#00E400,优,51,15,#00E400,67,2026-05-02 22:00:00
69,良,330383,113,27.5617,优,PM₁₀,37,9,130,优,#FFFF00,#00E400,9,龙港实验中学,#FFFF00,51,优,良,优,330300,#00E400,120.5355,#00E400,30,良,0.5,优,#00E400,#00E400,330303101,优,#FFFF00,温州市,#00E400,优,51,23,#00E400,67,2026-05-02 22:00:00
70,良,331022,97,29.1028,优,PM₁₀,38,8,113,优,#FFFF00,#00E400,5,心湖站,#FFFF00,52,优,良,优,331000,#00E400,121.3918,#00E400,29,良,0.5,优,#00E400,#00E400,331022002,优,#FFFF00,台州市,#00E400,优,52,23,#00E400,71,2026-05-02 22:00:00
71,优,331126,30,27.629585,优,PM₂.₅,25,14,53,优,#00E400,#FFFF00,5,庆元监测楼,#00E400,52,优,良,优,331100,#00E400,119.054809,#00E400,36,优,0.7,良,#00E400,#00E400,331126001,优,#FFFF00,丽水市,#00E400,优,41,18,#00E400,71,2026-05-02 22:00:00
72,良,330282,88,30.1786,优,PM₁₀,33,17,112,优,#FFFF00,#00E400,5,慈溪实验小学,#FFFF00,53,优,良,优,330200,#00E400,121.2525,#00E400,22,良,0.6,优,#00E400,#00E400,330282002,优,#FFFF00,宁波市,#00E400,优,54,17,#00E400,73,2026-05-02 22:00:00
73,良,330327,107,27.522222,优,PM₁₀,42,11,121,优,#FFFF00,#00E400,9,苍南中学,#FFFF00,53,优,良,优,330300,#00E400,120.416111,#00E400,25,良,0.7,优,#00E400,#00E400,330327004,优,#FFFF00,温州市,#00E400,优,54,23,#00E400,73,2026-05-02 22:00:00
74,优,330483,43,30.6355,优,PM₁₀,38,29,49,优,#FFFF00,#00E400,10,文化中心,#00E400,53,优,良,优,330400,#00E400,120.5795,#00E400,35,良,0.8,优,#00E400,#00E400,330483003,优,#FFFF00,嘉兴市,#00E400,优,54,22,#00E400,73,2026-05-02 22:00:00
75,优,330483,41,30.6488,优,PM₂.₅,42,51,58,优,#FFFF00,#FFFF00,4,茅盾小学,#00E400,54,优,良,优,330400,#00E400,120.5498,#00E400,37,良,0.7,良,#00E400,#00E400,330483001,优,#FFFF00,嘉兴市,#00E400,优,51,25,#00E400,76,2026-05-02 22:00:00
76,优,330783,55,29.30093,优,PM₁₀,42,24,80,优,#FFFF00,#00E400,6,广厦学院,#00E400,56,优,良,优,330700,#00E400,120.24157,#00E400,24,良,0.8,优,#00E400,#00E400,330783001,优,#FFFF00,金华市,#00E400,优,58,19,#00E400,77,2026-05-02 22:00:00
77,优,330482,79,30.7292,优,PM₁₀,39,19,82,优,#FFFF00,#FFFF00,8,陆家桥村,#00E400,57,优,良,优,330400,#00E400,120.9953,#00E400,37,良,0.7,良,#00E400,#00E400,330482002,优,#FFFF00,嘉兴市,#00E400,优,59,23,#00E400,78,2026-05-02 22:00:00
78,优,330122,47,29.8058,优,"PM₁₀,PM₂.₅",43,38,78,优,#FFFF00,#FFFF00,10,桐庐江北,#00E400,58,优,良,优,330100,#00E400,119.669,#00E400,39,良,0.8,良,#00E400,#00E400,330122002,优,#FFFF00,杭州市,#00E400,优,61,26,#00E400,79,2026-05-02 22:00:00
79,良,330381,60,27.791645,优,PM₁₀,35,27,108,优,#FFFF00,#00E400,6,花园桥,#FFFF00,58,优,良,优,330300,#00E400,120.62372,#00E400,32,良,0.4,优,#00E400,#00E400,330381001,优,#FFFF00,温州市,#00E400,优,61,19,#00E400,79,2026-05-02 22:00:00
80,优,330424,66,30.5042,优,PM₁₀,40,31,83,优,#FFFF00,#FFFF00,9,高级中学,#00E400,59,优,良,优,330400,#00E400,120.9413,#00E400,39,良,0.5,良,#00E400,#00E400,330424001,优,#FFFF00,嘉兴市,#00E400,优,62,22,#00E400,81,2026-05-02 22:00:00
81,优,330424,80,30.5299,优,PM₂.₅,34,30,93,优,#FFFF00,#FFFF00,6,海盐商贸学校,#00E400,60,优,良,优,330400,#00E400,120.9293,#00E400,40,良,0.5,良,#00E400,#00E400,330424002,优,#FFFF00,嘉兴市,#00E400,优,52,23,#00E400,82,2026-05-02 22:00:00
82,良,331121,81,28.1094,优,PM₁₀,42,24,114,优,#FFFF00,#00E400,4,青田中学,#FFFF00,60,优,良,优,331100,#00E400,120.3161,#00E400,31,良,0.4,优,#00E400,#00E400,331121002,优,#FFFF00,丽水市,#00E400,优,64,22,#00E400,82,2026-05-02 22:00:00
83,优,330481,56,30.5137,优,PM₁₀,40,35,66,优,#FFFF00,#FFFF00,7,硖石街道,#00E400,61,优,良,优,330400,#00E400,120.7082,#00E400,39,良,0.5,良,#00E400,#00E400,330481002,优,#FFFF00,嘉兴市,#00E400,优,65,25,#00E400,84,2026-05-02 22:00:00
84,优,330421,74,30.8307,优,PM₁₀,43,21,83,优,#FFFF00,#FFFF00,6,气象观测台,#00E400,61,优,良,优,330400,#00E400,120.9356,#00E400,36,良,0.5,良,#00E400,#00E400,330421002,优,#FFFF00,嘉兴市,#00E400,优,65,24,#00E400,84,2026-05-02 22:00:00
85,优,330521,38,30.5231,优,PM₁₀,40,49,64,优,#FFFF00,#00E400,12,地信科创园,#00E400,61,优,良,优,330500,#00E400,119.9781,#00E400,35,良,0.5,优,#00E400,#00E400,330521001,优,#FFFF00,湖州市,#00E400,优,65,28,#00E400,84,2026-05-02 22:00:00
86,优,330482,77,30.6937,优,PM₂.₅,41,22,88,优,#FFFF00,#FFFF00,8,平湖幼儿园,#00E400,62,优,良,优,330400,#00E400,121.0259,#00E400,41,良,0.5,良,#00E400,#00E400,330482001,优,#FFFF00,嘉兴市,#00E400,优,62,24,#00E400,87,2026-05-02 22:00:00
87,优,330481,51,30.5524,优,PM₁₀,40,26,73,优,#FFFF00,#00E400,7,胜利社区,#00E400,62,优,良,优,330400,#00E400,120.6713,#00E400,35,良,0.6,优,#00E400,#00E400,330481003,优,#FFFF00,嘉兴市,#00E400,优,66,22,#00E400,87,2026-05-02 22:00:00
88,优,330681,18,29.7257,优,PM₁₀,44,41,78,优,#FFFF00,#FFFF00,8,城新小学,#00E400,64,优,良,优,330600,#00E400,120.272,#00E400,39,良,0.7,良,#00E400,#00E400,330681505,优,#FFFF00,绍兴市,#00E400,优,69,26,#00E400,89,2026-05-02 22:00:00
89,优,330122,50,29.7955,优,PM₂.₅,37,39,86,优,#FFFF00,#FFFF00,6,桐庐江南,#00E400,64,优,良,优,330100,#00E400,119.6874,#00E400,42,良,0.9,良,#00E400,#00E400,330122001,优,#FFFF00,杭州市,#00E400,优,63,24,#00E400,89,2026-05-02 22:00:00
90,优,330822,30,28.901,优,PM₁₀,45,52,62,优,#FFFF00,#00E400,4,常山环保大楼,#00E400,64,优,良,优,330800,#00E400,118.5196,#00E400,26,良,0.8,优,#00E400,#00E400,330822001,优,#FFFF00,衢州市,#00E400,优,69,19,#00E400,89,2026-05-02 22:00:00
91,优,330521,39,30.548493,优,PM₂.₅,45,26,51,优,#FFFF00,#FFFF00,7,春晖小学,#00E400,64,优,良,优,330500,#00E400,119.9505,#00E400,42,良,0.7,良,#00E400,#00E400,330521003,优,#FFFF00,湖州市,#00E400,优,60,29,#00E400,89,2026-05-02 22:00:00
92,优,330328,30,27.7838,优,PM₁₀,37,36,96,优,#FFFF00,#00E400,7,大峃,#00E400,65,优,良,优,330300,#00E400,120.085,#00E400,29,良,0.4,优,#00E400,#00E400,330328001,优,#FFFF00,温州市,#00E400,优,71,21,#00E400,93,2026-05-02 22:00:00
93,良,330825,93,29.0392,优,PM₁₀,49,29,130,优,#FFFF00,#FFFF00,6,建设大楼,#FFFF00,65,优,良,优,330800,#00E400,119.1675,#00E400,41,良,0.6,良,#00E400,#00E400,330825001,优,#FFFF00,衢州市,#00E400,优,70,27,#00E400,93,2026-05-02 22:00:00
94,优,330481,67,30.5261,优,PM₁₀,44,26,76,优,#FFFF00,#FFFF00,6,海宁监测大楼,#00E400,66,优,良,优,330400,#00E400,120.6739,#00E400,36,良,0.4,良,#00E400,#00E400,330481001,优,#FFFF00,嘉兴市,#00E400,优,72,24,#00E400,95,2026-05-02 22:00:00
95,优,330483,26,30.7369,优,PM₂.₅,41,55,51,优,#FFFF00,#FFFF00,9,植材小学,#00E400,66,优,良,优,330400,#00E400,120.4902,#00E400,43,良,0.8,良,#00E400,#00E400,330483509,优,#FFFF00,嘉兴市,#00E400,优,68,23,#00E400,95,2026-05-02 22:00:00
96,优,330483,62,30.625,优,PM₁₀,53,42,70,优,#FFFF00,#FFFF00,4,振东新六中站,#00E400,68,优,良,良,330400,#00E400,120.5613,#00E400,37,良,0.8,良,#00E400,#00E400,330483002,优,#FFFF00,嘉兴市,#00E400,优,75,26,#FFFF00,97,2026-05-02 22:00:00
97,良,330825,69,29.0464,优,PM₁₀,45,25,121,优,#FFFF00,#FFFF00,7,龙游二高,#FFFF00,68,优,良,优,330800,#00E400,119.204,#00E400,42,良,0.5,良,#00E400,#00E400,330825002,优,#FFFF00,衢州市,#00E400,优,74,25,#00E400,97,2026-05-02 22:00:00
98,优,330782,22,29.305096,优,PM₁₀,42,68,74,优,#FFFF00,#FFFF00,8,江东,#00E400,69,优,良,优,330700,#00E400,120.090442,#00E400,36,良,1.0,良,#00E400,#00E400,330782002,优,#FFFF00,金华市,#00E400,优,76,22,#00E400,99,2026-05-02 22:00:00
99,优,330421,79,30.836,优,PM₂.₅,42,24,88,优,#FFFF00,#FFFF00,5,嘉善监测大楼,#00E400,70,优,良,优,330400,#00E400,120.9226,#00E400,45,良,0.6,良,#00E400,#00E400,330421001,优,#FFFF00,嘉兴市,#00E400,优,70,24,#00E400,100,2026-05-02 22:00:00
100,优,330523,40,30.6422,优,PM₂.₅,37,31,60,优,#00E400,#FFFF00,8,安吉实验小学,#00E400,70,优,良,优,330500,#00E400,119.6768,#00E400,45,优,0.6,良,#00E400,#00E400,330523001,优,#FFFF00,湖州市,#00E400,优,49,32,#00E400,100,2026-05-02 22:00:00
101,优,330781,32,29.216166,优,PM₁₀,37,37,75,优,#FFFF00,#FFFF00,7,兰溪监测站,#00E400,70,优,良,优,330700,#00E400,119.459992,#00E400,44,良,0.8,良,#00E400,#00E400,330781001,优,#FFFF00,金华市,#00E400,优,78,23,#00E400,100,2026-05-02 22:00:00
102,优,330782,38,29.335473,优,PM₁₀,39,61,79,优,#FFFF00,#FFFF00,6,北苑,#00E400,70,优,良,优,330700,#00E400,120.078609,#00E400,44,良,0.7,良,#00E400,#00E400,330782001,优,#FFFF00,金华市,#00E400,优,77,24,#00E400,100,2026-05-02 22:00:00
103,良,331121,97,28.1341,优,PM₁₀,47,18,120,优,#FFFF00,#00E400,6,塔山小学,#FFFF00,70,优,良,优,331100,#00E400,120.2936,#00E400,27,良,0.4,优,#00E400,#00E400,331121001,优,#FFFF00,丽水市,#00E400,优,77,25,#00E400,100,2026-05-02 22:00:00
104,优,330782,20,29.3686,优,PM₁₀,49,72,69,优,#FFFF00,#FFFF00,7,第五中学,#00E400,70,优,良,优,330700,#00E400,120.1345,#00E400,39,良,0.8,良,#00E400,#00E400,330782003,优,#FFFF00,金华市,#00E400,优,78,23,#00E400,100,2026-05-02 22:00:00
105,优,331125,34,28.1062,优,PM₁₀,36,22,77,优,#FFFF00,#FFFF00,6,云和三中,#00E400,71,优,良,优,331100,#00E400,119.5728,#00E400,41,良,0.7,良,#00E400,#00E400,331125002,优,#FFFF00,丽水市,#00E400,优,79,21,#00E400,106,2026-05-02 22:00:00
106,良,330803,84,28.9844,优,PM₂.₅,38,27,117,优,#FFFF00,#FFFF00,9,衢州三中（市）,#FFFF00,72,优,良,优,330800,#00E400,118.9628,#00E400,46,良,0.7,良,#00E400,#00E400,330803704,优,#FFFF00,衢州市,#00E400,优,70,25,#00E400,107,2026-05-02 22:00:00
107,优,330723,47,28.896108,优,PM₂.₅,41,37,96,优,#FFFF00,#FFFF00,9,武义县政府,#00E400,72,优,良,优,330700,#00E400,119.811352,#00E400,46,良,1.0,良,#00E400,#00E400,330723001,优,#FFFF00,金华市,#00E400,优,72,27,#00E400,107,2026-05-02 22:00:00
108,优,330726,45,29.439787,优,PM₂.₅,38,26,84,优,#FFFF00,#FFFF00,3,浦江中学,#00E400,72,优,良,优,330700,#00E400,119.924638,#00E400,46,良,0.6,良,#00E400,#00E400,330726002,优,#FFFF00,金华市,#00E400,优,62,23,#00E400,107,2026-05-02 22:00:00
109,优,330110,18,30.2635,优,PM₁₀,48,75,60,优,#FFFF00,#FFFF00,8,海辰小学,#00E400,75,优,良,优,330100,#00E400,119.9842,#00E400,41,良,1.1,良,#00E400,#00E400,2013301100001,优,#FFFF00,杭州市,#00E400,优,84,28,#00E400,110,2026-05-02 22:00:00
110,优,330723,49,28.9178,优,PM₂.₅,36,36,97,优,#FFFF00,#FFFF00,9,武义北岭幼儿园,#00E400,76,优,良,优,330700,#00E400,119.8022,#00E400,48,良,0.8,良,#00E400,#00E400,330723003,优,#FFFF00,金华市,#00E400,优,82,21,#00E400,111,2026-05-02 22:00:00
111,优,330681,27,29.6818,优,PM₂.₅,38,9,66,优,#FFFF00,#FFFF00,5,杨树畈,#00E400,80,优,良,优,330600,#00E400,120.2359,#00E400,50,良,0.7,良,#00E400,#00E400,330681001,优,#FFFF00,绍兴市,#00E400,优,68,28,#00E400,112,2026-05-02 22:00:00
112,优,330782,32,29.2637,优,PM₁₀,51,53,68,优,#FFFF00,#FFFF00,8,儿童公园,#00E400,83,优,良,良,330700,#00E400,120.0321,#00E400,45,良,1.0,良,#00E400,#00E400,330782004,优,#FFFF00,金华市,#00E400,优,95,25,#FFFF00,113,2026-05-02 22:00:00
113,优,330783,34,29.27739,优,PM₁₀,45,62,70,优,#FFFF00,#FFFF00,8,东阳环保大楼,#00E400,90,优,良,优,330700,#00E400,120.23692,#00E400,51,良,1.1,良,#00E400,#00E400,330783002,优,#FFFF00,金华市,#00E400,优,106,27,#00E400,114,2026-05-02 22:00:00
114,优,330784,38,28.90016,优,PM₁₀,41,44,72,优,#FF7E00,#FFFF00,7,西城供电所,#00E400,102,优,轻度污染,优,330700,#00E400,120.01452,#00E400,44,轻度污染,0.8,良,#00E400,#00E400,330784002,优,#FF7E00,金华市,#00E400,优,124,16,#00E400,115,2026-05-02 22:00:00
115,优,330681,18,29.726389,优,PM₂.₅,43,62,78,优,#FFFF00,#FF7E00,8,青少年宫,#00E400,108,优,轻度污染,优,330600,#00E400,120.199722,#00E400,68,良,0.9,轻度污染,#00E400,#00E400,330681002,优,#FF7E00,绍兴市,#00E400,优,97,28,#00E400,116,2026-05-02 22:00:00
116,优,330781,17,29.229931,优,PM₂.₅,37,45,64,优,#FFFF00,#FF7E00,8,兰溪八中,#00E400,110,优,轻度污染,优,330700,#00E400,119.475172,#00E400,70,良,0.7,轻度污染,#00E400,#00E400,330781002,优,#FF7E00,金华市,#00E400,优,86,28,#00E400,117,2026-05-02 22:00:00
117,优,330127,27,29.5995,优,--,30,28,56,优,#FFFF00,#FFFF00,--,淳安环保大楼,#00E400,--,优,--,优,330100,--,119.0481,#00E400,46,良,1.0,良,#00E400,#00E400,330127001,优,--,杭州市,#00E400,--,76,19,#00E400,118,2026-05-02 22:00:00
