,O3H8_level,regioncode,O3,latitude,CO_level,SYWRW,PM10H24,NO2,O3H8,O3_level,PM10_color,PM25_color,SO2,sitename,O3H8_color,AQI,NO2_level,AQI_level,PM10H24_level,districtcode,SO2_color,longitude,NO2_color,PM25,PM10_level,CO,PM25_level,CO_color,PM25H24_color,sitecode,PM25H24_level,AQI_color,districtname,O3_color,SO2_level,PM10,PM25H24,PM10H24_color,sort,time
0,优,330329,39,27.557,优,--,4,13,62,优,#00E400,#00E400,5,罗阳,#00E400,13,优,优,优,330300,#00E400,119.7084,#00E400,6,优,0.3,优,#00E400,#00E400,330329001,优,#00E400,温州市,#00E400,优,8,3,#00E400,1,2026-06-26 20:00:00
1,优,331125,44,28.1173,优,--,11,10,68,优,#00E400,#00E400,4,云和监测楼,#00E400,14,优,优,优,331100,#00E400,119.5626,#00E400,9,优,0.3,优,#00E400,#00E400,331125001,优,#00E400,丽水市,#00E400,优,12,7,#00E400,2,2026-06-26 20:00:00
2,优,330329,36,27.5438,优,--,5,9,58,优,#00E400,#00E400,6,泰顺实验中学,#00E400,15,优,优,优,330300,#00E400,119.716111,#00E400,9,优,0.4,优,#00E400,#00E400,330329002,优,#00E400,温州市,#00E400,优,15,3,#00E400,3,2026-06-26 20:00:00
3,优,331127,44,27.9772,优,--,11,13,70,优,#00E400,#00E400,4,景宁县政府,#00E400,15,优,优,优,331100,#00E400,119.6311,#00E400,4,优,0.5,优,#00E400,#00E400,331127002,优,#00E400,丽水市,#00E400,优,15,6,#00E400,3,2026-06-26 20:00:00
4,优,331126,49,27.629585,优,--,9,4,54,优,#00E400,#00E400,4,庆元监测楼,#00E400,16,优,优,优,331100,#00E400,119.054809,#00E400,8,优,0.4,优,#00E400,#00E400,331126001,优,#00E400,丽水市,#00E400,优,13,4,#00E400,5,2026-06-26 20:00:00
5,优,331126,54,27.6211,优,--,8,3,56,优,#00E400,#00E400,5,庆元气象局,#00E400,17,优,优,优,331100,#00E400,119.0788,#00E400,5,优,0.5,优,#00E400,#00E400,331126002,优,#00E400,丽水市,#00E400,优,11,3,#00E400,6,2026-06-26 20:00:00
6,优,331125,48,28.1062,优,--,--,6,73,优,#00E400,#00E400,6,云和三中,#00E400,18,优,优,--,331100,#00E400,119.5728,#00E400,12,优,0.4,优,#00E400,#00E400,331125002,优,#00E400,丽水市,#00E400,优,6,7,--,7,2026-06-26 20:00:00
7,优,331127,41,28.002222,优,--,16,13,72,优,#00E400,#00E400,5,红星小学,#00E400,19,优,优,优,331100,#00E400,119.636389,#00E400,10,优,0.4,优,#00E400,#00E400,331127003,优,#00E400,丽水市,#00E400,优,19,7,#00E400,8,2026-06-26 20:00:00
8,优,330328,28,27.7838,优,--,10,7,48,优,#00E400,#00E400,6,大峃,#00E400,19,优,优,优,330300,#00E400,120.085,#00E400,9,优,0.5,优,#00E400,#00E400,330328001,优,#00E400,温州市,#00E400,优,19,4,#00E400,8,2026-06-26 20:00:00
9,优,331181,61,28.076,优,--,12,6,66,优,#00E400,#00E400,6,粮食大楼,#00E400,20,优,优,优,331100,#00E400,119.1217,#00E400,10,优,0.5,优,#00E400,#00E400,331181002,优,#00E400,丽水市,#00E400,优,14,6,#00E400,10,2026-06-26 20:00:00
10,优,330328,17,27.804722,优,--,11,5,43,优,#00E400,#00E400,9,文成中学,#00E400,21,优,优,优,330300,#00E400,120.077222,#00E400,8,优,0.4,优,#00E400,#00E400,330328002,优,#00E400,温州市,#00E400,优,21,5,#00E400,11,2026-06-26 20:00:00
11,优,330327,75,27.503889,优,--,16,7,83,优,#00E400,#00E400,10,灵溪,#00E400,24,优,优,优,330300,#00E400,120.395278,#00E400,11,优,0.4,优,#00E400,#00E400,330327001,优,#00E400,温州市,#00E400,优,17,11,#00E400,12,2026-06-26 20:00:00
12,优,331181,66,28.08007,优,--,12,6,72,优,#00E400,#00E400,8,龙泉环保大楼,#00E400,24,优,优,优,331100,#00E400,119.1328,#00E400,13,优,0.4,优,#00E400,#00E400,331181001,优,#00E400,丽水市,#00E400,优,24,6,#00E400,12,2026-06-26 20:00:00
13,良,330326,79,27.6593,优,--,18,10,105,优,#00E400,#00E400,5,平阳监测站,#FFFF00,25,优,优,优,330300,#00E400,120.5705,#00E400,2,优,0.4,优,#00E400,#00E400,330326001,优,#00E400,温州市,#00E400,优,17,6,#00E400,14,2026-06-26 20:00:00
14,优,331024,80,28.8589,优,--,10,9,91,优,#00E400,#00E400,7,仙居环监站,#00E400,25,优,优,优,331000,#00E400,120.7248,#00E400,9,优,0.5,优,#00E400,#00E400,331024001,优,#00E400,台州市,#00E400,优,21,3,#00E400,14,2026-06-26 20:00:00
15,优,330824,79,29.1478,优,--,22,7,98,优,#00E400,#00E400,7,开化监测大楼,#00E400,27,优,优,优,330800,#00E400,118.4108,#00E400,14,优,0.5,优,#00E400,#00E400,330824002,优,#00E400,衢州市,#00E400,优,27,11,#00E400,16,2026-06-26 20:00:00
16,优,330824,58,29.1343,优,--,23,15,90,优,#00E400,#00E400,6,开化气象局,#00E400,27,优,优,优,330800,#00E400,118.402,#00E400,12,优,0.4,优,#00E400,#00E400,330824001,优,#00E400,衢州市,#00E400,优,27,7,#00E400,16,2026-06-26 20:00:00
17,良,330327,88,27.522222,优,--,17,8,104,优,#00E400,#00E400,9,苍南中学,#FFFF00,28,优,优,优,330300,#00E400,120.416111,#00E400,8,优,0.6,优,#00E400,#00E400,330327004,优,#00E400,温州市,#00E400,优,17,10,#00E400,18,2026-06-26 20:00:00
18,良,331124,88,28.4516,优,--,14,19,107,优,#00E400,#00E400,6,和平水厂,#FFFF00,28,优,优,优,331100,#00E400,119.4699,#00E400,15,优,0.5,优,#00E400,#00E400,331124002,优,#00E400,丽水市,#00E400,优,25,9,#00E400,18,2026-06-26 20:00:00
19,优,330324,92,28.044335,优,--,12,17,95,优,#00E400,#00E400,6,瓯北,#00E400,29,优,优,优,330300,#00E400,120.654963,#00E400,4,优,0.5,优,#00E400,#00E400,330324002,优,#00E400,温州市,#00E400,优,22,6,#00E400,20,2026-06-26 20:00:00
20,优,331024,62,28.7403,优,--,15,14,90,优,#00E400,#00E400,6,新生中学,#00E400,29,优,优,优,331000,#00E400,120.4728,#00E400,20,优,0.5,优,#00E400,#00E400,331024002,优,#00E400,台州市,#00E400,优,28,9,#00E400,20,2026-06-26 20:00:00
21,良,330326,97,27.6653,优,--,16,16,112,优,#00E400,#00E400,8,平阳县政府,#FFFF00,31,优,优,优,330300,#00E400,120.5611,#00E400,15,优,0.7,优,#00E400,#00E400,330326002,优,#00E400,温州市,#00E400,优,27,10,#00E400,22,2026-06-26 20:00:00
22,良,330127,101,29.5995,优,--,23,13,125,优,#00E400,#00E400,8,淳安环保大楼,#FFFF00,32,优,优,优,330100,#00E400,119.0481,#00E400,18,优,0.6,优,#00E400,#00E400,330127001,优,#00E400,杭州市,#00E400,优,27,16,#00E400,23,2026-06-26 20:00:00
23,良,330822,101,28.9012,优,--,30,17,118,优,#00E400,#00E400,5,图书馆大楼,#FFFF00,32,优,优,优,330800,#00E400,118.5062,#00E400,14,优,0.4,优,#00E400,#00E400,330822002,优,#00E400,衢州市,#00E400,优,31,16,#00E400,23,2026-06-26 20:00:00
24,良,330921,102,30.2669,优,--,14,21,117,优,#00E400,#00E400,5,岱山环保大楼,#FFFF00,32,优,优,优,330900,#00E400,122.2199,#00E400,9,优,0.4,优,#00E400,#00E400,330921001,优,#00E400,舟山市,#00E400,优,16,8,#00E400,23,2026-06-26 20:00:00
25,优,331121,102,28.1341,优,--,11,18,86,优,#00E400,#00E400,8,塔山小学,#00E400,32,优,优,优,331100,#00E400,120.2936,#00E400,13,优,0.4,优,#00E400,#00E400,331121001,优,#00E400,丽水市,#00E400,优,22,6,#00E400,23,2026-06-26 20:00:00
26,良,331122,102,28.6628,优,--,17,28,115,优,#00E400,#00E400,7,信访大楼,#FFFF00,32,优,优,优,331100,#00E400,120.0856,#00E400,16,优,0.5,优,#00E400,#00E400,331122002,优,#00E400,丽水市,#00E400,优,31,7,#00E400,23,2026-06-26 20:00:00
27,优,330324,105,28.158269,优,--,11,16,94,优,#00E400,#00E400,8,上塘,#00E400,33,优,优,优,330300,#00E400,120.694244,#00E400,11,优,0.5,优,#00E400,#00E400,330324001,优,#00E400,温州市,#00E400,优,19,5,#00E400,28,2026-06-26 20:00:00
28,良,330922,104,30.7269,优,--,11,5,109,优,#00E400,#00E400,8,嵊泗菜园,#FFFF00,33,优,优,优,330900,#00E400,122.4464,#00E400,12,优,0.2,优,#00E400,#00E400,330922001,优,#00E400,舟山市,#00E400,优,17,8,#00E400,28,2026-06-26 20:00:00
29,良,330921,105,30.2517,优,--,14,9,118,优,#00E400,#00E400,8,岱山高亭,#FFFF00,33,优,优,优,330900,#00E400,122.1958,#00E400,13,优,0.3,优,#00E400,#00E400,330921002,优,#00E400,舟山市,#00E400,优,20,8,#00E400,28,2026-06-26 20:00:00
30,优,331121,104,28.1094,优,--,9,11,70,优,#00E400,#00E400,6,青田中学,#00E400,33,优,优,优,331100,#00E400,120.3161,#00E400,11,优,0.5,优,#00E400,#00E400,331121002,优,#00E400,丽水市,#00E400,优,20,4,#00E400,28,2026-06-26 20:00:00
31,良,330182,106,29.4769,优,--,33,8,137,优,#00E400,#00E400,7,建德监测大楼,#FFFF00,34,优,优,优,330100,#00E400,119.2711,#00E400,21,优,0.6,优,#00E400,#00E400,330182T_2,优,#00E400,杭州市,#00E400,优,31,20,#00E400,32,2026-06-26 20:00:00
32,良,330182,109,29.4638,优,--,33,16,131,优,#00E400,#00E400,4,第二中学,#FFFF00,35,优,优,优,330100,#00E400,119.2821,#00E400,16,优,0.5,优,#00E400,#00E400,330182002,优,#00E400,杭州市,#00E400,优,31,20,#00E400,33,2026-06-26 20:00:00
33,良,330213,111,29.6506,优,--,21,20,139,优,#00E400,#00E400,7,奉化教育局,#FFFF00,35,优,优,优,330200,#00E400,121.4042,#00E400,19,优,0.5,优,#00E400,#00E400,330283005,优,#00E400,宁波市,#00E400,优,30,14,#00E400,33,2026-06-26 20:00:00
34,轻度污染,330282,109,30.1636,优,--,31,21,180,优,#00E400,#00E400,5,慈溪环保大楼,#FF7E00,35,优,优,优,330200,#00E400,121.2677,#00E400,9,优,0.5,优,#00E400,#00E400,330282001,优,#00E400,宁波市,#00E400,优,19,17,#00E400,33,2026-06-26 20:00:00
35,良,330381,109,27.791645,优,--,16,10,109,优,#00E400,#00E400,7,花园桥,#FFFF00,35,优,优,优,330300,#00E400,120.62372,#00E400,4,优,0.4,优,#00E400,#00E400,330381001,优,#00E400,温州市,#00E400,优,15,9,#00E400,33,2026-06-26 20:00:00
36,良,330383,112,27.5812,优,--,16,13,119,优,#00E400,#00E400,8,龙港,#FFFF00,35,优,优,优,330300,#00E400,120.5489,#00E400,11,优,0.5,优,#00E400,#00E400,330327002,优,#00E400,温州市,#00E400,优,16,11,#00E400,33,2026-06-26 20:00:00
37,优,331081,110,28.37558,优,--,13,7,100,优,#00E400,#00E400,6,温岭环监站,#00E400,35,优,优,优,331000,#00E400,121.36579,#00E400,13,优,0.3,优,#00E400,#00E400,331081001,优,#00E400,台州市,#00E400,优,16,4,#00E400,33,2026-06-26 20:00:00
38,良,331123,109,28.5839,优,--,17,11,113,优,#00E400,#00E400,8,遂昌中学,#FFFF00,35,优,优,优,331100,#00E400,119.2656,#00E400,15,优,0.4,优,#00E400,#00E400,331123002,优,#00E400,丽水市,#00E400,优,28,6,#00E400,33,2026-06-26 20:00:00
39,良,330383,111,27.5617,优,--,19,16,124,优,#00E400,#00E400,7,龙港实验中学,#FFFF00,35,优,优,优,330300,#00E400,120.5355,#00E400,12,优,0.5,优,#00E400,#00E400,330303101,优,#00E400,温州市,#00E400,优,20,13,#00E400,33,2026-06-26 20:00:00
40,良,330727,91,29.051486,优,--,13,13,115,优,#00E400,#00E400,7,国税大楼,#FFFF00,36,优,优,优,330700,#00E400,120.438346,#00E400,25,优,0.4,优,#00E400,#00E400,330727002,优,#00E400,金华市,#00E400,优,24,8,#00E400,41,2026-06-26 20:00:00
41,优,331124,71,28.4505,优,--,15,25,97,优,#00E400,#00E400,4,松阳监测楼,#00E400,36,优,优,优,331100,#00E400,119.4799,#00E400,17,优,0.5,优,#00E400,#00E400,331124001,优,#00E400,丽水市,#00E400,优,36,9,#00E400,41,2026-06-26 20:00:00
42,良,330212,114,29.7736,优,--,20,22,144,优,#00E400,#00E400,6,钱湖水厂,#FFFF00,36,优,优,优,330200,#00E400,121.6330,#00E400,14,优,0.4,优,#00E400,#00E400,2013302120001,优,#00E400,宁波市,#00E400,优,32,12,#00E400,41,2026-06-26 20:00:00
43,良,330213,117,29.6774,优,--,23,25,157,优,#00E400,#00E400,6,大桥市场,#FFFF00,37,优,优,优,330200,#00E400,121.4237,#00E400,20,优,0.6,优,#00E400,#00E400,330213001,优,#00E400,宁波市,#00E400,优,30,14,#00E400,44,2026-06-26 20:00:00
44,轻度污染,330282,117,30.1786,优,--,28,11,184,优,#00E400,#00E400,5,慈溪实验小学,#FF7E00,37,优,优,优,330200,#00E400,121.2525,#00E400,8,优,0.4,优,#00E400,#00E400,330282002,优,#00E400,宁波市,#00E400,优,19,17,#00E400,44,2026-06-26 20:00:00
45,良,330381,118,27.782284,优,--,10,6,118,优,#00E400,#00E400,9,安阳新区,#FFFF00,37,优,优,优,330300,#00E400,120.650915,#00E400,8,优,0.4,优,#00E400,#00E400,330381002,优,#00E400,温州市,#00E400,优,10,9,#00E400,44,2026-06-26 20:00:00
46,轻度污染,330482,116,30.7292,优,--,29,9,182,优,#00E400,#00E400,8,陆家桥村,#FF7E00,37,优,优,优,330400,#00E400,120.9953,#00E400,11,优,0.4,优,#00E400,#00E400,330482002,优,#00E400,嘉兴市,#00E400,优,17,22,#00E400,44,2026-06-26 20:00:00
47,良,331082,116,28.873,优,--,16,20,123,优,#00E400,#00E400,8,临海环保大楼,#FFFF00,37,优,优,优,331000,#00E400,121.1769,#00E400,15,优,0.4,优,#00E400,#00E400,331082001,优,#00E400,台州市,#00E400,优,27,9,#00E400,44,2026-06-26 20:00:00
48,轻度污染,330424,119,30.5299,优,--,26,11,164,优,#00E400,#00E400,4,海盐商贸学校,#FF7E00,38,优,优,优,330400,#00E400,120.9293,#00E400,8,优,0.4,优,#00E400,#00E400,330424002,优,#00E400,嘉兴市,#00E400,优,11,18,#00E400,49,2026-06-26 20:00:00
49,良,330523,120,30.5974,优,--,22,13,156,优,#00E400,#00E400,5,安吉城东,#FFFF00,38,优,优,优,330500,#00E400,119.6953,#00E400,23,优,0.4,优,#00E400,#00E400,330523002,优,#00E400,湖州市,#00E400,优,25,17,#00E400,49,2026-06-26 20:00:00
50,良,330881,119,28.7282,优,--,27,14,127,优,#00E400,#00E400,7,人民医院,#FFFF00,38,优,优,优,330800,#00E400,118.6227,#00E400,17,优,0.5,优,#00E400,#00E400,330881002,优,#00E400,衢州市,#00E400,优,35,18,#00E400,49,2026-06-26 20:00:00
51,良,331082,119,28.84326,优,--,17,20,111,优,#00E400,#00E400,4,巾山实验小学,#FFFF00,38,优,优,优,331000,#00E400,121.136,#00E400,13,优,0.4,优,#00E400,#00E400,331082002,优,#00E400,台州市,#00E400,优,30,9,#00E400,49,2026-06-26 20:00:00
52,良,331123,121,28.5991,优,--,14,10,115,优,#00E400,#00E400,6,遂昌民政局,#FFFF00,38,优,优,优,331100,#00E400,119.2622,#00E400,19,优,0.5,优,#00E400,#00E400,331123001,优,#00E400,丽水市,#00E400,优,28,8,#00E400,49,2026-06-26 20:00:00
53,轻度污染,330482,122,30.6937,优,--,29,6,195,优,#00E400,#00E400,8,平湖幼儿园,#FF7E00,39,优,优,优,330400,#00E400,121.0259,#00E400,10,优,0.3,优,#00E400,#00E400,330482001,优,#00E400,嘉兴市,#00E400,优,16,18,#00E400,54,2026-06-26 20:00:00
54,轻度污染,330424,122,30.5042,优,--,25,7,161,优,#00E400,#00E400,6,高级中学,#FF7E00,39,优,优,优,330400,#00E400,120.9413,#00E400,12,优,0.4,优,#00E400,#00E400,330424001,优,#00E400,嘉兴市,#00E400,优,13,16,#00E400,54,2026-06-26 20:00:00
55,良,330225,126,29.4767,优,--,18,17,140,优,#00E400,#00E400,9,文峰小学,#FFFF00,40,优,优,优,330200,#00E400,121.8864,#00E400,14,优,0.5,优,#00E400,#00E400,330225001,优,#00E400,宁波市,#00E400,优,27,9,#00E400,56,2026-06-26 20:00:00
56,良,330225,128,29.2003,优,--,14,11,154,优,#00E400,#00E400,9,石浦新港小学,#FFFF00,40,优,优,优,330200,#00E400,121.934,#00E400,27,优,0.5,优,#00E400,#00E400,330225002,优,#00E400,宁波市,#00E400,优,30,10,#00E400,56,2026-06-26 20:00:00
57,良,330382,126,28.0297,优,--,14,10,112,优,#00E400,#00E400,5,柳市,#FFFF00,40,优,优,优,330300,#00E400,120.891,#00E400,16,优,0.4,优,#00E400,#00E400,330382002,优,#00E400,温州市,#00E400,优,28,8,#00E400,56,2026-06-26 20:00:00
58,轻度污染,330523,114,30.6422,优,--,32,29,169,优,#00E400,#00E400,7,安吉实验小学,#FF7E00,40,优,优,优,330500,#00E400,119.6768,#00E400,28,优,0.5,优,#00E400,#00E400,330523001,优,#00E400,湖州市,#00E400,优,38,20,#00E400,56,2026-06-26 20:00:00
59,良,330781,123,29.229931,优,--,21,15,131,优,#00E400,#00E400,8,兰溪八中,#FFFF00,40,优,优,优,330700,#00E400,119.475172,#00E400,28,优,0.6,优,#00E400,#00E400,330781002,优,#00E400,金华市,#00E400,优,33,16,#00E400,56,2026-06-26 20:00:00
60,良,330822,102,28.901,优,--,28,20,118,优,#00E400,#00E400,5,常山环保大楼,#FFFF00,41,优,优,优,330800,#00E400,118.5196,#00E400,23,优,0.5,优,#00E400,#00E400,330822001,优,#00E400,衢州市,#00E400,优,41,13,#00E400,61,2026-06-26 20:00:00
61,良,331022,134,29.11779,优,--,20,12,134,优,#00E400,#00E400,7,三门环监楼,#FFFF00,42,优,优,优,331000,#00E400,121.382189,#00E400,19,优,0.4,优,#00E400,#00E400,331022001,优,#00E400,台州市,#00E400,优,29,12,#00E400,62,2026-06-26 20:00:00
62,良,330305,137,27.8342,优,--,13,9,120,优,#00E400,#00E400,5,洞头气象局,#FFFF00,43,优,优,优,330300,#00E400,121.1502,#00E400,10,优,0.5,优,#00E400,#00E400,330305001,优,#00E400,温州市,#00E400,优,17,7,#00E400,63,2026-06-26 20:00:00
63,良,330382,137,28.1209,优,--,11,10,115,优,#00E400,#00E400,5,乐成,#FFFF00,43,优,优,优,330300,#00E400,120.9659,#00E400,16,优,0.4,优,#00E400,#00E400,330382001,优,#00E400,温州市,#00E400,优,23,6,#00E400,63,2026-06-26 20:00:00
64,良,330782,140,29.335473,优,--,22,26,139,优,#00E400,#00E400,3,北苑,#FFFF00,44,优,优,优,330700,#00E400,120.078609,#00E400,24,优,0.7,优,#00E400,#00E400,330782001,优,#00E400,金华市,#00E400,优,36,15,#00E400,65,2026-06-26 20:00:00
65,良,331081,138,28.39136,优,--,16,4,124,优,#00E400,#00E400,3,之江高级中学,#FFFF00,44,优,优,优,331000,#00E400,121.37696,#00E400,11,优,0.3,优,#00E400,#00E400,331081002,优,#00E400,台州市,#00E400,优,20,10,#00E400,65,2026-06-26 20:00:00
66,良,330803,144,28.9844,优,--,33,15,140,优,#00E400,#00E400,6,衢州三中（市）,#FFFF00,45,优,优,优,330800,#00E400,118.9628,#00E400,17,优,0.5,优,#00E400,#00E400,330803704,优,#00E400,衢州市,#00E400,优,33,22,#00E400,67,2026-06-26 20:00:00
67,轻度污染,330213,142,29.693,优,--,23,19,161,优,#00E400,#00E400,5,溪口政府大楼,#FF7E00,45,优,优,优,330200,#00E400,121.2774,#00E400,30,优,0.4,优,#00E400,#00E400,330283T_1,优,#00E400,宁波市,#00E400,优,42,15,#00E400,67,2026-06-26 20:00:00
68,轻度污染,330421,143,30.836,优,--,40,14,194,优,#00E400,#00E400,7,嘉善监测大楼,#FF7E00,45,优,优,优,330400,#00E400,120.9226,#00E400,27,优,0.5,优,#00E400,#00E400,330421001,优,#00E400,嘉兴市,#00E400,优,45,25,#00E400,67,2026-06-26 20:00:00
69,良,330726,142,29.465746,优,--,24,23,160,优,#00E400,#00E400,6,浦江实验中学,#FFFF00,45,优,优,优,330700,#00E400,119.875227,#00E400,20,优,0.6,优,#00E400,#00E400,330726001,优,#00E400,金华市,#00E400,优,42,13,#00E400,67,2026-06-26 20:00:00
70,优,330727,93,29.039869,优,--,15,14,62,优,#00E400,#00E400,7,南园初中,#00E400,45,优,优,优,330700,#00E400,120.440622,#00E400,31,优,0.6,优,#00E400,#00E400,330727003,优,#00E400,金华市,#00E400,优,39,10,#00E400,67,2026-06-26 20:00:00
71,良,331023,144,29.1504,优,--,17,17,121,优,#00E400,#00E400,6,育青中学,#FFFF00,45,优,优,优,331000,#00E400,121.0091,#00E400,22,优,0.6,优,#00E400,#00E400,331023001,优,#00E400,台州市,#00E400,优,32,8,#00E400,67,2026-06-26 20:00:00
72,良,330723,146,28.896108,优,--,20,20,155,优,#00E400,#00E400,9,武义县政府,#FFFF00,46,优,优,优,330700,#00E400,119.811352,#00E400,32,优,0.6,优,#00E400,#00E400,330723001,优,#00E400,金华市,#00E400,优,40,15,#00E400,73,2026-06-26 20:00:00
73,轻度污染,330281,149,30.0497,优,--,22,21,180,优,#00E400,#00E400,5,龙山公园,#FF7E00,47,优,优,优,330200,#00E400,121.1475,#00E400,22,优,0.4,优,#00E400,#00E400,330281001,优,#00E400,宁波市,#00E400,优,33,16,#00E400,74,2026-06-26 20:00:00
74,良,330825,150,29.0392,优,--,28,12,149,优,#00E400,#00E400,6,建设大楼,#FFFF00,47,优,优,优,330800,#00E400,119.1675,#00E400,23,优,0.5,优,#00E400,#00E400,330825001,优,#00E400,衢州市,#00E400,优,33,16,#00E400,74,2026-06-26 20:00:00
75,良,330825,150,29.0464,优,--,31,15,160,优,#00E400,#00E400,5,龙游二高,#FFFF00,47,优,优,优,330800,#00E400,119.204,#00E400,16,优,0.4,优,#00E400,#00E400,330825002,优,#00E400,衢州市,#00E400,优,30,14,#00E400,74,2026-06-26 20:00:00
76,中度污染,330421,152,30.8307,优,--,31,12,218,优,#00E400,#00E400,7,气象观测台,#FF0000,48,优,优,优,330400,#00E400,120.9356,#00E400,13,优,0.5,优,#00E400,#00E400,330421002,优,#00E400,嘉兴市,#00E400,优,31,14,#00E400,77,2026-06-26 20:00:00
77,轻度污染,330726,152,29.439787,优,--,24,5,162,优,#00E400,#00E400,4,浦江中学,#FF7E00,48,优,优,优,330700,#00E400,119.924638,#00E400,28,优,0.6,优,#00E400,#00E400,330726002,优,#00E400,金华市,#00E400,优,39,17,#00E400,77,2026-06-26 20:00:00
78,良,331083,152,28.2221,优,--,11,13,131,优,#00E400,#00E400,8,楚门中心小学,#FFFF00,48,优,优,优,331000,#00E400,121.2846,#00E400,11,优,0.8,优,#00E400,#00E400,331021002,优,#00E400,台州市,#00E400,优,18,7,#00E400,77,2026-06-26 20:00:00
79,良,331022,153,29.1028,优,--,18,17,159,优,#00E400,#00E400,6,心湖站,#FFFF00,48,优,优,优,331000,#00E400,121.3918,#00E400,18,优,0.5,优,#00E400,#00E400,331022002,优,#00E400,台州市,#00E400,优,30,11,#00E400,77,2026-06-26 20:00:00
80,良,330784,155,28.8854,优,--,19,18,134,优,#00E400,#00E400,7,永康一中,#FFFF00,49,优,优,优,330700,#00E400,120.0439,#00E400,27,优,0.7,优,#00E400,#00E400,330784001,优,#00E400,金华市,#00E400,优,48,10,#00E400,81,2026-06-26 20:00:00
81,良,331023,155,29.1342,优,--,16,16,127,优,#00E400,#00E400,8,天台实验中学,#FFFF00,49,优,优,优,331000,#00E400,121.0349,#00E400,19,优,0.5,优,#00E400,#00E400,331023002,优,#00E400,台州市,#00E400,优,29,9,#00E400,81,2026-06-26 20:00:00
82,良,330723,147,28.9178,优,--,21,22,149,优,#00E400,#00E400,8,武义北岭幼儿园,#FFFF00,49,优,优,优,330700,#00E400,119.8022,#00E400,34,优,0.6,优,#00E400,#00E400,330723003,优,#00E400,金华市,#00E400,优,42,14,#00E400,81,2026-06-26 20:00:00
83,轻度污染,330521,137,30.548493,优,--,31,36,194,优,#00E400,#00E400,7,春晖小学,#FF7E00,49,优,优,优,330500,#00E400,119.9505,#00E400,30,优,0.7,优,#00E400,#00E400,330521003,优,#00E400,湖州市,#00E400,优,49,20,#00E400,81,2026-06-26 20:00:00
84,轻度污染,330281,158,30.0358,优,--,24,26,186,优,#00E400,#00E400,7,姚江小学,#FF7E00,50,优,优,优,330200,#00E400,121.1221,#00E400,21,优,0.6,优,#00E400,#00E400,330281002,优,#00E400,宁波市,#00E400,优,33,16,#00E400,85,2026-06-26 20:00:00
85,良,330624,158,29.4938,优,--,23,16,159,优,#00E400,#00E400,5,城东站,#FFFF00,50,优,优,优,330600,#00E400,120.9109,#00E400,22,优,0.5,优,#00E400,#00E400,330624002,优,#00E400,绍兴市,#00E400,优,37,12,#00E400,85,2026-06-26 20:00:00
86,良,330783,147,29.30093,优,PM₂.₅,27,15,123,优,#00E400,#FFFF00,7,广厦学院,#FFFF00,52,优,良,优,330700,#00E400,120.24157,#00E400,36,优,0.8,良,#00E400,#00E400,330783001,优,#FFFF00,金华市,#00E400,优,50,14,#00E400,87,2026-06-26 20:00:00
87,良,330782,161,29.2637,优,O₃,27,25,158,良,#00E400,#00E400,3,儿童公园,#FFFF00,52,优,良,优,330700,#00E400,120.0321,#00E400,30,优,0.6,优,#00E400,#00E400,330782004,优,#FFFF00,金华市,#FFFF00,优,46,18,#00E400,87,2026-06-26 20:00:00
88,轻度污染,330122,162,29.8058,优,O₃,36,13,179,良,#00E400,#00E400,4,桐庐江北,#FF7E00,53,优,良,优,330100,#00E400,119.669,#00E400,22,优,0.7,优,#00E400,#00E400,330122002,优,#FFFF00,杭州市,#FFFF00,优,35,20,#00E400,89,2026-06-26 20:00:00
89,良,330783,163,29.27739,优,O₃,23,13,138,良,#00E400,#00E400,7,东阳环保大楼,#FFFF00,54,优,良,优,330700,#00E400,120.23692,#00E400,29,优,0.5,优,#00E400,#00E400,330783002,优,#FFFF00,金华市,#FFFF00,优,45,15,#00E400,90,2026-06-26 20:00:00
90,轻度污染,330226,164,29.3125,优,O₃,20,14,173,良,#00E400,#00E400,8,宁海水利局,#FF7E00,55,优,良,优,330200,#00E400,121.4306,#00E400,15,优,0.4,优,#00E400,#00E400,330226001,优,#FFFF00,宁波市,#FFFF00,优,29,12,#00E400,91,2026-06-26 20:00:00
91,轻度污染,330781,164,29.216166,优,O₃,23,13,163,良,#00E400,#00E400,7,兰溪监测站,#FF7E00,55,优,良,优,330700,#00E400,119.459992,#00E400,27,优,0.6,优,#00E400,#00E400,330781001,优,#FFFF00,金华市,#FFFF00,优,42,14,#00E400,91,2026-06-26 20:00:00
92,轻度污染,330226,165,29.2878,优,O₃,18,16,175,良,#00E400,#00E400,5,宁海城南站,#FF7E00,57,优,良,优,330200,#00E400,121.4201,#00E400,14,优,0.5,优,#00E400,#00E400,330226002,优,#FFFF00,宁波市,#FFFF00,优,22,12,#00E400,93,2026-06-26 20:00:00
93,良,330624,165,29.5036,优,O₃,24,14,160,良,#00E400,#00E400,5,钟楼站,#FFFF00,57,优,良,优,330600,#00E400,120.8938,#00E400,23,优,0.5,优,#00E400,#00E400,330624001,优,#FFFF00,绍兴市,#FFFF00,优,37,13,#00E400,93,2026-06-26 20:00:00
94,轻度污染,330122,166,29.7955,优,O₃,38,13,168,良,#00E400,#00E400,7,桐庐江南,#FF7E00,58,优,良,优,330100,#00E400,119.6874,#00E400,22,优,0.5,优,#00E400,#00E400,330122001,优,#FFFF00,杭州市,#FFFF00,优,38,19,#00E400,95,2026-06-26 20:00:00
95,轻度污染,330481,166,30.5137,优,O₃,29,18,194,良,#00E400,#00E400,11,硖石街道,#FF7E00,58,优,良,优,330400,#00E400,120.7082,#00E400,23,优,0.6,优,#00E400,#00E400,330481002,优,#FFFF00,嘉兴市,#FFFF00,优,34,18,#00E400,95,2026-06-26 20:00:00
96,良,331122,78,28.6574,优,PM₁₀,22,58,107,优,#FFFF00,#00E400,7,缙云中学,#FFFF00,58,优,良,优,331100,#00E400,120.0696,#00E400,27,良,0.5,优,#00E400,#00E400,331122001,优,#FFFF00,丽水市,#00E400,优,60,11,#00E400,95,2026-06-26 20:00:00
97,良,330683,168,29.5663,优,O₃,21,15,155,良,#00E400,#00E400,4,丽湖小区,#FFFF00,60,优,良,优,330600,#00E400,120.8173,#00E400,30,优,0.6,优,#00E400,#00E400,330683002,优,#FFFF00,绍兴市,#FFFF00,优,40,14,#00E400,98,2026-06-26 20:00:00
98,良,330782,136,29.305096,优,PM₁₀,24,25,138,优,#FFFF00,#FFFF00,5,江东,#FFFF00,60,优,良,优,330700,#00E400,120.090442,#00E400,39,良,0.7,良,#00E400,#00E400,330782002,优,#FFFF00,金华市,#00E400,优,63,17,#00E400,98,2026-06-26 20:00:00
99,轻度污染,330681,169,29.6818,优,O₃,28,12,176,良,#00E400,#FFFF00,6,杨树畈,#FF7E00,62,优,良,优,330600,#00E400,120.2359,#00E400,38,优,0.5,良,#00E400,#FFFF00,330681001,良,#FFFF00,绍兴市,#FFFF00,优,48,47,#00E400,100,2026-06-26 20:00:00
100,良,330784,136,28.90016,优,PM₂.₅,25,20,118,优,#FFFF00,#FFFF00,8,西城供电所,#FFFF00,62,优,良,优,330700,#00E400,120.01452,#00E400,41,良,0.6,良,#00E400,#00E400,330784002,优,#FFFF00,金华市,#00E400,优,53,13,#00E400,100,2026-06-26 20:00:00
101,轻度污染,330481,171,30.5261,优,O₃,33,16,192,良,#FFFF00,#00E400,7,海宁监测大楼,#FF7E00,64,优,良,优,330400,#00E400,120.6739,#00E400,27,良,0.5,优,#00E400,#00E400,330481001,优,#FFFF00,嘉兴市,#FFFF00,优,51,19,#00E400,102,2026-06-26 20:00:00
102,轻度污染,330681,172,29.7257,优,O₃,34,20,184,良,#FFFF00,#00E400,8,城新小学,#FF7E00,65,优,良,优,330600,#00E400,120.272,#00E400,34,良,0.5,优,#00E400,#00E400,330681505,优,#FFFF00,绍兴市,#FFFF00,优,52,21,#00E400,103,2026-06-26 20:00:00
103,轻度污染,330681,179,29.726389,优,O₃,28,12,186,良,#FFFF00,#FFFF00,6,青少年宫,#FF7E00,74,优,良,优,330600,#00E400,120.199722,#00E400,39,良,0.3,良,#00E400,#00E400,330681002,优,#FFFF00,绍兴市,#FFFF00,优,51,22,#00E400,104,2026-06-26 20:00:00
104,轻度污染,330483,181,30.625,优,O₃,48,13,175,良,#FFFF00,#FFFF00,6,振东新六中站,#FF7E00,77,优,良,优,330400,#00E400,120.5613,#00E400,46,良,1.0,良,#00E400,#00E400,330483002,优,#FFFF00,嘉兴市,#FFFF00,优,82,25,#00E400,105,2026-06-26 20:00:00
105,轻度污染,330522,181,31.0263,优,O₃,30,16,192,良,#FFFF00,#FFFF00,7,龙山新区,#FF7E00,77,优,良,优,330500,#00E400,119.9046,#00E400,45,良,0.6,良,#00E400,#00E400,330522002,优,#FFFF00,湖州市,#FFFF00,优,58,21,#00E400,105,2026-06-26 20:00:00
106,轻度污染,330522,189,31.0143,优,O₃,30,19,207,良,#FFFF00,#FFFF00,4,职教中心,#FF7E00,87,优,良,优,330500,#00E400,119.8935,#00E400,45,良,0.6,良,#00E400,#00E400,330522001,优,#FFFF00,湖州市,#FFFF00,优,55,21,#00E400,107,2026-06-26 20:00:00
107,轻度污染,330481,192,30.5524,优,O₃,37,18,215,良,#FFFF00,#00E400,7,胜利社区,#FF7E00,90,优,良,优,330400,#00E400,120.6713,#00E400,29,良,0.7,优,#00E400,#00E400,330481003,优,#FFFF00,嘉兴市,#FFFF00,优,53,20,#00E400,108,2026-06-26 20:00:00
108,轻度污染,330110,195,30.2635,优,O₃,38,27,199,良,#FFFF00,#FFFF00,8,海辰小学,#FF7E00,94,优,良,优,330100,#00E400,119.9842,#00E400,37,良,0.5,良,#00E400,#00E400,2013301100001,优,#FFFF00,杭州市,#FFFF00,优,60,24,#00E400,109,2026-06-26 20:00:00
109,轻度污染,330483,198,30.6488,优,O₃,40,15,192,良,#FFFF00,#FFFF00,6,茅盾小学,#FF7E00,98,优,良,优,330400,#00E400,120.5498,#00E400,41,良,0.9,良,#00E400,#00E400,330483001,优,#FFFF00,嘉兴市,#FFFF00,优,59,23,#00E400,110,2026-06-26 20:00:00
110,轻度污染,330683,203,29.5901,优,O₃,23,21,196,轻度污染,#00E400,#00E400,6,马寅初初中,#FF7E00,102,优,轻度污染,优,330600,#00E400,120.8249,#00E400,22,优,0.5,优,#00E400,#00E400,330683001,优,#FF7E00,绍兴市,#FF7E00,优,36,12,#00E400,111,2026-06-26 20:00:00
111,轻度污染,330483,211,30.6355,优,O₃,34,16,211,轻度污染,#00E400,#FFFF00,9,文化中心,#FF7E00,106,优,轻度污染,优,330400,#00E400,120.5795,#00E400,39,优,1.1,良,#00E400,#00E400,330483003,优,#FF7E00,嘉兴市,#FF7E00,优,50,22,#00E400,112,2026-06-26 20:00:00
112,中度污染,330483,226,30.7369,优,O₃,38,24,233,轻度污染,#FFFF00,#FFFF00,5,植材小学,#FF0000,113,优,轻度污染,优,330400,#00E400,120.4902,#00E400,48,良,1.0,良,#00E400,#00E400,330483509,优,#FF7E00,嘉兴市,#FF7E00,优,63,25,#00E400,113,2026-06-26 20:00:00
113,轻度污染,330521,232,30.5231,优,O₃,29,15,202,轻度污染,#FFFF00,#FFFF00,9,地信科创园,#FF7E00,116,优,轻度污染,优,330500,#00E400,119.9781,#00E400,46,良,0.7,良,#00E400,#00E400,330521001,优,#FF7E00,湖州市,#FF7E00,优,64,20,#00E400,114,2026-06-26 20:00:00
114,良,330127,113,29.605,优,--,25,12,138,优,#00E400,#00E400,--,老年活动中心,#FFFF00,--,优,--,优,330100,--,119.0372,#00E400,18,优,0.7,优,#00E400,#00E400,330127T_4,优,--,杭州市,#00E400,--,31,15,#00E400,115,2026-06-26 20:00:00
115,--,330881,--,28.7465,优,--,26,20,--,--,#00E400,--,5,江山环保大楼,--,--,优,--,优,330800,#00E400,118.6301,#00E400,--,优,0.5,--,#00E400,#00E400,330881001,优,--,衢州市,--,优,39,16,#00E400,115,2026-06-26 20:00:00
116,良,331083,139,28.12715,优,--,15,5,124,优,#00E400,#00E400,--,玉环环监站,#FFFF00,--,优,--,优,331000,--,121.2339,#00E400,10,优,0.7,优,#00E400,#00E400,331021001,优,--,台州市,#00E400,--,22,7,#00E400,115,2026-06-26 20:00:00
117,良,330782,161,29.3686,优,--,26,20,158,良,#FFFF00,#00E400,--,第五中学,#FFFF00,--,优,--,优,330700,--,120.1345,#00E400,34,良,0.7,优,#00E400,#00E400,330782003,优,--,金华市,#FFFF00,--,52,15,#00E400,115,2026-06-26 20:00:00
