,O3H8_level,regioncode,O3,latitude,CO_level,SYWRW,PM10H24,NO2,O3H8,O3_level,PM10_color,PM25_color,SO2,sitename,O3H8_color,AQI,NO2_level,AQI_level,PM10H24_level,districtcode,SO2_color,longitude,NO2_color,PM25,PM10_level,CO,PM25_level,CO_color,PM25H24_color,sitecode,PM25H24_level,AQI_color,districtname,O3_color,SO2_level,PM10,PM25H24,PM10H24_color,sort,time
0,优,331127,104,28.002222,优,--,22,8,87,优,#00E400,#00E400,4,红星小学,#00E400,33,优,优,优,331100,#00E400,119.636389,#00E400,17,优,0.6,优,#00E400,#00E400,331127003,优,#00E400,丽水市,#00E400,优,29,8,#00E400,1,2026-06-05 17:00:00
1,优,330328,108,27.804722,优,--,25,13,92,优,#00E400,#00E400,7,文成中学,#00E400,34,优,优,优,330300,#00E400,120.077222,#00E400,12,优,0.5,优,#00E400,#00E400,330328002,优,#00E400,温州市,#00E400,优,17,13,#00E400,2,2026-06-05 17:00:00
2,良,330921,108,30.2669,优,--,22,11,120,优,#00E400,#00E400,5,岱山环保大楼,#FFFF00,34,优,优,优,330900,#00E400,122.2199,#00E400,10,优,0.4,优,#00E400,#00E400,330921001,优,#00E400,舟山市,#00E400,优,14,17,#00E400,2,2026-06-05 17:00:00
3,优,331125,107,28.1173,优,--,16,11,85,优,#00E400,#00E400,7,云和监测楼,#00E400,34,优,优,优,331100,#00E400,119.5626,#00E400,13,优,0.5,优,#00E400,#00E400,331125001,优,#00E400,丽水市,#00E400,优,20,8,#00E400,2,2026-06-05 17:00:00
4,优,331181,108,28.076,优,--,21,9,68,优,#00E400,#00E400,9,粮食大楼,#00E400,34,优,优,优,331100,#00E400,119.1217,#00E400,17,优,0.6,优,#00E400,#00E400,331181002,优,#00E400,丽水市,#00E400,优,25,9,#00E400,2,2026-06-05 17:00:00
5,优,330328,111,27.7838,优,--,28,11,88,优,#00E400,#00E400,3,大峃,#00E400,35,优,优,优,330300,#00E400,120.085,#00E400,13,优,0.6,优,#00E400,#00E400,330328001,优,#00E400,温州市,#00E400,优,19,14,#00E400,6,2026-06-05 17:00:00
6,良,330881,110,28.7465,优,--,29,13,118,优,#00E400,#00E400,1,江山环保大楼,#FFFF00,35,优,优,优,330800,#00E400,118.6301,#00E400,16,优,0.6,优,#00E400,#00E400,330881001,优,#00E400,衢州市,#00E400,优,31,17,#00E400,6,2026-06-05 17:00:00
7,良,330881,109,28.7282,优,--,29,8,108,优,#00E400,#00E400,5,人民医院,#FFFF00,35,优,优,优,330800,#00E400,118.6227,#00E400,15,优,0.6,优,#00E400,#00E400,330881002,优,#00E400,衢州市,#00E400,优,28,21,#00E400,6,2026-06-05 17:00:00
8,良,330921,109,30.2517,优,--,22,5,120,优,#00E400,#00E400,5,岱山高亭,#FFFF00,35,优,优,优,330900,#00E400,122.1958,#00E400,10,优,0.5,优,#00E400,#00E400,330921002,优,#00E400,舟山市,#00E400,优,16,15,#00E400,6,2026-06-05 17:00:00
9,良,331122,111,28.6628,优,--,25,19,110,优,#00E400,#00E400,7,信访大楼,#FFFF00,35,优,优,优,331100,#00E400,120.0856,#00E400,15,优,0.6,优,#00E400,#00E400,331122002,优,#00E400,丽水市,#00E400,优,22,14,#00E400,6,2026-06-05 17:00:00
10,优,331123,112,28.5991,优,--,28,9,70,优,#00E400,#00E400,5,遂昌民政局,#00E400,35,优,优,优,331100,#00E400,119.2622,#00E400,15,优,0.7,优,#00E400,#00E400,331123001,优,#00E400,丽水市,#00E400,优,26,12,#00E400,6,2026-06-05 17:00:00
11,优,331181,112,28.08007,优,--,27,5,73,优,#00E400,#00E400,8,龙泉环保大楼,#00E400,35,优,优,优,331100,#00E400,119.1328,#00E400,19,优,0.4,优,#00E400,#00E400,331181001,优,#00E400,丽水市,#00E400,优,31,9,#00E400,6,2026-06-05 17:00:00
12,优,331127,110,27.9772,优,--,19,7,82,优,#00E400,#00E400,4,景宁县政府,#00E400,35,优,优,优,331100,#00E400,119.6311,#00E400,15,优,0.7,优,#00E400,#00E400,331127002,优,#00E400,丽水市,#00E400,优,21,8,#00E400,6,2026-06-05 17:00:00
13,优,331124,108,28.4505,优,--,24,12,82,优,#00E400,#00E400,4,松阳监测楼,#00E400,36,优,优,优,331100,#00E400,119.4799,#00E400,25,优,0.6,优,#00E400,#00E400,331124001,优,#00E400,丽水市,#00E400,优,24,16,#00E400,14,2026-06-05 17:00:00
14,优,331124,114,28.4516,优,--,23,8,84,优,#00E400,#00E400,5,和平水厂,#00E400,36,优,优,优,331100,#00E400,119.4699,#00E400,18,优,0.6,优,#00E400,#00E400,331124002,优,#00E400,丽水市,#00E400,优,25,11,#00E400,14,2026-06-05 17:00:00
15,良,330922,118,30.7269,优,--,16,5,110,优,#00E400,#00E400,7,嵊泗菜园,#FFFF00,37,优,优,优,330900,#00E400,122.4464,#00E400,9,优,0.4,优,#00E400,#00E400,330922001,优,#00E400,舟山市,#00E400,优,15,12,#00E400,16,2026-06-05 17:00:00
16,优,331123,118,28.5839,优,--,22,7,72,优,#00E400,#00E400,6,遂昌中学,#00E400,37,优,优,优,331100,#00E400,119.2656,#00E400,15,优,0.9,优,#00E400,#00E400,331123002,优,#00E400,丽水市,#00E400,优,25,12,#00E400,16,2026-06-05 17:00:00
17,良,330326,119,27.6593,优,--,28,15,114,优,#00E400,#00E400,9,平阳监测站,#FFFF00,38,优,优,优,330300,#00E400,120.5705,#00E400,19,优,0.6,优,#00E400,#00E400,330326001,优,#00E400,温州市,#00E400,优,38,14,#00E400,18,2026-06-05 17:00:00
18,良,330482,119,30.7292,优,--,36,10,126,优,#00E400,#00E400,9,陆家桥村,#FFFF00,38,优,优,优,330400,#00E400,120.9953,#00E400,13,优,0.4,优,#00E400,#00E400,330482002,优,#00E400,嘉兴市,#00E400,优,18,30,#00E400,18,2026-06-05 17:00:00
19,优,330784,114,28.90016,优,--,38,7,95,优,#00E400,#00E400,8,西城供电所,#00E400,38,优,优,优,330700,#00E400,120.01452,#00E400,23,优,0.6,优,#00E400,#00E400,330784002,优,#00E400,金华市,#00E400,优,38,22,#00E400,18,2026-06-05 17:00:00
20,良,331081,121,28.37558,优,--,25,12,114,优,#00E400,#00E400,5,温岭环监站,#FFFF00,38,优,优,优,331000,#00E400,121.36579,#00E400,8,优,0.6,优,#00E400,#00E400,331081001,优,#00E400,台州市,#00E400,优,25,13,#00E400,18,2026-06-05 17:00:00
21,良,330803,114,28.9844,优,--,31,8,103,优,#00E400,#00E400,6,衢州三中（市）,#FFFF00,39,优,优,优,330800,#00E400,118.9628,#00E400,27,优,0.6,优,#00E400,#00E400,330803704,优,#00E400,衢州市,#00E400,优,34,24,#00E400,22,2026-06-05 17:00:00
22,良,330225,122,29.4767,优,--,34,3,115,优,#00E400,#00E400,8,文峰小学,#FFFF00,39,优,优,优,330200,#00E400,121.8864,#00E400,10,优,0.4,优,#00E400,#00E400,330225001,优,#00E400,宁波市,#00E400,优,17,24,#00E400,22,2026-06-05 17:00:00
23,良,330381,123,27.782284,优,--,26,17,128,优,#00E400,#00E400,9,安阳新区,#FFFF00,39,优,优,优,330300,#00E400,120.650915,#00E400,11,优,0.7,优,#00E400,--,330381002,--,#00E400,温州市,#00E400,优,29,--,#00E400,22,2026-06-05 17:00:00
24,良,330483,124,30.625,优,--,61,17,130,优,#00E400,#00E400,5,振东新六中站,#FFFF00,39,优,优,良,330400,#00E400,120.5613,#00E400,8,优,0.4,优,#00E400,#00E400,330483002,优,#00E400,嘉兴市,#00E400,优,18,32,#FFFF00,22,2026-06-05 17:00:00
25,良,330424,123,30.5042,优,--,36,6,126,优,#00E400,#00E400,5,高级中学,#FFFF00,39,优,优,优,330400,#00E400,120.9413,#00E400,7,优,0.4,优,#00E400,#00E400,330424001,优,#00E400,嘉兴市,#00E400,优,11,27,#00E400,22,2026-06-05 17:00:00
26,良,330781,120,29.229931,优,--,31,11,118,优,#00E400,#00E400,7,兰溪八中,#FFFF00,39,优,优,优,330700,#00E400,119.475172,#00E400,27,优,0.6,优,#00E400,#00E400,330781002,优,#00E400,金华市,#00E400,优,39,22,#00E400,22,2026-06-05 17:00:00
27,良,331022,124,29.11779,优,--,34,7,118,优,#00E400,#00E400,6,三门环监楼,#FFFF00,39,优,优,优,331000,#00E400,121.382189,#00E400,20,优,0.5,优,#00E400,#00E400,331022001,优,#00E400,台州市,#00E400,优,28,24,#00E400,22,2026-06-05 17:00:00
28,良,330382,126,28.1209,优,--,26,13,133,优,#00E400,#00E400,5,乐成,#FFFF00,40,优,优,优,330300,#00E400,120.9659,#00E400,26,优,0.7,优,#00E400,#00E400,330382001,优,#00E400,温州市,#00E400,优,38,17,#00E400,29,2026-06-05 17:00:00
29,良,330327,126,27.522222,优,--,--,12,122,优,#00E400,#00E400,8,苍南中学,#FFFF00,40,优,优,--,330300,#00E400,120.416111,#00E400,27,优,0.8,优,#00E400,#00E400,330327004,优,#00E400,温州市,#00E400,优,40,20,--,29,2026-06-05 17:00:00
30,良,330482,126,30.6937,优,--,36,7,131,优,#00E400,#00E400,8,平湖幼儿园,#FFFF00,40,优,优,优,330400,#00E400,121.0259,#00E400,11,优,0.4,优,#00E400,#00E400,330482001,优,#00E400,嘉兴市,#00E400,优,19,27,#00E400,29,2026-06-05 17:00:00
31,良,330421,128,30.836,优,--,47,10,133,优,#00E400,#00E400,6,嘉善监测大楼,#FFFF00,40,优,优,优,330400,#00E400,120.9226,#00E400,8,优,0.3,优,#00E400,#00E400,330421001,优,#00E400,嘉兴市,#00E400,优,13,34,#00E400,29,2026-06-05 17:00:00
32,良,330483,127,30.6488,优,--,48,12,135,优,#00E400,#00E400,5,茅盾小学,#FFFF00,40,优,优,优,330400,#00E400,120.5498,#00E400,11,优,0.3,优,#00E400,#00E400,330483001,优,#00E400,嘉兴市,#00E400,优,29,30,#00E400,29,2026-06-05 17:00:00
33,良,330781,119,29.216166,优,--,30,14,117,优,#00E400,#00E400,7,兰溪监测站,#FFFF00,40,优,优,优,330700,#00E400,119.459992,#00E400,25,优,0.7,优,#00E400,#00E400,330781001,优,#00E400,金华市,#00E400,优,40,19,#00E400,29,2026-06-05 17:00:00
34,良,330782,127,29.305096,优,--,29,17,118,优,#00E400,#00E400,5,江东,#FFFF00,40,优,优,优,330700,#00E400,120.090442,#00E400,21,优,0.6,优,#00E400,#00E400,330782002,优,#00E400,金华市,#00E400,优,30,19,#00E400,29,2026-06-05 17:00:00
35,良,330784,126,28.8854,优,--,36,6,103,优,#00E400,#00E400,6,永康一中,#FFFF00,40,优,优,优,330700,#00E400,120.0439,#00E400,24,优,0.6,优,#00E400,#00E400,330784001,优,#00E400,金华市,#00E400,优,35,20,#00E400,29,2026-06-05 17:00:00
36,良,331082,128,28.873,优,--,30,11,121,优,#00E400,#00E400,5,临海环保大楼,#FFFF00,40,优,优,优,331000,#00E400,121.1769,#00E400,17,优,0.6,优,#00E400,#00E400,331082001,优,#00E400,台州市,#00E400,优,24,18,#00E400,29,2026-06-05 17:00:00
37,良,331082,127,28.84326,优,--,32,14,124,优,#00E400,#00E400,4,巾山实验小学,#FFFF00,40,优,优,优,331000,#00E400,121.136,#00E400,21,优,0.5,优,#00E400,#00E400,331082002,优,#00E400,台州市,#00E400,优,31,19,#00E400,29,2026-06-05 17:00:00
38,良,330782,127,29.3686,优,--,38,22,112,优,#00E400,#00E400,8,第五中学,#FFFF00,40,优,优,优,330700,#00E400,120.1345,#00E400,16,优,0.6,优,#00E400,#00E400,330782003,优,#00E400,金华市,#00E400,优,25,20,#00E400,29,2026-06-05 17:00:00
39,良,330324,95,28.158269,优,--,30,16,106,优,#00E400,#00E400,7,上塘,#FFFF00,41,优,优,优,330300,#00E400,120.694244,#00E400,28,优,0.9,优,#00E400,#00E400,330324001,优,#00E400,温州市,#00E400,优,41,15,#00E400,40,2026-06-05 17:00:00
40,良,330329,130,27.557,优,--,18,10,107,优,#00E400,#00E400,5,罗阳,#FFFF00,41,优,优,优,330300,#00E400,119.7084,#00E400,13,优,0.6,优,#00E400,#00E400,330329001,优,#00E400,温州市,#00E400,优,20,11,#00E400,40,2026-06-05 17:00:00
41,良,330424,131,30.5299,优,--,33,10,131,优,#00E400,#00E400,4,海盐商贸学校,#FFFF00,41,优,优,优,330400,#00E400,120.9293,#00E400,7,优,0.4,优,#00E400,#00E400,330424002,优,#00E400,嘉兴市,#00E400,优,10,27,#00E400,40,2026-06-05 17:00:00
42,良,330825,131,29.0464,优,--,44,5,126,优,#00E400,#00E400,5,龙游二高,#FFFF00,41,优,优,优,330800,#00E400,119.204,#00E400,24,优,0.5,优,#00E400,#00E400,330825002,优,#00E400,衢州市,#00E400,优,35,18,#00E400,40,2026-06-05 17:00:00
43,良,331083,130,28.12715,优,--,30,9,128,优,#00E400,#00E400,9,玉环环监站,#FFFF00,41,优,优,优,331000,#00E400,121.2339,#00E400,20,优,0.7,优,#00E400,#00E400,331021001,优,#00E400,台州市,#00E400,优,32,18,#00E400,40,2026-06-05 17:00:00
44,良,331022,131,29.1028,优,--,32,10,128,优,#00E400,#00E400,5,心湖站,#FFFF00,41,优,优,优,331000,#00E400,121.3918,#00E400,22,优,0.4,优,#00E400,#00E400,331022002,优,#00E400,台州市,#00E400,优,28,23,#00E400,40,2026-06-05 17:00:00
45,优,331126,129,27.6211,优,--,18,5,65,优,#00E400,#00E400,5,庆元气象局,#00E400,41,优,优,优,331100,#00E400,119.0788,#00E400,4,优,0.7,优,#00E400,#00E400,331126002,优,#00E400,丽水市,#00E400,优,7,8,#00E400,40,2026-06-05 17:00:00
46,良,330723,130,28.9178,优,--,40,9,104,优,#00E400,#00E400,7,武义北岭幼儿园,#FFFF00,41,优,优,优,330700,#00E400,119.8022,#00E400,19,优,0.6,优,#00E400,#00E400,330723003,优,#00E400,金华市,#00E400,优,34,21,#00E400,40,2026-06-05 17:00:00
47,良,330483,131,30.6355,优,--,41,4,142,优,#00E400,#00E400,9,文化中心,#FFFF00,41,优,优,优,330400,#00E400,120.5795,#00E400,8,优,0.5,优,#00E400,#00E400,330483003,优,#00E400,嘉兴市,#00E400,优,15,31,#00E400,40,2026-06-05 17:00:00
48,良,330225,132,29.2003,优,--,36,9,124,优,#00E400,#00E400,7,石浦新港小学,#FFFF00,42,优,优,优,330200,#00E400,121.934,#00E400,13,优,0.6,优,#00E400,#00E400,330225002,优,#00E400,宁波市,#00E400,优,19,26,#00E400,49,2026-06-05 17:00:00
49,优,330324,88,28.044335,优,--,28,34,88,优,#00E400,#00E400,6,瓯北,#00E400,42,优,优,优,330300,#00E400,120.654963,#00E400,27,优,0.7,优,#00E400,#00E400,330324002,优,#00E400,温州市,#00E400,优,42,14,#00E400,49,2026-06-05 17:00:00
50,良,330329,132,27.5438,优,--,16,7,104,优,#00E400,#00E400,6,泰顺实验中学,#FFFF00,42,优,优,优,330300,#00E400,119.716111,#00E400,11,优,0.5,优,#00E400,#00E400,330329002,优,#00E400,温州市,#00E400,优,14,11,#00E400,49,2026-06-05 17:00:00
51,良,330481,132,30.5261,优,--,44,10,140,优,#00E400,#00E400,6,海宁监测大楼,#FFFF00,42,优,优,优,330400,#00E400,120.6739,#00E400,8,优,0.2,优,#00E400,#00E400,330481001,优,#00E400,嘉兴市,#00E400,优,13,30,#00E400,49,2026-06-05 17:00:00
52,--,330723,134,28.896108,优,--,32,5,--,优,#00E400,#00E400,7,武义县政府,--,42,优,优,优,330700,#00E400,119.811352,#00E400,22,优,0.6,优,#00E400,#00E400,330723001,优,#00E400,金华市,#00E400,优,32,18,#00E400,49,2026-06-05 17:00:00
53,良,330825,132,29.0392,优,--,30,10,131,优,#00E400,#00E400,5,建设大楼,#FFFF00,42,优,优,优,330800,#00E400,119.1675,#00E400,21,优,0.6,优,#00E400,#00E400,330825001,优,#00E400,衢州市,#00E400,优,34,20,#00E400,49,2026-06-05 17:00:00
54,良,331024,119,28.8589,优,--,31,11,115,优,#00E400,#00E400,9,仙居环监站,#FFFF00,42,优,优,优,331000,#00E400,120.7248,#00E400,23,优,0.8,优,#00E400,#00E400,331024001,优,#00E400,台州市,#00E400,优,42,16,#00E400,49,2026-06-05 17:00:00
55,良,331023,134,29.1504,优,--,29,13,108,优,#00E400,#00E400,6,育青中学,#FFFF00,42,优,优,优,331000,#00E400,121.0091,#00E400,22,优,0.7,优,#00E400,#00E400,331023001,优,#00E400,台州市,#00E400,优,37,16,#00E400,49,2026-06-05 17:00:00
56,优,331126,134,27.629585,优,--,20,5,66,优,#00E400,#00E400,4,庆元监测楼,#00E400,42,优,优,优,331100,#00E400,119.054809,#00E400,4,优,0.6,优,#00E400,#00E400,331126001,优,#00E400,丽水市,#00E400,优,12,7,#00E400,49,2026-06-05 17:00:00
57,良,330281,136,30.0497,优,--,34,10,136,优,#00E400,#00E400,5,龙山公园,#FFFF00,43,优,优,优,330200,#00E400,121.1475,#00E400,9,优,0.4,优,#00E400,#00E400,330281001,优,#00E400,宁波市,#00E400,优,14,24,#00E400,58,2026-06-05 17:00:00
58,良,330281,137,30.0358,优,--,36,13,140,优,#00E400,#00E400,5,姚江小学,#FFFF00,43,优,优,优,330200,#00E400,121.1221,#00E400,11,优,0.5,优,#00E400,#00E400,330281002,优,#00E400,宁波市,#00E400,优,17,26,#00E400,58,2026-06-05 17:00:00
59,良,330282,135,30.1636,优,--,46,6,140,优,#00E400,#00E400,3,慈溪环保大楼,#FFFF00,43,优,优,优,330200,#00E400,121.2677,#00E400,13,优,0.5,优,#00E400,#00E400,330282001,优,#00E400,宁波市,#00E400,优,19,26,#00E400,58,2026-06-05 17:00:00
60,良,330226,137,29.3125,优,--,46,13,124,优,#00E400,#00E400,6,宁海水利局,#FFFF00,43,优,优,优,330200,#00E400,121.4306,#00E400,11,优,0.5,优,#00E400,#00E400,330226001,优,#00E400,宁波市,#00E400,优,16,30,#00E400,58,2026-06-05 17:00:00
61,良,330326,135,27.6653,优,--,27,11,132,优,#00E400,#00E400,8,平阳县政府,#FFFF00,43,优,优,优,330300,#00E400,120.5611,#00E400,20,优,0.5,优,#00E400,#00E400,330326002,优,#00E400,温州市,#00E400,优,40,14,#00E400,58,2026-06-05 17:00:00
62,良,330327,119,27.503889,优,--,26,9,107,优,#00E400,#00E400,9,灵溪,#FFFF00,43,优,优,优,330300,#00E400,120.395278,#00E400,27,优,0.6,优,#00E400,#00E400,330327001,优,#00E400,温州市,#00E400,优,43,18,#00E400,58,2026-06-05 17:00:00
63,良,330481,135,30.5137,优,--,39,4,142,优,#00E400,#00E400,9,硖石街道,#FFFF00,43,优,优,优,330400,#00E400,120.7082,#00E400,7,优,0.4,优,#00E400,#00E400,330481002,优,#00E400,嘉兴市,#00E400,优,13,28,#00E400,58,2026-06-05 17:00:00
64,良,330783,136,29.30093,优,--,36,15,126,优,#00E400,#00E400,6,广厦学院,#FFFF00,43,优,优,优,330700,#00E400,120.24157,#00E400,21,优,0.8,优,#00E400,#00E400,330783001,优,#00E400,金华市,#00E400,优,37,18,#00E400,58,2026-06-05 17:00:00
65,良,331023,135,29.1342,优,--,27,15,115,优,#00E400,#00E400,6,天台实验中学,#FFFF00,43,优,优,优,331000,#00E400,121.0349,#00E400,18,优,0.7,优,#00E400,#00E400,331023002,优,#00E400,台州市,#00E400,优,33,16,#00E400,58,2026-06-05 17:00:00
66,良,330110,137,30.2635,优,--,38,14,146,优,#00E400,#00E400,8,海辰小学,#FFFF00,43,优,优,优,330100,#00E400,119.9842,#00E400,6,优,0.4,优,#00E400,#00E400,2013301100001,优,#00E400,杭州市,#00E400,优,18,25,#00E400,58,2026-06-05 17:00:00
67,良,330782,135,29.2637,优,--,38,12,123,优,#00E400,#00E400,6,儿童公园,#FFFF00,43,优,优,优,330700,#00E400,120.0321,#00E400,21,优,0.4,优,#00E400,#00E400,330782004,优,#00E400,金华市,#00E400,优,32,20,#00E400,58,2026-06-05 17:00:00
68,良,330726,140,29.439787,优,--,33,10,138,优,#00E400,#00E400,4,浦江中学,#FFFF00,44,优,优,优,330700,#00E400,119.924638,#00E400,14,优,0.3,优,#00E400,#00E400,330726002,优,#00E400,金华市,#00E400,优,22,21,#00E400,69,2026-06-05 17:00:00
69,良,330783,139,29.27739,优,--,36,13,127,优,#00E400,#00E400,6,东阳环保大楼,#FFFF00,44,优,优,优,330700,#00E400,120.23692,#00E400,20,优,0.6,优,#00E400,#00E400,330783002,优,#00E400,金华市,#00E400,优,31,21,#00E400,69,2026-06-05 17:00:00
70,良,330481,139,30.5524,优,--,50,6,151,优,#00E400,#00E400,6,胜利社区,#FFFF00,44,优,优,优,330400,#00E400,120.6713,#00E400,9,优,0.5,优,#00E400,#00E400,330481003,优,#00E400,嘉兴市,#00E400,优,14,27,#00E400,69,2026-06-05 17:00:00
71,良,330383,140,27.5617,优,--,29,14,133,优,#00E400,#00E400,6,龙港实验中学,#FFFF00,44,优,优,优,330300,#00E400,120.5355,#00E400,30,优,0.6,优,#00E400,#00E400,330303101,优,#00E400,温州市,#00E400,优,43,19,#00E400,69,2026-06-05 17:00:00
72,良,330681,143,29.7257,优,--,32,11,146,优,#00E400,#00E400,7,城新小学,#FFFF00,45,优,优,优,330600,#00E400,120.272,#00E400,15,优,0.5,优,#00E400,#00E400,330681505,优,#00E400,绍兴市,#00E400,优,26,19,#00E400,73,2026-06-05 17:00:00
73,良,330282,141,30.1786,优,--,45,6,146,优,#00E400,#00E400,5,慈溪实验小学,#FFFF00,45,优,优,优,330200,#00E400,121.2525,#00E400,14,优,0.4,优,#00E400,#00E400,330282002,优,#00E400,宁波市,#00E400,优,18,27,#00E400,73,2026-06-05 17:00:00
74,良,330226,142,29.2878,优,--,45,13,120,优,#00E400,#00E400,6,宁海城南站,#FFFF00,45,优,优,优,330200,#00E400,121.4201,#00E400,18,优,0.4,优,#00E400,#00E400,330226002,优,#00E400,宁波市,#00E400,优,26,31,#00E400,73,2026-06-05 17:00:00
75,良,330305,141,27.8342,优,--,22,6,137,优,#00E400,#00E400,7,洞头气象局,#FFFF00,45,优,优,优,330300,#00E400,121.1502,#00E400,22,优,0.6,优,#00E400,#00E400,330305001,优,#00E400,温州市,#00E400,优,31,13,#00E400,73,2026-06-05 17:00:00
76,良,330421,141,30.8307,优,--,38,9,145,优,#00E400,#00E400,9,气象观测台,#FFFF00,45,优,优,优,330400,#00E400,120.9356,#00E400,7,优,0.4,优,#00E400,#00E400,330421002,优,#00E400,嘉兴市,#00E400,优,16,23,#00E400,73,2026-06-05 17:00:00
77,良,330726,142,29.465746,优,--,26,10,138,优,#00E400,#00E400,7,浦江实验中学,#FFFF00,45,优,优,优,330700,#00E400,119.875227,#00E400,16,优,0.5,优,#00E400,#00E400,330726001,优,#00E400,金华市,#00E400,优,26,15,#00E400,73,2026-06-05 17:00:00
78,良,331081,142,28.39136,优,--,32,8,128,优,#00E400,#00E400,3,之江高级中学,#FFFF00,45,优,优,优,331000,#00E400,121.37696,#00E400,17,优,0.6,优,#00E400,#00E400,331081002,优,#00E400,台州市,#00E400,优,31,16,#00E400,73,2026-06-05 17:00:00
79,良,330212,141,29.7736,优,--,38,10,151,优,#00E400,#00E400,4,钱湖水厂,#FFFF00,45,优,优,优,330200,#00E400,121.6330,#00E400,8,优,0.4,优,#00E400,#00E400,2013302120001,优,#00E400,宁波市,#00E400,优,14,30,#00E400,73,2026-06-05 17:00:00
80,良,330381,111,27.791645,优,--,32,19,120,优,#00E400,#00E400,5,花园桥,#FFFF00,46,优,优,优,330300,#00E400,120.62372,#00E400,26,优,0.6,优,#00E400,#00E400,330381001,优,#00E400,温州市,#00E400,优,46,17,#00E400,81,2026-06-05 17:00:00
81,良,330681,145,29.726389,优,--,33,7,145,优,#00E400,#00E400,7,青少年宫,#FFFF00,46,优,优,优,330600,#00E400,120.199722,#00E400,22,优,0.4,优,#00E400,#00E400,330681002,优,#00E400,绍兴市,#00E400,优,43,24,#00E400,81,2026-06-05 17:00:00
82,良,330727,147,29.051486,优,--,29,10,132,优,#00E400,#00E400,8,国税大楼,#FFFF00,46,优,优,优,330700,#00E400,120.438346,#00E400,24,优,0.6,优,#00E400,#00E400,330727002,优,#00E400,金华市,#00E400,优,43,16,#00E400,81,2026-06-05 17:00:00
83,良,330727,144,29.039869,优,--,35,6,137,优,#00E400,#00E400,6,南园初中,#FFFF00,46,优,优,优,330700,#00E400,120.440622,#00E400,32,优,0.6,优,#00E400,#00E400,330727003,优,#00E400,金华市,#00E400,优,41,19,#00E400,81,2026-06-05 17:00:00
84,良,331083,147,28.2221,优,--,26,12,147,优,#00E400,#00E400,6,楚门中心小学,#FFFF00,46,优,优,优,331000,#00E400,121.2846,#00E400,28,优,0.8,优,#00E400,#00E400,331021002,优,#00E400,台州市,#00E400,优,32,22,#00E400,81,2026-06-05 17:00:00
85,轻度污染,330213,150,29.6774,优,--,48,16,164,优,#00E400,#00E400,5,大桥市场,#FF7E00,47,优,优,优,330200,#00E400,121.4237,#00E400,10,优,0.6,优,#00E400,#00E400,330213001,优,#00E400,宁波市,#00E400,优,18,34,#00E400,86,2026-06-05 17:00:00
86,良,330383,134,27.5812,优,--,27,14,130,优,#00E400,#00E400,7,龙港,#FFFF00,48,优,优,优,330300,#00E400,120.5489,#00E400,33,优,0.7,优,#00E400,#00E400,330327002,优,#00E400,温州市,#00E400,优,43,19,#00E400,87,2026-06-05 17:00:00
87,良,330822,128,28.901,优,--,22,9,122,优,#00E400,#00E400,5,常山环保大楼,#FFFF00,48,优,优,优,330800,#00E400,118.5196,#00E400,29,优,0.7,优,#00E400,#00E400,330822001,优,#00E400,衢州市,#00E400,优,48,9,#00E400,87,2026-06-05 17:00:00
88,良,330483,152,30.7369,优,--,46,9,157,优,#00E400,#00E400,7,植材小学,#FFFF00,48,优,优,优,330400,#00E400,120.4902,#00E400,10,优,0.5,优,#00E400,#00E400,330483509,优,#00E400,嘉兴市,#00E400,优,24,31,#00E400,87,2026-06-05 17:00:00
89,良,330213,154,29.6506,优,--,37,11,155,优,#00E400,#00E400,7,奉化教育局,#FFFF00,49,优,优,优,330200,#00E400,121.4042,#00E400,15,优,0.6,优,#00E400,#00E400,330283005,优,#00E400,宁波市,#00E400,优,23,25,#00E400,90,2026-06-05 17:00:00
90,良,330122,157,29.7955,优,--,39,19,149,优,#00E400,#00E400,8,桐庐江南,#FFFF00,50,优,优,优,330100,#00E400,119.6874,#00E400,14,优,0.3,优,#00E400,#00E400,330122001,优,#00E400,杭州市,#00E400,优,22,20,#00E400,91,2026-06-05 17:00:00
91,轻度污染,330213,158,29.693,优,--,37,13,164,优,#00E400,#00E400,5,溪口政府大楼,#FF7E00,50,优,优,优,330200,#00E400,121.2774,#00E400,18,优,0.4,优,#00E400,#00E400,330283T_1,优,#00E400,宁波市,#00E400,优,31,23,#00E400,91,2026-06-05 17:00:00
92,良,330521,158,30.5231,优,--,38,10,151,优,#00E400,#00E400,8,地信科创园,#FFFF00,50,优,优,优,330500,#00E400,119.9781,#00E400,10,优,0.4,优,#00E400,#00E400,330521001,优,#00E400,湖州市,#00E400,优,21,29,#00E400,91,2026-06-05 17:00:00
93,良,330822,134,28.9012,优,--,27,8,126,优,#00E400,#00E400,5,图书馆大楼,#FFFF00,50,优,优,优,330800,#00E400,118.5062,#00E400,27,优,0.5,优,#00E400,#00E400,330822002,优,#00E400,衢州市,#00E400,优,50,11,#00E400,91,2026-06-05 17:00:00
94,良,331024,123,28.7403,优,--,26,12,118,优,#00E400,#00E400,6,新生中学,#FFFF00,50,优,优,优,331000,#00E400,120.4728,#00E400,35,优,0.7,优,#00E400,#00E400,331024002,优,#00E400,台州市,#00E400,优,43,18,#00E400,91,2026-06-05 17:00:00
95,良,330182,147,29.4638,优,PM₁₀,36,18,139,优,#FFFF00,#FFFF00,5,第二中学,#FFFF00,53,优,良,优,330100,#00E400,119.2821,#00E400,36,良,0.7,良,#00E400,#00E400,330182002,优,#FFFF00,杭州市,#00E400,优,53,21,#00E400,96,2026-06-05 17:00:00
96,良,330824,162,29.1343,优,"O₃,PM₁₀",27,6,115,良,#FFFF00,#00E400,6,开化气象局,#FFFF00,53,优,良,优,330800,#00E400,118.402,#00E400,31,良,0.5,优,#00E400,#00E400,330824001,优,#FFFF00,衢州市,#FFFF00,优,53,9,#00E400,96,2026-06-05 17:00:00
97,优,331121,87,28.1094,优,PM₁₀,33,19,75,优,#FFFF00,#00E400,5,青田中学,#00E400,53,优,良,优,331100,#00E400,120.3161,#00E400,33,良,0.6,优,#00E400,#00E400,331121002,优,#FFFF00,丽水市,#00E400,优,53,17,#00E400,96,2026-06-05 17:00:00
98,良,330382,116,28.0297,优,PM₂.₅,33,21,125,优,#00E400,#FFFF00,4,柳市,#FFFF00,54,优,良,优,330300,#00E400,120.891,#00E400,37,优,0.6,良,#00E400,#00E400,330382002,优,#FFFF00,温州市,#00E400,优,49,20,#00E400,99,2026-06-05 17:00:00
99,良,330681,141,29.6818,优,PM₁₀,35,7,136,优,#FFFF00,#00E400,7,杨树畈,#FFFF00,54,优,良,优,330600,#00E400,120.2359,#00E400,14,良,0.3,优,#00E400,#00E400,330681001,优,#FFFF00,绍兴市,#00E400,优,55,18,#00E400,99,2026-06-05 17:00:00
100,良,330182,160,29.4769,优,PM₁₀,39,11,147,优,#FFFF00,#FFFF00,6,建德监测大楼,#FFFF00,55,优,良,优,330100,#00E400,119.2711,#00E400,37,良,0.7,良,#00E400,#00E400,330182T_2,优,#FFFF00,杭州市,#00E400,优,56,22,#00E400,101,2026-06-05 17:00:00
101,良,330683,164,29.5663,优,O₃,25,17,138,良,#00E400,#00E400,2,丽湖小区,#FFFF00,55,优,良,优,330600,#00E400,120.8173,#00E400,18,优,0.5,优,#00E400,#00E400,330683002,优,#FFFF00,绍兴市,#FFFF00,优,24,19,#00E400,101,2026-06-05 17:00:00
102,优,331121,104,28.1341,优,PM₂.₅,35,20,96,优,#FFFF00,#FFFF00,6,塔山小学,#00E400,56,优,良,优,331100,#00E400,120.2936,#00E400,38,良,0.7,良,#00E400,#00E400,331121001,优,#FFFF00,丽水市,#00E400,优,52,17,#00E400,103,2026-06-05 17:00:00
103,良,330127,160,29.5995,优,PM₁₀,31,9,128,优,#FFFF00,#00E400,8,淳安环保大楼,#FFFF00,58,优,良,优,330100,#00E400,119.0481,#00E400,32,良,0.6,优,#00E400,#00E400,330127001,优,#FFFF00,杭州市,#00E400,优,61,17,#00E400,104,2026-06-05 17:00:00
104,良,330782,167,29.335473,优,O₃,33,14,112,良,#00E400,#00E400,6,北苑,#FFFF00,59,优,良,优,330700,#00E400,120.078609,#00E400,17,优,0.7,优,#00E400,#00E400,330782001,优,#FFFF00,金华市,#FFFF00,优,25,22,#00E400,105,2026-06-05 17:00:00
105,优,331125,100,28.1062,优,PM₁₀,35,9,78,优,#FFFF00,#00E400,6,云和三中,#00E400,60,优,良,优,331100,#00E400,119.5728,#00E400,16,良,0.6,优,#00E400,#00E400,331125002,优,#FFFF00,丽水市,#00E400,优,64,10,#00E400,106,2026-06-05 17:00:00
106,良,330122,170,29.8058,优,O₃,36,12,156,良,#00E400,#00E400,7,桐庐江北,#FFFF00,63,优,良,优,330100,#00E400,119.669,#00E400,23,优,0.4,优,#00E400,#00E400,330122002,优,#FFFF00,杭州市,#FFFF00,优,23,26,#00E400,107,2026-06-05 17:00:00
107,轻度污染,330521,170,30.548493,优,O₃,41,14,162,良,#00E400,#00E400,8,春晖小学,#FF7E00,63,优,良,优,330500,#00E400,119.9505,#00E400,12,优,0.4,优,#00E400,#00E400,330521003,优,#FFFF00,湖州市,#FFFF00,优,22,30,#00E400,107,2026-06-05 17:00:00
108,良,330522,172,31.0263,优,O₃,30,10,159,良,#00E400,#00E400,5,龙山新区,#FFFF00,65,优,良,优,330500,#00E400,119.9046,#00E400,9,优,0.3,优,#00E400,#00E400,330522002,优,#FFFF00,湖州市,#FFFF00,优,15,21,#00E400,109,2026-06-05 17:00:00
109,良,330824,173,29.1478,优,O₃,27,7,124,良,#FFFF00,#00E400,7,开化监测大楼,#FFFF00,67,优,良,优,330800,#00E400,118.4108,#00E400,35,良,0.7,优,#00E400,#00E400,330824002,优,#FFFF00,衢州市,#FFFF00,优,53,15,#00E400,110,2026-06-05 17:00:00
110,良,330624,179,29.5036,优,O₃,32,10,150,良,#00E400,#00E400,3,钟楼站,#FFFF00,74,优,良,优,330600,#00E400,120.8938,#00E400,21,优,0.5,优,#00E400,#00E400,330624001,优,#FFFF00,绍兴市,#FFFF00,优,33,16,#00E400,111,2026-06-05 17:00:00
111,轻度污染,330523,180,30.6422,优,O₃,37,11,171,良,#00E400,#00E400,7,安吉实验小学,#FF7E00,75,优,良,优,330500,#00E400,119.6768,#00E400,12,优,0.3,优,#00E400,#00E400,330523001,优,#FFFF00,湖州市,#FFFF00,优,27,26,#00E400,112,2026-06-05 17:00:00
112,良,330683,185,29.5901,优,O₃,30,15,134,良,#00E400,#00E400,6,马寅初初中,#FFFF00,82,优,良,优,330600,#00E400,120.8249,#00E400,18,优,0.4,优,#00E400,#00E400,330683001,优,#FFFF00,绍兴市,#FFFF00,优,38,20,#00E400,113,2026-06-05 17:00:00
113,轻度污染,330624,197,29.4938,优,O₃,33,14,167,良,#00E400,#00E400,5,城东站,#FF7E00,97,优,良,优,330600,#00E400,120.9109,#00E400,21,优,0.5,优,#00E400,#00E400,330624002,优,#FFFF00,绍兴市,#FFFF00,优,30,18,#00E400,114,2026-06-05 17:00:00
114,良,330127,177,29.605,优,--,26,10,142,良,#FFFF00,#00E400,--,老年活动中心,#FFFF00,--,优,--,优,330100,--,119.0372,#00E400,34,良,0.7,优,#00E400,#00E400,330127T_4,优,--,杭州市,#FFFF00,--,51,16,#00E400,115,2026-06-05 17:00:00
115,--,330523,--,30.5974,--,--,--,--,--,--,--,--,--,安吉城东,--,--,--,--,--,330500,--,119.6953,--,--,--,--,--,--,--,330523002,--,--,湖州市,--,--,--,--,--,115,2026-06-05 17:00:00
116,轻度污染,330522,185,31.0143,优,--,34,14,171,良,#00E400,--,4,职教中心,#FF7E00,--,优,--,优,330500,#00E400,119.8935,#00E400,--,优,0.3,--,#00E400,#00E400,330522001,优,--,湖州市,#FFFF00,优,21,24,#00E400,115,2026-06-05 17:00:00
117,良,331122,129,28.6574,--,--,30,18,128,优,#00E400,#00E400,7,缙云中学,#FFFF00,--,优,--,优,331100,#00E400,120.0696,#00E400,24,优,--,优,--,#00E400,331122001,优,--,丽水市,#00E400,优,35,17,#00E400,115,2026-06-05 17:00:00
