,O3H8_level,regioncode,O3,latitude,CO_level,SYWRW,PM10H24,NO2,O3H8,O3_level,PM10_color,PM25_color,SO2,sitename,O3H8_color,AQI,NO2_level,AQI_level,PM10H24_level,districtcode,SO2_color,longitude,NO2_color,PM25,PM10_level,CO,PM25_level,CO_color,PM25H24_color,sitecode,PM25H24_level,AQI_color,districtname,O3_color,SO2_level,PM10,PM25H24,PM10H24_color,sort,time
0,优,331125,29,28.1173,优,--,14,18,53,优,#00E400,#00E400,5,云和监测楼,#00E400,10,优,优,优,331100,#00E400,119.5626,#00E400,6,优,0.4,优,#00E400,#00E400,331125001,优,#00E400,丽水市,#00E400,优,10,11,#00E400,1,2026-07-19 19:00:00
1,优,330523,34,30.5974,优,--,10,4,52,优,#00E400,#00E400,4,安吉城东,#00E400,12,优,优,优,330500,#00E400,119.6953,#00E400,6,优,0.3,优,#00E400,#00E400,330523002,优,#00E400,湖州市,#00E400,优,12,7,#00E400,2,2026-07-19 19:00:00
2,优,331127,32,28.002222,优,--,14,8,48,优,#00E400,#00E400,4,红星小学,#00E400,13,优,优,优,331100,#00E400,119.636389,#00E400,7,优,0.5,优,#00E400,#00E400,331127003,优,#00E400,丽水市,#00E400,优,13,9,#00E400,3,2026-07-19 19:00:00
3,优,331127,35,27.9772,优,--,10,9,44,优,#00E400,#00E400,4,景宁县政府,#00E400,13,优,优,优,331100,#00E400,119.6311,#00E400,4,优,0.4,优,#00E400,#00E400,331127002,优,#00E400,丽水市,#00E400,优,13,6,#00E400,3,2026-07-19 19:00:00
4,优,330127,43,29.5995,优,--,15,8,51,优,#00E400,#00E400,8,淳安环保大楼,#00E400,14,优,优,优,330100,#00E400,119.0481,#00E400,8,优,0.5,优,#00E400,#00E400,330127001,优,#00E400,杭州市,#00E400,优,13,10,#00E400,5,2026-07-19 19:00:00
5,优,330522,43,31.0143,优,--,16,15,72,优,#00E400,#00E400,3,职教中心,#00E400,14,优,优,优,330500,#00E400,119.8935,#00E400,4,优,0.5,优,#00E400,#00E400,330522001,优,#00E400,湖州市,#00E400,优,9,7,#00E400,5,2026-07-19 19:00:00
6,优,330726,42,29.465746,优,--,17,11,61,优,#00E400,#00E400,7,浦江实验中学,#00E400,14,优,优,优,330700,#00E400,119.875227,#00E400,5,优,0.6,优,#00E400,#00E400,330726001,优,#00E400,金华市,#00E400,优,5,14,#00E400,5,2026-07-19 19:00:00
7,优,330781,43,29.216166,优,--,31,19,62,优,#00E400,#00E400,7,兰溪监测站,#00E400,14,优,优,优,330700,#00E400,119.459992,#00E400,8,优,0.7,优,#00E400,#00E400,330781001,优,#00E400,金华市,#00E400,优,12,17,#00E400,5,2026-07-19 19:00:00
8,优,330784,44,28.90016,优,--,36,10,55,优,#00E400,#00E400,8,西城供电所,#00E400,14,优,优,优,330700,#00E400,120.01452,#00E400,4,优,0.5,优,#00E400,#00E400,330784002,优,#00E400,金华市,#00E400,优,13,20,#00E400,5,2026-07-19 19:00:00
9,优,331123,42,28.5991,优,--,15,6,54,优,#00E400,#00E400,8,遂昌民政局,#00E400,14,优,优,优,331100,#00E400,119.2622,#00E400,4,优,0.5,优,#00E400,#00E400,331123001,优,#00E400,丽水市,#00E400,优,8,9,#00E400,5,2026-07-19 19:00:00
10,优,330329,45,27.5438,优,--,20,6,58,优,#00E400,#00E400,6,泰顺实验中学,#00E400,15,优,优,优,330300,#00E400,119.716111,#00E400,7,优,0.4,优,#00E400,#00E400,330329002,优,#00E400,温州市,#00E400,优,13,11,#00E400,11,2026-07-19 19:00:00
11,优,330726,41,29.439787,优,--,26,23,58,优,#00E400,#00E400,4,浦江中学,#00E400,15,优,优,优,330700,#00E400,119.924638,#00E400,8,优,0.5,优,#00E400,#00E400,330726002,优,#00E400,金华市,#00E400,优,15,15,#00E400,11,2026-07-19 19:00:00
12,优,330784,46,28.8854,优,--,28,12,67,优,#00E400,#00E400,8,永康一中,#00E400,15,优,优,优,330700,#00E400,120.0439,#00E400,3,优,0.5,优,#00E400,#00E400,330784001,优,#00E400,金华市,#00E400,优,9,14,#00E400,11,2026-07-19 19:00:00
13,优,330824,44,29.1343,优,--,18,10,56,优,#00E400,#00E400,6,开化气象局,#00E400,15,优,优,优,330800,#00E400,118.402,#00E400,10,优,0.4,优,#00E400,#00E400,330824001,优,#00E400,衢州市,#00E400,优,14,7,#00E400,11,2026-07-19 19:00:00
14,优,331123,46,28.5839,优,--,14,6,50,优,#00E400,#00E400,7,遂昌中学,#00E400,15,优,优,优,331100,#00E400,119.2656,#00E400,6,优,0.5,优,#00E400,#00E400,331123002,优,#00E400,丽水市,#00E400,优,9,9,#00E400,11,2026-07-19 19:00:00
15,优,330127,50,29.605,优,--,13,4,56,优,#00E400,#00E400,11,老年活动中心,#00E400,16,优,优,优,330100,#00E400,119.0372,#00E400,6,优,0.5,优,#00E400,#00E400,330127T_4,优,#00E400,杭州市,#00E400,优,11,8,#00E400,16,2026-07-19 19:00:00
16,优,330521,50,30.5231,优,--,13,9,68,优,#00E400,#00E400,6,地信科创园,#00E400,16,优,优,优,330500,#00E400,119.9781,#00E400,7,优,0.5,优,#00E400,#00E400,330521001,优,#00E400,湖州市,#00E400,优,10,8,#00E400,16,2026-07-19 19:00:00
17,优,330522,50,31.0263,优,--,16,19,77,优,#00E400,#00E400,5,龙山新区,#00E400,16,优,优,优,330500,#00E400,119.9046,#00E400,6,优,0.5,优,#00E400,#00E400,330522002,优,#00E400,湖州市,#00E400,优,9,11,#00E400,16,2026-07-19 19:00:00
18,优,330681,39,29.726389,优,--,23,25,64,优,#00E400,#00E400,5,青少年宫,#00E400,16,优,优,优,330600,#00E400,120.199722,#00E400,7,优,0.6,优,#00E400,#00E400,330681002,优,#00E400,绍兴市,#00E400,优,16,17,#00E400,16,2026-07-19 19:00:00
19,优,330727,49,29.039869,优,--,20,10,73,优,#00E400,#00E400,7,南园初中,#00E400,16,优,优,优,330700,#00E400,120.440622,#00E400,1,优,0.7,优,#00E400,#00E400,330727003,优,#00E400,金华市,#00E400,优,6,12,#00E400,16,2026-07-19 19:00:00
20,优,331125,34,28.1062,优,--,21,9,55,优,#00E400,#00E400,6,云和三中,#00E400,16,优,优,优,331100,#00E400,119.5728,#00E400,10,优,0.5,优,#00E400,#00E400,331125002,优,#00E400,丽水市,#00E400,优,16,11,#00E400,16,2026-07-19 19:00:00
21,优,330122,46,29.8058,优,--,22,30,69,优,#00E400,#00E400,4,桐庐江北,#00E400,17,优,优,优,330100,#00E400,119.669,#00E400,9,优,0.5,优,#00E400,#00E400,330122002,优,#00E400,杭州市,#00E400,优,17,10,#00E400,22,2026-07-19 19:00:00
22,优,330122,53,29.7955,优,--,21,17,71,优,#00E400,#00E400,5,桐庐江南,#00E400,17,优,优,优,330100,#00E400,119.6874,#00E400,6,优,0.5,优,#00E400,#00E400,330122001,优,#00E400,杭州市,#00E400,优,12,11,#00E400,22,2026-07-19 19:00:00
23,优,330523,39,30.6422,优,--,17,8,58,优,#00E400,#00E400,7,安吉实验小学,#00E400,17,优,优,优,330500,#00E400,119.6768,#00E400,9,优,0.4,优,#00E400,#00E400,330523001,优,#00E400,湖州市,#00E400,优,17,11,#00E400,22,2026-07-19 19:00:00
24,优,330727,54,29.051486,优,--,20,13,75,优,#00E400,#00E400,8,国税大楼,#00E400,17,优,优,优,330700,#00E400,120.438346,#00E400,2,优,0.5,优,#00E400,#00E400,330727002,优,#00E400,金华市,#00E400,优,6,14,#00E400,22,2026-07-19 19:00:00
25,优,330781,42,29.229931,优,--,27,13,66,优,#00E400,#00E400,8,兰溪八中,#00E400,17,优,优,优,330700,#00E400,119.475172,#00E400,9,优,0.7,优,#00E400,#00E400,330781002,优,#00E400,金华市,#00E400,优,17,16,#00E400,22,2026-07-19 19:00:00
26,优,330822,54,28.901,优,--,17,10,63,优,#00E400,#00E400,4,常山环保大楼,#00E400,17,优,优,优,330800,#00E400,118.5196,#00E400,4,优,0.5,优,#00E400,#00E400,330822001,优,#00E400,衢州市,#00E400,优,17,5,#00E400,22,2026-07-19 19:00:00
27,优,331023,52,29.1504,优,--,27,10,73,优,#00E400,#00E400,6,育青中学,#00E400,17,优,优,优,331000,#00E400,121.0091,#00E400,5,优,0.4,优,#00E400,#00E400,331023001,优,#00E400,台州市,#00E400,优,6,18,#00E400,22,2026-07-19 19:00:00
28,优,330723,52,28.9178,优,--,21,16,75,优,#00E400,#00E400,7,武义北岭幼儿园,#00E400,17,优,优,优,330700,#00E400,119.8022,#00E400,10,优,0.6,优,#00E400,#00E400,330723003,优,#00E400,金华市,#00E400,优,17,13,#00E400,22,2026-07-19 19:00:00
29,优,330182,55,29.4638,优,--,17,12,67,优,#00E400,#00E400,4,第二中学,#00E400,18,优,优,优,330100,#00E400,119.2821,#00E400,11,优,0.7,优,#00E400,#00E400,330182002,优,#00E400,杭州市,#00E400,优,14,12,#00E400,30,2026-07-19 19:00:00
30,优,330681,57,29.6818,优,--,24,14,68,优,#00E400,#00E400,7,杨树畈,#00E400,18,优,优,优,330600,#00E400,120.2359,#00E400,5,优,0.4,优,#00E400,#00E400,330681001,优,#00E400,绍兴市,#00E400,优,15,18,#00E400,30,2026-07-19 19:00:00
31,优,330822,53,28.9012,优,--,16,9,61,优,#00E400,#00E400,4,图书馆大楼,#00E400,18,优,优,优,330800,#00E400,118.5062,#00E400,8,优,0.3,优,#00E400,#00E400,330822002,优,#00E400,衢州市,#00E400,优,18,7,#00E400,30,2026-07-19 19:00:00
32,优,330824,29,29.1478,优,--,14,9,54,优,#00E400,#00E400,6,开化监测大楼,#00E400,18,优,优,优,330800,#00E400,118.4108,#00E400,12,优,0.6,优,#00E400,#00E400,330824002,优,#00E400,衢州市,#00E400,优,14,9,#00E400,30,2026-07-19 19:00:00
33,优,331024,57,28.7403,优,--,16,16,64,优,#00E400,#00E400,6,新生中学,#00E400,18,优,优,优,331000,#00E400,120.4728,#00E400,5,优,0.5,优,#00E400,#00E400,331024002,优,#00E400,台州市,#00E400,优,8,10,#00E400,30,2026-07-19 19:00:00
34,优,331122,57,28.6574,优,--,16,20,66,优,#00E400,#00E400,7,缙云中学,#00E400,18,优,优,优,331100,#00E400,120.0696,#00E400,6,优,0.5,优,#00E400,#00E400,331122001,优,#00E400,丽水市,#00E400,优,8,11,#00E400,30,2026-07-19 19:00:00
35,优,331122,56,28.6628,优,--,17,16,68,优,#00E400,#00E400,6,信访大楼,#00E400,18,优,优,优,331100,#00E400,120.0856,#00E400,4,优,0.5,优,#00E400,#00E400,331122002,优,#00E400,丽水市,#00E400,优,7,12,#00E400,30,2026-07-19 19:00:00
36,优,331181,35,28.076,优,--,16,6,54,优,#00E400,#00E400,8,粮食大楼,#00E400,18,优,优,优,331100,#00E400,119.1217,#00E400,10,优,0.5,优,#00E400,#00E400,331181002,优,#00E400,丽水市,#00E400,优,18,11,#00E400,30,2026-07-19 19:00:00
37,优,330182,35,29.4769,优,--,18,12,53,优,#00E400,#00E400,7,建德监测大楼,#00E400,19,优,优,优,330100,#00E400,119.2711,#00E400,9,优,0.6,优,#00E400,#00E400,330182T_2,优,#00E400,杭州市,#00E400,优,19,11,#00E400,38,2026-07-19 19:00:00
38,优,330328,17,27.804722,优,--,18,4,52,优,#00E400,#00E400,8,文成中学,#00E400,19,优,优,优,330300,#00E400,120.077222,#00E400,8,优,0.4,优,#00E400,#00E400,330328002,优,#00E400,温州市,#00E400,优,19,7,#00E400,38,2026-07-19 19:00:00
39,优,330329,51,27.557,优,--,18,9,63,优,#00E400,#00E400,5,罗阳,#00E400,19,优,优,优,330300,#00E400,119.7084,#00E400,11,优,0.5,优,#00E400,#00E400,330329001,优,#00E400,温州市,#00E400,优,19,12,#00E400,38,2026-07-19 19:00:00
40,优,330782,58,29.335473,优,--,33,21,72,优,#00E400,#00E400,4,北苑,#00E400,19,优,优,优,330700,#00E400,120.078609,#00E400,10,优,0.6,优,#00E400,#00E400,330782001,优,#00E400,金华市,#00E400,优,19,21,#00E400,38,2026-07-19 19:00:00
41,优,330783,60,29.27739,优,--,34,11,71,优,#00E400,#00E400,7,东阳环保大楼,#00E400,19,优,优,优,330700,#00E400,120.23692,#00E400,10,优,0.6,优,#00E400,#00E400,330783002,优,#00E400,金华市,#00E400,优,15,20,#00E400,38,2026-07-19 19:00:00
42,优,331022,60,29.11779,优,--,36,13,80,优,#00E400,#00E400,4,三门环监楼,#00E400,19,优,优,优,331000,#00E400,121.382189,#00E400,4,优,0.6,优,#00E400,#00E400,331022001,优,#00E400,台州市,#00E400,优,8,25,#00E400,38,2026-07-19 19:00:00
43,优,331124,60,28.4505,优,--,25,14,62,优,#00E400,#00E400,4,松阳监测楼,#00E400,19,优,优,优,331100,#00E400,119.4799,#00E400,7,优,0.4,优,#00E400,#00E400,331124001,优,#00E400,丽水市,#00E400,优,13,14,#00E400,38,2026-07-19 19:00:00
44,优,330782,59,29.2637,优,--,34,10,76,优,#00E400,#00E400,6,儿童公园,#00E400,19,优,优,优,330700,#00E400,120.0321,#00E400,7,优,0.5,优,#00E400,#00E400,330782004,优,#00E400,金华市,#00E400,优,14,20,#00E400,38,2026-07-19 19:00:00
45,优,330483,58,30.6355,优,--,23,18,95,优,#00E400,#00E400,9,文化中心,#00E400,19,优,优,优,330400,#00E400,120.5795,#00E400,9,优,0.6,优,#00E400,#00E400,330483003,优,#00E400,嘉兴市,#00E400,优,14,17,#00E400,38,2026-07-19 19:00:00
46,优,330521,36,30.548493,优,--,16,19,62,优,#00E400,#00E400,8,春晖小学,#00E400,19,优,优,优,330500,#00E400,119.9505,#00E400,11,优,0.5,优,#00E400,#00E400,330521003,优,#00E400,湖州市,#00E400,优,19,10,#00E400,38,2026-07-19 19:00:00
47,优,330281,64,30.0497,优,--,31,11,80,优,#00E400,#00E400,5,龙山公园,#00E400,20,优,优,优,330200,#00E400,121.1475,#00E400,13,优,0.5,优,#00E400,#00E400,330281001,优,#00E400,宁波市,#00E400,优,17,21,#00E400,48,2026-07-19 19:00:00
48,优,330281,58,30.0358,优,--,34,11,80,优,#00E400,#00E400,5,姚江小学,#00E400,20,优,优,优,330200,#00E400,121.1221,#00E400,9,优,0.6,优,#00E400,#00E400,330281002,优,#00E400,宁波市,#00E400,优,20,20,#00E400,48,2026-07-19 19:00:00
49,优,330226,64,29.3125,优,--,30,12,71,优,#00E400,#00E400,5,宁海水利局,#00E400,20,优,优,优,330200,#00E400,121.4306,#00E400,9,优,0.5,优,#00E400,#00E400,330226001,优,#00E400,宁波市,#00E400,优,14,21,#00E400,48,2026-07-19 19:00:00
50,优,330483,63,30.625,优,--,28,26,89,优,#00E400,#00E400,4,振东新六中站,#00E400,20,优,优,优,330400,#00E400,120.5613,#00E400,13,优,0.6,优,#00E400,#00E400,330483002,优,#00E400,嘉兴市,#00E400,优,16,17,#00E400,48,2026-07-19 19:00:00
51,优,330723,51,28.896108,优,--,21,16,81,优,#00E400,#00E400,7,武义县政府,#00E400,20,优,优,优,330700,#00E400,119.811352,#00E400,9,优,0.6,优,#00E400,#00E400,330723001,优,#00E400,金华市,#00E400,优,20,12,#00E400,48,2026-07-19 19:00:00
52,优,330783,63,29.30093,优,--,31,13,67,优,#00E400,#00E400,6,广厦学院,#00E400,20,优,优,优,330700,#00E400,120.24157,#00E400,10,优,0.7,优,#00E400,#00E400,330783001,优,#00E400,金华市,#00E400,优,16,19,#00E400,48,2026-07-19 19:00:00
53,优,331082,61,28.84326,优,--,33,14,99,优,#00E400,#00E400,4,巾山实验小学,#00E400,20,优,优,优,331000,#00E400,121.136,#00E400,9,优,0.4,优,#00E400,#00E400,331082002,优,#00E400,台州市,#00E400,优,14,20,#00E400,48,2026-07-19 19:00:00
54,优,331022,64,29.1028,优,--,36,7,91,优,#00E400,#00E400,5,心湖站,#00E400,20,优,优,优,331000,#00E400,121.3918,#00E400,4,优,0.5,优,#00E400,#00E400,331022002,优,#00E400,台州市,#00E400,优,7,22,#00E400,48,2026-07-19 19:00:00
55,优,331126,36,27.6211,优,--,17,5,57,优,#00E400,#00E400,5,庆元气象局,#00E400,20,优,优,优,331100,#00E400,119.0788,#00E400,14,优,0.7,优,#00E400,#00E400,331126002,优,#00E400,丽水市,#00E400,优,20,12,#00E400,48,2026-07-19 19:00:00
56,良,330481,62,30.5524,优,--,33,18,107,优,#00E400,#00E400,4,胜利社区,#FFFF00,20,优,优,优,330400,#00E400,120.6713,#00E400,10,优,0.7,优,#00E400,#00E400,330481003,优,#00E400,嘉兴市,#00E400,优,15,19,#00E400,48,2026-07-19 19:00:00
57,优,330328,14,27.7838,优,--,20,16,45,优,#00E400,#00E400,8,大峃,#00E400,21,优,优,优,330300,#00E400,120.085,#00E400,9,优,0.4,优,#00E400,#00E400,330328001,优,#00E400,温州市,#00E400,优,21,9,#00E400,58,2026-07-19 19:00:00
58,良,330421,67,30.8307,优,--,20,17,108,优,#00E400,#00E400,8,气象观测台,#FFFF00,21,优,优,优,330400,#00E400,120.9356,#00E400,5,优,0.5,优,#00E400,#00E400,330421002,优,#00E400,嘉兴市,#00E400,优,9,13,#00E400,58,2026-07-19 19:00:00
59,优,330483,66,30.6488,优,--,29,29,99,优,#00E400,#00E400,4,茅盾小学,#00E400,21,优,优,优,330400,#00E400,120.5498,#00E400,10,优,0.4,优,#00E400,#00E400,330483001,优,#00E400,嘉兴市,#00E400,优,21,14,#00E400,58,2026-07-19 19:00:00
60,优,330881,53,28.7465,优,--,28,7,70,优,#00E400,#00E400,3,江山环保大楼,#00E400,21,优,优,优,330800,#00E400,118.6301,#00E400,11,优,0.6,优,#00E400,#00E400,330881001,优,#00E400,衢州市,#00E400,优,21,16,#00E400,58,2026-07-19 19:00:00
61,优,331121,30,28.1341,优,--,18,18,54,优,#00E400,#00E400,4,塔山小学,#00E400,21,优,优,优,331100,#00E400,120.2936,#00E400,13,优,0.5,优,#00E400,#00E400,331121001,优,#00E400,丽水市,#00E400,优,21,11,#00E400,58,2026-07-19 19:00:00
62,优,331126,29,27.629585,优,--,17,7,55,优,#00E400,#00E400,4,庆元监测楼,#00E400,21,优,优,优,331100,#00E400,119.054809,#00E400,12,优,0.6,优,#00E400,#00E400,331126001,优,#00E400,丽水市,#00E400,优,21,10,#00E400,58,2026-07-19 19:00:00
63,优,330782,67,29.3686,优,--,39,13,76,优,#00E400,#00E400,7,第五中学,#00E400,21,优,优,优,330700,#00E400,120.1345,#00E400,6,优,0.6,优,#00E400,#00E400,330782003,优,#00E400,金华市,#00E400,优,19,15,#00E400,58,2026-07-19 19:00:00
64,优,330803,40,28.9844,优,--,31,18,59,优,#00E400,#00E400,7,衢州三中（市）,#00E400,22,优,优,优,330800,#00E400,118.9628,#00E400,10,优,0.5,优,#00E400,#00E400,330803704,优,#00E400,衢州市,#00E400,优,22,17,#00E400,65,2026-07-19 19:00:00
65,优,330213,68,29.6506,优,--,27,7,59,优,#00E400,#00E400,8,奉化教育局,#00E400,22,优,优,优,330200,#00E400,121.4042,#00E400,2,优,0.5,优,#00E400,#00E400,330283005,优,#00E400,宁波市,#00E400,优,9,17,#00E400,65,2026-07-19 19:00:00
66,优,330481,68,30.5261,优,--,32,21,100,优,#00E400,#00E400,5,海宁监测大楼,#00E400,22,优,优,优,330400,#00E400,120.6739,#00E400,8,优,0.3,优,#00E400,#00E400,330481001,优,#00E400,嘉兴市,#00E400,优,16,19,#00E400,65,2026-07-19 19:00:00
67,良,330421,69,30.836,优,--,23,19,104,优,#00E400,#00E400,4,嘉善监测大楼,#FFFF00,22,优,优,优,330400,#00E400,120.9226,#00E400,10,优,0.5,优,#00E400,#00E400,330421001,优,#00E400,嘉兴市,#00E400,优,11,16,#00E400,65,2026-07-19 19:00:00
68,良,330424,68,30.5042,优,--,26,24,102,优,#00E400,#00E400,5,高级中学,#FFFF00,22,优,优,优,330400,#00E400,120.9413,#00E400,10,优,0.4,优,#00E400,#00E400,330424001,优,#00E400,嘉兴市,#00E400,优,14,21,#00E400,65,2026-07-19 19:00:00
69,良,330424,69,30.5299,优,--,25,26,101,优,#00E400,#00E400,4,海盐商贸学校,#FFFF00,22,优,优,优,330400,#00E400,120.9293,#00E400,10,优,0.5,优,#00E400,#00E400,330424002,优,#00E400,嘉兴市,#00E400,优,16,19,#00E400,65,2026-07-19 19:00:00
70,优,330624,68,29.5036,优,--,28,9,75,优,#00E400,#00E400,4,钟楼站,#00E400,22,优,优,优,330600,#00E400,120.8938,#00E400,5,优,0.4,优,#00E400,#00E400,330624001,优,#00E400,绍兴市,#00E400,优,10,18,#00E400,65,2026-07-19 19:00:00
71,优,330624,68,29.4938,优,--,27,10,76,优,#00E400,#00E400,5,城东站,#00E400,22,优,优,优,330600,#00E400,120.9109,#00E400,5,优,0.4,优,#00E400,#00E400,330624002,优,#00E400,绍兴市,#00E400,优,9,18,#00E400,65,2026-07-19 19:00:00
72,优,331023,70,29.1342,优,--,29,9,86,优,#00E400,#00E400,5,天台实验中学,#00E400,22,优,优,优,331000,#00E400,121.0349,#00E400,7,优,0.4,优,#00E400,#00E400,331023002,优,#00E400,台州市,#00E400,优,9,20,#00E400,65,2026-07-19 19:00:00
73,优,331121,26,28.1094,优,--,18,14,54,优,#00E400,#00E400,5,青田中学,#00E400,22,优,优,优,331100,#00E400,120.3161,#00E400,11,优,0.5,优,#00E400,#00E400,331121002,优,#00E400,丽水市,#00E400,优,22,10,#00E400,65,2026-07-19 19:00:00
74,优,331124,70,28.4516,优,--,27,11,68,优,#00E400,#00E400,5,和平水厂,#00E400,22,优,优,优,331100,#00E400,119.4699,#00E400,5,优,0.4,优,#00E400,#00E400,331124002,优,#00E400,丽水市,#00E400,优,12,14,#00E400,65,2026-07-19 19:00:00
75,优,331181,33,28.08007,优,--,18,5,52,优,#00E400,#00E400,7,龙泉环保大楼,#00E400,22,优,优,优,331100,#00E400,119.1328,#00E400,15,优,0.4,优,#00E400,#00E400,331181001,优,#00E400,丽水市,#00E400,优,19,13,#00E400,65,2026-07-19 19:00:00
76,优,330681,72,29.7257,优,--,28,12,86,优,#00E400,#00E400,9,城新小学,#00E400,23,优,优,优,330600,#00E400,120.272,#00E400,8,优,0.4,优,#00E400,#00E400,330681505,优,#00E400,绍兴市,#00E400,优,14,16,#00E400,77,2026-07-19 19:00:00
77,良,330482,71,30.7292,优,--,22,11,109,优,#00E400,#00E400,8,陆家桥村,#FFFF00,23,优,优,优,330400,#00E400,120.9953,#00E400,5,优,0.6,优,#00E400,#00E400,330482002,优,#00E400,嘉兴市,#00E400,优,7,15,#00E400,77,2026-07-19 19:00:00
78,优,330825,63,29.0392,优,--,30,17,80,优,#00E400,#00E400,7,建设大楼,#00E400,23,优,优,优,330800,#00E400,119.1675,#00E400,10,优,0.4,优,#00E400,#00E400,330825001,优,#00E400,衢州市,#00E400,优,23,17,#00E400,77,2026-07-19 19:00:00
79,优,330213,75,29.693,优,--,23,8,59,优,#00E400,#00E400,5,溪口政府大楼,#00E400,24,优,优,优,330200,#00E400,121.2774,#00E400,3,优,0.3,优,#00E400,#00E400,330283T_1,优,#00E400,宁波市,#00E400,优,7,16,#00E400,80,2026-07-19 19:00:00
80,优,330282,64,30.1636,优,--,33,12,92,优,#00E400,#00E400,4,慈溪环保大楼,#00E400,24,优,优,优,330200,#00E400,121.2677,#00E400,13,优,0.7,优,#00E400,#00E400,330282001,优,#00E400,宁波市,#00E400,优,24,17,#00E400,80,2026-07-19 19:00:00
81,优,330683,74,29.5901,优,--,29,7,75,优,#00E400,#00E400,6,马寅初初中,#00E400,24,优,优,优,330600,#00E400,120.8249,#00E400,3,优,0.5,优,#00E400,#00E400,330683001,优,#00E400,绍兴市,#00E400,优,10,16,#00E400,80,2026-07-19 19:00:00
82,良,331082,76,28.873,优,--,31,14,107,优,#00E400,#00E400,5,临海环保大楼,#FFFF00,24,优,优,优,331000,#00E400,121.1769,#00E400,7,优,0.5,优,#00E400,#00E400,331082001,优,#00E400,台州市,#00E400,优,14,19,#00E400,80,2026-07-19 19:00:00
83,优,330212,74,29.7736,优,--,38,12,79,优,#00E400,#00E400,4,钱湖水厂,#00E400,24,优,优,优,330200,#00E400,121.6330,#00E400,8,优,0.7,优,#00E400,#00E400,2013302120001,优,#00E400,宁波市,#00E400,优,16,23,#00E400,80,2026-07-19 19:00:00
84,良,330483,76,30.7369,优,--,23,17,120,优,#00E400,#00E400,6,植材小学,#FFFF00,24,优,优,优,330400,#00E400,120.4902,#00E400,6,优,0.7,优,#00E400,#00E400,330483509,优,#00E400,嘉兴市,#00E400,优,11,14,#00E400,80,2026-07-19 19:00:00
85,优,330282,78,30.1786,优,--,27,10,99,优,#00E400,#00E400,4,慈溪实验小学,#00E400,25,优,优,优,330200,#00E400,121.2525,#00E400,10,优,0.8,优,#00E400,#00E400,330282002,优,#00E400,宁波市,#00E400,优,17,16,#00E400,86,2026-07-19 19:00:00
86,优,330226,78,29.2878,优,--,29,8,79,优,#00E400,#00E400,6,宁海城南站,#00E400,25,优,优,优,330200,#00E400,121.4201,#00E400,4,优,0.4,优,#00E400,#00E400,330226002,优,#00E400,宁波市,#00E400,优,9,21,#00E400,86,2026-07-19 19:00:00
87,优,330225,79,29.4767,优,--,35,8,100,优,#00E400,#00E400,12,文峰小学,#00E400,25,优,优,优,330200,#00E400,121.8864,#00E400,17,优,0.3,优,#00E400,#00E400,330225001,优,#00E400,宁波市,#00E400,优,24,22,#00E400,86,2026-07-19 19:00:00
88,良,330482,77,30.6937,优,--,22,9,120,优,#00E400,#00E400,7,平湖幼儿园,#FFFF00,25,优,优,优,330400,#00E400,121.0259,#00E400,5,优,0.4,优,#00E400,#00E400,330482001,优,#00E400,嘉兴市,#00E400,优,7,17,#00E400,86,2026-07-19 19:00:00
89,优,330683,80,29.5663,优,--,31,13,81,优,#00E400,#00E400,2,丽湖小区,#00E400,25,优,优,优,330600,#00E400,120.8173,#00E400,7,优,0.5,优,#00E400,#00E400,330683002,优,#00E400,绍兴市,#00E400,优,13,20,#00E400,86,2026-07-19 19:00:00
90,优,330110,42,30.2635,优,--,18,23,73,优,#00E400,#00E400,5,海辰小学,#00E400,25,优,优,优,330100,#00E400,119.9842,#00E400,14,优,0.5,优,#00E400,#00E400,2013301100001,优,#00E400,杭州市,#00E400,优,25,11,#00E400,86,2026-07-19 19:00:00
91,优,331024,81,28.8589,优,--,22,9,79,优,#00E400,#00E400,7,仙居环监站,#00E400,26,优,优,优,331000,#00E400,120.7248,#00E400,4,优,0.5,优,#00E400,#00E400,331024001,优,#00E400,台州市,#00E400,优,9,11,#00E400,92,2026-07-19 19:00:00
92,优,330327,86,27.522222,优,--,28,9,90,优,#00E400,#00E400,8,苍南中学,#00E400,27,优,优,优,330300,#00E400,120.416111,#00E400,15,优,0.7,优,#00E400,#00E400,330327004,优,#00E400,温州市,#00E400,优,27,16,#00E400,93,2026-07-19 19:00:00
93,优,330881,46,28.7282,优,--,27,13,63,优,#00E400,#00E400,5,人民医院,#00E400,27,优,优,优,330800,#00E400,118.6227,#00E400,15,优,0.5,优,#00E400,#00E400,330881002,优,#00E400,衢州市,#00E400,优,27,18,#00E400,93,2026-07-19 19:00:00
94,优,330825,46,29.0464,优,--,34,16,68,优,#00E400,#00E400,7,龙游二高,#00E400,27,优,优,优,330800,#00E400,119.204,#00E400,14,优,0.5,优,#00E400,#00E400,330825002,优,#00E400,衢州市,#00E400,优,27,17,#00E400,93,2026-07-19 19:00:00
95,优,331081,71,28.37558,优,--,30,7,87,优,#00E400,#00E400,6,温岭环监站,#00E400,27,优,优,优,331000,#00E400,121.36579,#00E400,12,优,0.4,优,#00E400,#00E400,331081001,优,#00E400,台州市,#00E400,优,27,25,#00E400,93,2026-07-19 19:00:00
96,优,330213,87,29.6774,优,--,34,8,72,优,#00E400,#00E400,4,大桥市场,#00E400,28,优,优,优,330200,#00E400,121.4237,#00E400,2,优,0.6,优,#00E400,#00E400,330213001,优,#00E400,宁波市,#00E400,优,7,20,#00E400,97,2026-07-19 19:00:00
97,优,330305,81,27.8342,优,--,32,4,82,优,#00E400,#00E400,5,洞头气象局,#00E400,30,优,优,优,330300,#00E400,121.1502,#00E400,15,优,0.5,优,#00E400,#00E400,330305001,优,#00E400,温州市,#00E400,优,30,15,#00E400,98,2026-07-19 19:00:00
98,优,330782,48,29.305096,优,--,33,14,68,优,#00E400,#00E400,6,江东,#00E400,30,优,优,优,330700,#00E400,120.090442,#00E400,13,优,0.7,优,#00E400,#00E400,330782002,优,#00E400,金华市,#00E400,优,30,20,#00E400,98,2026-07-19 19:00:00
99,优,331083,90,28.12715,优,--,29,6,100,优,#00E400,#00E400,2,玉环环监站,#00E400,30,优,优,优,331000,#00E400,121.2339,#00E400,18,优,0.6,优,#00E400,#00E400,331021001,优,#00E400,台州市,#00E400,优,30,18,#00E400,98,2026-07-19 19:00:00
100,优,330327,79,27.503889,优,--,26,4,83,优,#00E400,#00E400,7,灵溪,#00E400,31,优,优,优,330300,#00E400,120.395278,#00E400,12,优,0.5,优,#00E400,#00E400,330327001,优,#00E400,温州市,#00E400,优,31,13,#00E400,101,2026-07-19 19:00:00
101,良,331081,84,28.39136,优,--,35,7,108,优,#00E400,#00E400,3,之江高级中学,#FFFF00,31,优,优,优,331000,#00E400,121.37696,#00E400,18,优,0.4,优,#00E400,#00E400,331081002,优,#00E400,台州市,#00E400,优,31,20,#00E400,101,2026-07-19 19:00:00
102,良,331083,100,28.2221,优,--,32,9,107,优,#00E400,#00E400,3,楚门中心小学,#FFFF00,32,优,优,优,331000,#00E400,121.2846,#00E400,18,优,0.6,优,#00E400,#00E400,331021002,优,#00E400,台州市,#00E400,优,31,18,#00E400,103,2026-07-19 19:00:00
103,良,330383,84,27.5617,优,--,32,14,108,优,#00E400,#00E400,7,龙港实验中学,#FFFF00,33,优,优,优,330300,#00E400,120.5355,#00E400,20,优,0.6,优,#00E400,#00E400,330303101,优,#00E400,温州市,#00E400,优,33,20,#00E400,104,2026-07-19 19:00:00
104,良,330225,106,29.2003,优,--,41,8,118,优,#00E400,#00E400,10,石浦新港小学,#FFFF00,34,优,优,优,330200,#00E400,121.934,#00E400,21,优,0.4,优,#00E400,#00E400,330225002,优,#00E400,宁波市,#00E400,优,34,23,#00E400,105,2026-07-19 19:00:00
105,优,330326,62,27.6593,优,--,28,8,96,优,#00E400,#00E400,6,平阳监测站,#00E400,34,优,优,优,330300,#00E400,120.5705,#00E400,18,优,0.6,优,#00E400,#00E400,330326001,优,#00E400,温州市,#00E400,优,34,17,#00E400,105,2026-07-19 19:00:00
106,良,330381,58,27.791645,优,--,22,21,104,优,#00E400,#00E400,5,花园桥,#FFFF00,35,优,优,优,330300,#00E400,120.62372,#00E400,20,优,0.5,优,#00E400,#00E400,330381001,优,#00E400,温州市,#00E400,优,35,12,#00E400,107,2026-07-19 19:00:00
107,良,330381,80,27.782284,优,--,20,18,112,优,#00E400,#00E400,9,安阳新区,#FFFF00,35,优,优,优,330300,#00E400,120.650915,#00E400,23,优,0.6,优,#00E400,#00E400,330381002,优,#00E400,温州市,#00E400,优,35,12,#00E400,107,2026-07-19 19:00:00
108,良,330326,59,27.6653,优,--,27,20,102,优,#00E400,#00E400,9,平阳县政府,#FFFF00,36,优,优,优,330300,#00E400,120.5611,#00E400,21,优,0.7,优,#00E400,#00E400,330326002,优,#00E400,温州市,#00E400,优,36,16,#00E400,109,2026-07-19 19:00:00
109,良,330383,84,27.5812,优,--,35,12,109,优,#00E400,#00E400,8,龙港,#FFFF00,36,优,优,优,330300,#00E400,120.5489,#00E400,24,优,0.6,优,#00E400,#00E400,330327002,优,#00E400,温州市,#00E400,优,36,21,#00E400,109,2026-07-19 19:00:00
110,良,330921,117,30.2669,优,--,42,19,141,优,#00E400,#00E400,6,岱山环保大楼,#FFFF00,37,优,优,优,330900,#00E400,122.2199,#00E400,18,优,0.6,优,#00E400,#00E400,330921001,优,#00E400,舟山市,#00E400,优,25,27,#00E400,111,2026-07-19 19:00:00
111,轻度污染,330921,120,30.2517,优,--,42,17,165,优,#00E400,#00E400,11,岱山高亭,#FF7E00,38,优,优,优,330900,#00E400,122.1958,#00E400,18,优,0.7,优,#00E400,#00E400,330921002,优,#00E400,舟山市,#00E400,优,26,26,#00E400,112,2026-07-19 19:00:00
112,良,330922,96,30.7269,优,--,28,7,106,优,#00E400,#00E400,7,嵊泗菜园,#FFFF00,45,优,优,优,330900,#00E400,122.4464,#00E400,24,优,0.3,优,#00E400,#00E400,330922001,优,#00E400,舟山市,#00E400,优,45,17,#00E400,113,2026-07-19 19:00:00
113,良,330324,88,28.158269,优,--,44,19,114,优,#00E400,#00E400,5,上塘,#FFFF00,50,优,优,优,330300,#00E400,120.694244,#00E400,29,优,0.6,优,#00E400,#00E400,330324001,优,#00E400,温州市,#00E400,优,50,23,#00E400,114,2026-07-19 19:00:00
114,优,330382,78,28.0297,优,PM₁₀,42,10,93,优,#FFFF00,#00E400,5,柳市,#00E400,51,优,良,优,330300,#00E400,120.891,#00E400,24,良,0.4,优,#00E400,#00E400,330382002,优,#FFFF00,温州市,#00E400,优,51,19,#00E400,115,2026-07-19 19:00:00
115,良,330324,78,28.044335,优,PM₁₀,44,17,113,优,#FFFF00,#00E400,5,瓯北,#FFFF00,51,优,良,优,330300,#00E400,120.654963,#00E400,26,良,0.6,优,#00E400,#00E400,330324002,优,#FFFF00,温州市,#00E400,优,51,24,#00E400,115,2026-07-19 19:00:00
116,良,330382,89,28.1209,优,PM₁₀,41,9,110,优,#FFFF00,#00E400,4,乐成,#FFFF00,63,优,良,优,330300,#00E400,120.9659,#00E400,33,良,0.6,优,#00E400,#00E400,330382001,优,#FFFF00,温州市,#00E400,优,67,21,#00E400,117,2026-07-19 19:00:00
117,优,330481,58,30.5137,优,--,26,16,95,优,#00E400,#00E400,--,硖石街道,#00E400,--,优,--,优,330400,--,120.7082,#00E400,9,优,0.5,优,#00E400,#00E400,330481002,优,--,嘉兴市,#00E400,--,14,18,#00E400,118,2026-07-19 19:00:00
