,O3H8_level,regioncode,O3,latitude,CO_level,SYWRW,PM10H24,NO2,O3H8,O3_level,PM10_color,PM25_color,SO2,sitename,O3H8_color,AQI,NO2_level,AQI_level,PM10H24_level,districtcode,SO2_color,longitude,NO2_color,PM25,PM10_level,CO,PM25_level,CO_color,PM25H24_color,sitecode,PM25H24_level,AQI_color,districtname,O3_color,SO2_level,PM10,PM25H24,PM10H24_color,sort,time
0,优,331126,38,27.629585,优,--,12,7,65,优,#00E400,#00E400,5,庆元监测楼,#00E400,13,优,优,优,331100,#00E400,119.054809,#00E400,7,优,0.6,优,#00E400,#00E400,331126001,优,#00E400,丽水市,#00E400,优,13,7,#00E400,1,2026-06-28 19:00:00
1,优,331127,32,27.9772,优,--,21,14,55,优,#00E400,#00E400,4,景宁县政府,#00E400,13,优,优,优,331100,#00E400,119.6311,#00E400,8,优,0.6,优,#00E400,#00E400,331127002,优,#00E400,丽水市,#00E400,优,13,14,#00E400,1,2026-06-28 19:00:00
2,优,331125,46,28.1062,优,--,--,9,67,优,#00E400,#00E400,6,云和三中,#00E400,15,优,优,--,331100,#00E400,119.5728,#00E400,9,优,0.5,优,#00E400,#00E400,331125002,优,#00E400,丽水市,#00E400,优,12,16,--,3,2026-06-28 19:00:00
3,优,330329,54,27.5438,优,--,21,6,63,优,#00E400,#00E400,6,泰顺实验中学,#00E400,17,优,优,优,330300,#00E400,119.716111,#00E400,7,优,0.5,优,#00E400,#00E400,330329002,优,#00E400,温州市,#00E400,优,12,14,#00E400,4,2026-06-28 19:00:00
4,优,331123,52,28.5991,优,--,22,12,76,优,#00E400,#00E400,7,遂昌民政局,#00E400,17,优,优,优,331100,#00E400,119.2622,#00E400,8,优,0.6,优,#00E400,#00E400,331123001,优,#00E400,丽水市,#00E400,优,14,13,#00E400,4,2026-06-28 19:00:00
5,优,331126,54,27.6211,优,--,10,4,69,优,#00E400,#00E400,5,庆元气象局,#00E400,17,优,优,优,331100,#00E400,119.0788,#00E400,5,优,0.7,优,#00E400,#00E400,331126002,优,#00E400,丽水市,#00E400,优,10,7,#00E400,4,2026-06-28 19:00:00
6,优,331127,35,28.002222,优,--,24,15,55,优,#00E400,#00E400,5,红星小学,#00E400,18,优,优,优,331100,#00E400,119.636389,#00E400,12,优,0.5,优,#00E400,#00E400,331127003,优,#00E400,丽水市,#00E400,优,15,15,#00E400,7,2026-06-28 19:00:00
7,优,331123,50,28.5839,优,--,23,10,74,优,#00E400,#00E400,8,遂昌中学,#00E400,19,优,优,优,331100,#00E400,119.2656,#00E400,9,优,0.5,优,#00E400,#00E400,331123002,优,#00E400,丽水市,#00E400,优,19,16,#00E400,8,2026-06-28 19:00:00
8,优,330329,62,27.557,优,--,20,7,71,优,#00E400,#00E400,5,罗阳,#00E400,20,优,优,优,330300,#00E400,119.7084,#00E400,8,优,0.4,优,#00E400,#00E400,330329001,优,#00E400,温州市,#00E400,优,8,13,#00E400,9,2026-06-28 19:00:00
9,优,331181,56,28.076,优,--,19,7,73,优,#00E400,#00E400,6,粮食大楼,#00E400,20,优,优,优,331100,#00E400,119.1217,#00E400,13,优,0.6,优,#00E400,#00E400,331181002,优,#00E400,丽水市,#00E400,优,20,11,#00E400,9,2026-06-28 19:00:00
10,良,330723,59,28.9178,优,--,43,8,139,优,#00E400,#00E400,8,武义北岭幼儿园,#FFFF00,20,优,优,优,330700,#00E400,119.8022,#00E400,12,优,0.6,优,#00E400,#00E400,330723003,优,#00E400,金华市,#00E400,优,20,28,#00E400,9,2026-06-28 19:00:00
11,优,330784,68,28.8854,优,--,27,11,100,优,#00E400,#00E400,7,永康一中,#00E400,22,优,优,优,330700,#00E400,120.0439,#00E400,10,优,0.7,优,#00E400,#00E400,330784001,优,#00E400,金华市,#00E400,优,20,14,#00E400,12,2026-06-28 19:00:00
12,优,331125,49,28.1173,优,--,23,13,68,优,#00E400,#00E400,5,云和监测楼,#00E400,22,优,优,优,331100,#00E400,119.5626,#00E400,15,优,0.4,优,#00E400,#00E400,331125001,优,#00E400,丽水市,#00E400,优,22,16,#00E400,12,2026-06-28 19:00:00
13,良,330881,71,28.7465,优,--,45,11,119,优,#00E400,#00E400,4,江山环保大楼,#FFFF00,24,优,优,优,330800,#00E400,118.6301,#00E400,13,优,0.7,优,#00E400,#00E400,330881001,优,#00E400,衢州市,#00E400,优,24,26,#00E400,14,2026-06-28 19:00:00
14,良,330723,61,28.896108,优,--,43,9,144,优,#00E400,#00E400,8,武义县政府,#FFFF00,25,优,优,优,330700,#00E400,119.811352,#00E400,16,优,0.6,优,#00E400,#00E400,330723001,优,#00E400,金华市,#00E400,优,25,27,#00E400,15,2026-06-28 19:00:00
15,优,330784,59,28.90016,优,--,31,14,97,优,#00E400,#00E400,8,西城供电所,#00E400,25,优,优,优,330700,#00E400,120.01452,#00E400,9,优,0.5,优,#00E400,#00E400,330784002,优,#00E400,金华市,#00E400,优,25,17,#00E400,15,2026-06-28 19:00:00
16,良,330881,77,28.7282,优,--,44,10,112,优,#00E400,#00E400,6,人民医院,#FFFF00,25,优,优,优,330800,#00E400,118.6227,#00E400,15,优,0.7,优,#00E400,#FFFF00,330881002,良,#00E400,衢州市,#00E400,优,24,36,#00E400,15,2026-06-28 19:00:00
17,优,331122,79,28.6628,优,--,25,17,87,优,#00E400,#00E400,7,信访大楼,#00E400,25,优,优,优,331100,#00E400,120.0856,#00E400,12,优,0.5,优,#00E400,#00E400,331122002,优,#00E400,丽水市,#00E400,优,19,15,#00E400,15,2026-06-28 19:00:00
18,优,331081,82,28.37558,优,--,33,9,92,优,#00E400,#00E400,6,温岭环监站,#00E400,26,优,优,优,331000,#00E400,121.36579,#00E400,18,优,0.4,优,#00E400,#00E400,331081001,优,#00E400,台州市,#00E400,优,24,27,#00E400,19,2026-06-28 19:00:00
19,优,330381,85,27.791645,优,--,36,17,97,优,#00E400,#00E400,6,花园桥,#00E400,27,优,优,优,330300,#00E400,120.62372,#00E400,9,优,0.5,优,#00E400,#00E400,330381001,优,#00E400,温州市,#00E400,优,15,24,#00E400,20,2026-06-28 19:00:00
20,优,330324,86,28.158269,优,--,39,21,93,优,#00E400,#00E400,6,上塘,#00E400,27,优,优,优,330300,#00E400,120.694244,#00E400,13,优,0.6,优,#00E400,#00E400,330324001,优,#00E400,温州市,#00E400,优,20,25,#00E400,20,2026-06-28 19:00:00
21,优,331124,87,28.4516,优,--,24,13,82,优,#00E400,#00E400,5,和平水厂,#00E400,28,优,优,优,331100,#00E400,119.4699,#00E400,16,优,0.6,优,#00E400,#00E400,331124002,优,#00E400,丽水市,#00E400,优,28,14,#00E400,22,2026-06-28 19:00:00
22,良,330381,92,27.782284,优,--,34,14,107,优,#00E400,#00E400,8,安阳新区,#FFFF00,29,优,优,优,330300,#00E400,120.650915,#00E400,12,优,0.6,优,#00E400,#00E400,330381002,优,#00E400,温州市,#00E400,优,14,27,#00E400,23,2026-06-28 19:00:00
23,优,330324,90,28.044335,优,--,44,24,96,优,#00E400,#00E400,5,瓯北,#00E400,29,优,优,优,330300,#00E400,120.654963,#00E400,13,优,0.6,优,#00E400,#00E400,330324002,优,#00E400,温州市,#00E400,优,19,28,#00E400,23,2026-06-28 19:00:00
24,优,330328,92,27.7838,优,--,27,9,80,优,#00E400,#00E400,4,大峃,#00E400,29,优,优,优,330300,#00E400,120.085,#00E400,14,优,0.6,优,#00E400,#00E400,330328001,优,#00E400,温州市,#00E400,优,19,17,#00E400,23,2026-06-28 19:00:00
25,良,330624,92,29.5036,优,--,28,9,112,优,#00E400,#00E400,4,钟楼站,#FFFF00,29,优,优,优,330600,#00E400,120.8938,#00E400,20,优,0.4,优,#00E400,#00E400,330624001,优,#00E400,绍兴市,#00E400,优,29,18,#00E400,23,2026-06-28 19:00:00
26,优,330727,89,29.051486,优,--,24,12,90,优,#00E400,#00E400,8,国税大楼,#00E400,29,优,优,优,330700,#00E400,120.438346,#00E400,20,优,0.4,优,#00E400,#00E400,330727002,优,#00E400,金华市,#00E400,优,29,16,#00E400,23,2026-06-28 19:00:00
27,优,331022,92,29.11779,优,--,37,10,98,优,#00E400,#00E400,5,三门环监楼,#00E400,29,优,优,优,331000,#00E400,121.382189,#00E400,15,优,0.5,优,#00E400,#00E400,331022001,优,#00E400,台州市,#00E400,优,21,28,#00E400,23,2026-06-28 19:00:00
28,优,331122,92,28.6574,优,--,20,14,98,优,#00E400,#00E400,7,缙云中学,#00E400,29,优,优,优,331100,#00E400,120.0696,#00E400,11,优,0.5,优,#00E400,#00E400,331122001,优,#00E400,丽水市,#00E400,优,15,14,#00E400,23,2026-06-28 19:00:00
29,优,331181,62,28.08007,优,--,41,9,76,优,#00E400,#00E400,8,龙泉环保大楼,#00E400,29,优,优,优,331100,#00E400,119.1328,#00E400,11,优,0.5,优,#00E400,#00E400,331181001,优,#00E400,丽水市,#00E400,优,29,13,#00E400,23,2026-06-28 19:00:00
30,良,330327,96,27.503889,优,--,38,9,110,优,#00E400,#00E400,9,灵溪,#FFFF00,30,优,优,优,330300,#00E400,120.395278,#00E400,14,优,0.5,优,#00E400,#00E400,330327001,优,#00E400,温州市,#00E400,优,21,24,#00E400,31,2026-06-28 19:00:00
31,良,330383,96,27.5812,优,--,46,22,109,优,#00E400,#00E400,8,龙港,#FFFF00,30,优,优,优,330300,#00E400,120.5489,#00E400,12,优,0.6,优,#00E400,#00E400,330327002,优,#00E400,温州市,#00E400,优,19,33,#00E400,31,2026-06-28 19:00:00
32,良,330681,94,29.6818,优,--,36,3,127,优,#00E400,#00E400,5,杨树畈,#FFFF00,30,优,优,优,330600,#00E400,120.2359,#00E400,18,优,0.3,优,#00E400,#00E400,330681001,优,#00E400,绍兴市,#00E400,优,30,24,#00E400,31,2026-06-28 19:00:00
33,良,330326,97,27.6593,优,--,38,9,111,优,#00E400,#00E400,5,平阳监测站,#FFFF00,31,优,优,优,330300,#00E400,120.5705,#00E400,7,优,0.5,优,#00E400,#00E400,330326001,优,#00E400,温州市,#00E400,优,11,26,#00E400,34,2026-06-28 19:00:00
34,优,331124,82,28.4505,优,--,24,16,77,优,#00E400,#00E400,4,松阳监测楼,#00E400,31,优,优,优,331100,#00E400,119.4799,#00E400,16,优,0.5,优,#00E400,#00E400,331124001,优,#00E400,丽水市,#00E400,优,31,15,#00E400,34,2026-06-28 19:00:00
35,优,330328,70,27.804722,优,--,29,12,76,优,#00E400,#00E400,8,文成中学,#00E400,32,优,优,优,330300,#00E400,120.077222,#00E400,22,优,0.5,优,#00E400,#00E400,330328002,优,#00E400,温州市,#00E400,优,32,18,#00E400,36,2026-06-28 19:00:00
36,良,330327,100,27.522222,优,--,44,11,120,优,#00E400,#00E400,8,苍南中学,#FFFF00,32,优,优,优,330300,#00E400,120.416111,#00E400,15,优,0.6,优,#00E400,#00E400,330327004,优,#00E400,温州市,#00E400,优,20,28,#00E400,36,2026-06-28 19:00:00
37,良,330783,100,29.27739,优,--,40,11,116,优,#00E400,#00E400,7,东阳环保大楼,#FFFF00,32,优,优,优,330700,#00E400,120.23692,#00E400,16,优,0.5,优,#00E400,#00E400,330783002,优,#00E400,金华市,#00E400,优,26,26,#00E400,36,2026-06-28 19:00:00
38,良,330824,100,29.1478,优,--,30,8,116,优,#00E400,#00E400,8,开化监测大楼,#FFFF00,32,优,优,优,330800,#00E400,118.4108,#00E400,18,优,0.6,优,#00E400,#00E400,330824002,优,#00E400,衢州市,#00E400,优,26,21,#00E400,36,2026-06-28 19:00:00
39,优,331024,94,28.7403,优,--,23,11,91,优,#00E400,#00E400,6,新生中学,#00E400,32,优,优,优,331000,#00E400,120.4728,#00E400,22,优,0.6,优,#00E400,#00E400,331024002,优,#00E400,台州市,#00E400,优,14,17,#00E400,36,2026-06-28 19:00:00
40,良,330305,103,27.8342,优,--,27,9,118,优,#00E400,#00E400,5,洞头气象局,#FFFF00,33,优,优,优,330300,#00E400,121.1502,#00E400,6,优,0.5,优,#00E400,#00E400,330305001,优,#00E400,温州市,#00E400,优,10,22,#00E400,41,2026-06-28 19:00:00
41,良,330382,104,28.1209,优,--,37,10,117,优,#00E400,#00E400,4,乐成,#FFFF00,33,优,优,优,330300,#00E400,120.9659,#00E400,18,优,0.7,优,#00E400,#00E400,330382001,优,#00E400,温州市,#00E400,优,20,24,#00E400,41,2026-06-28 19:00:00
42,良,330382,103,28.0297,优,--,47,15,115,优,#00E400,#00E400,4,柳市,#FFFF00,33,优,优,优,330300,#00E400,120.891,#00E400,17,优,0.5,优,#00E400,#00E400,330382002,优,#00E400,温州市,#00E400,优,28,33,#00E400,41,2026-06-28 19:00:00
43,良,330326,105,27.6653,优,--,35,11,116,优,#00E400,#00E400,8,平阳县政府,#FFFF00,33,优,优,优,330300,#00E400,120.5611,#00E400,9,优,0.8,优,#00E400,#00E400,330326002,优,#00E400,温州市,#00E400,优,15,24,#00E400,41,2026-06-28 19:00:00
44,良,330683,103,29.5663,优,--,27,11,111,优,#00E400,#00E400,2,丽湖小区,#FFFF00,33,优,优,优,330600,#00E400,120.8173,#00E400,23,优,0.6,优,#00E400,#00E400,330683002,优,#00E400,绍兴市,#00E400,优,31,18,#00E400,41,2026-06-28 19:00:00
45,良,330624,94,29.4938,优,--,26,8,112,优,#00E400,#00E400,5,城东站,#FFFF00,33,优,优,优,330600,#00E400,120.9109,#00E400,23,优,0.5,优,#00E400,#00E400,330624002,优,#00E400,绍兴市,#00E400,优,28,18,#00E400,41,2026-06-28 19:00:00
46,良,330822,97,28.9012,优,--,39,19,107,优,#00E400,#00E400,5,图书馆大楼,#FFFF00,33,优,优,优,330800,#00E400,118.5062,#00E400,14,优,0.5,优,#00E400,#00E400,330822002,优,#00E400,衢州市,#00E400,优,33,21,#00E400,41,2026-06-28 19:00:00
47,良,330825,104,29.0464,优,--,61,8,135,优,#00E400,#00E400,6,龙游二高,#FFFF00,33,优,优,良,330800,#00E400,119.204,#00E400,10,优,0.4,优,#00E400,#00E400,330825002,优,#00E400,衢州市,#00E400,优,22,31,#FFFF00,41,2026-06-28 19:00:00
48,良,331082,104,28.84326,优,--,45,15,111,优,#00E400,#00E400,3,巾山实验小学,#FFFF00,33,优,优,优,331000,#00E400,121.136,#00E400,14,优,0.4,优,#00E400,#00E400,331082002,优,#00E400,台州市,#00E400,优,22,33,#00E400,41,2026-06-28 19:00:00
49,良,330681,107,29.7257,优,--,37,8,136,优,#00E400,#00E400,7,城新小学,#FFFF00,34,优,优,优,330600,#00E400,120.272,#00E400,19,优,0.4,优,#00E400,#00E400,330681505,优,#00E400,绍兴市,#00E400,优,29,25,#00E400,50,2026-06-28 19:00:00
50,良,330213,107,29.6506,优,--,30,10,114,优,#00E400,#00E400,9,奉化教育局,#FFFF00,34,优,优,优,330200,#00E400,121.4042,#00E400,16,优,0.6,优,#00E400,#00E400,330283005,优,#00E400,宁波市,#00E400,优,21,20,#00E400,50,2026-06-28 19:00:00
51,良,330281,107,30.0358,优,--,29,14,128,优,#00E400,#00E400,7,姚江小学,#FFFF00,34,优,优,优,330200,#00E400,121.1221,#00E400,19,优,0.6,优,#00E400,#00E400,330281002,优,#00E400,宁波市,#00E400,优,20,22,#00E400,50,2026-06-28 19:00:00
52,良,330783,106,29.30093,优,--,38,9,111,优,#00E400,#00E400,6,广厦学院,#FFFF00,34,优,优,优,330700,#00E400,120.24157,#00E400,14,优,0.8,优,#00E400,#00E400,330783001,优,#00E400,金华市,#00E400,优,27,19,#00E400,50,2026-06-28 19:00:00
53,良,330822,107,28.901,优,--,35,15,111,优,#00E400,#00E400,6,常山环保大楼,#FFFF00,34,优,优,优,330800,#00E400,118.5196,#00E400,16,优,0.6,优,#00E400,#00E400,330822001,优,#00E400,衢州市,#00E400,优,32,16,#00E400,50,2026-06-28 19:00:00
54,良,330921,108,30.2669,优,--,28,18,114,优,#00E400,#00E400,4,岱山环保大楼,#FFFF00,34,优,优,优,330900,#00E400,122.2199,#00E400,10,优,0.5,优,#00E400,#00E400,330921001,优,#00E400,舟山市,#00E400,优,16,20,#00E400,50,2026-06-28 19:00:00
55,良,330921,106,30.2517,优,--,28,10,122,优,#00E400,#00E400,9,岱山高亭,#FFFF00,34,优,优,优,330900,#00E400,122.1958,#00E400,9,优,0.4,优,#00E400,#00E400,330921002,优,#00E400,舟山市,#00E400,优,19,19,#00E400,50,2026-06-28 19:00:00
56,良,331083,106,28.12715,优,--,31,6,112,优,#00E400,#00E400,10,玉环环监站,#FFFF00,34,优,优,优,331000,#00E400,121.2339,#00E400,6,优,0.7,优,#00E400,#00E400,331021001,优,#00E400,台州市,#00E400,优,13,24,#00E400,50,2026-06-28 19:00:00
57,良,331082,107,28.873,优,--,39,13,113,优,#00E400,#00E400,5,临海环保大楼,#FFFF00,34,优,优,优,331000,#00E400,121.1769,#00E400,10,优,0.5,优,#00E400,#00E400,331082001,优,#00E400,台州市,#00E400,优,14,28,#00E400,50,2026-06-28 19:00:00
58,良,331081,107,28.39136,优,--,31,8,111,优,#00E400,#00E400,3,之江高级中学,#FFFF00,34,优,优,优,331000,#00E400,121.37696,#00E400,8,优,0.3,优,#00E400,#00E400,331081002,优,#00E400,台州市,#00E400,优,15,24,#00E400,50,2026-06-28 19:00:00
59,良,330213,110,29.693,优,--,30,10,117,优,#00E400,#00E400,4,溪口政府大楼,#FFFF00,35,优,优,优,330200,#00E400,121.2774,#00E400,16,优,0.4,优,#00E400,#00E400,330283T_1,优,#00E400,宁波市,#00E400,优,23,22,#00E400,60,2026-06-28 19:00:00
60,良,330683,110,29.5901,优,--,30,10,134,优,#00E400,#00E400,5,马寅初初中,#FFFF00,35,优,优,优,330600,#00E400,120.8249,#00E400,19,优,0.4,优,#00E400,#00E400,330683001,优,#00E400,绍兴市,#00E400,优,32,20,#00E400,60,2026-06-28 19:00:00
61,良,330681,109,29.726389,优,--,40,2,133,优,#00E400,#00E400,5,青少年宫,#FFFF00,35,优,优,优,330600,#00E400,120.199722,#00E400,18,优,0.5,优,#00E400,#00E400,330681002,优,#00E400,绍兴市,#00E400,优,31,28,#00E400,60,2026-06-28 19:00:00
62,良,331083,112,28.2221,优,--,32,13,118,优,#00E400,#00E400,7,楚门中心小学,#FFFF00,35,优,优,优,331000,#00E400,121.2846,#00E400,15,优,0.8,优,#00E400,#00E400,331021002,优,#00E400,台州市,#00E400,优,20,26,#00E400,60,2026-06-28 19:00:00
63,良,330383,111,27.5617,优,--,44,16,120,优,#00E400,#00E400,7,龙港实验中学,#FFFF00,35,优,优,优,330300,#00E400,120.5355,#00E400,11,优,0.6,优,#00E400,#00E400,330303101,优,#00E400,温州市,#00E400,优,13,32,#00E400,60,2026-06-28 19:00:00
64,优,330727,86,29.039869,优,--,30,9,89,优,#00E400,#00E400,7,南园初中,#00E400,36,优,优,优,330700,#00E400,120.440622,#00E400,25,优,0.6,优,#00E400,#00E400,330727003,优,#00E400,金华市,#00E400,优,34,18,#00E400,65,2026-06-28 19:00:00
65,良,330922,113,30.7269,优,--,18,7,114,优,#00E400,#00E400,8,嵊泗菜园,#FFFF00,36,优,优,优,330900,#00E400,122.4464,#00E400,11,优,0.2,优,#00E400,#00E400,330922001,优,#00E400,舟山市,#00E400,优,13,16,#00E400,65,2026-06-28 19:00:00
66,良,331023,107,29.1342,优,--,37,12,122,优,#00E400,#00E400,7,天台实验中学,#FFFF00,36,优,优,优,331000,#00E400,121.0349,#00E400,25,优,0.6,优,#00E400,#00E400,331023002,优,#00E400,台州市,#00E400,优,32,26,#00E400,65,2026-06-28 19:00:00
67,良,331022,113,29.1028,优,--,35,8,106,优,#00E400,#00E400,5,心湖站,#FFFF00,36,优,优,优,331000,#00E400,121.3918,#00E400,16,优,0.5,优,#00E400,#00E400,331022002,优,#00E400,台州市,#00E400,优,21,26,#00E400,65,2026-06-28 19:00:00
68,良,331121,113,28.1341,优,--,37,17,114,优,#00E400,#00E400,8,塔山小学,#FFFF00,36,优,优,优,331100,#00E400,120.2936,#00E400,22,优,0.6,优,#00E400,#00E400,331121001,优,#00E400,丽水市,#00E400,优,33,22,#00E400,65,2026-06-28 19:00:00
69,良,330803,116,28.9844,优,--,40,14,122,优,#00E400,#00E400,6,衢州三中（市）,#FFFF00,37,优,优,优,330800,#00E400,118.9628,#00E400,18,优,0.5,优,#00E400,#00E400,330803704,优,#00E400,衢州市,#00E400,优,35,24,#00E400,70,2026-06-28 19:00:00
70,良,330281,116,30.0497,优,--,32,11,129,优,#00E400,#00E400,5,龙山公园,#FFFF00,37,优,优,优,330200,#00E400,121.1475,#00E400,15,优,0.4,优,#00E400,#00E400,330281001,优,#00E400,宁波市,#00E400,优,23,21,#00E400,70,2026-06-28 19:00:00
71,良,330424,117,30.5042,优,--,41,12,148,优,#00E400,#00E400,5,高级中学,#FFFF00,37,优,优,优,330400,#00E400,120.9413,#00E400,17,优,0.6,优,#00E400,#00E400,330424001,优,#00E400,嘉兴市,#00E400,优,22,30,#00E400,70,2026-06-28 19:00:00
72,良,330424,116,30.5299,优,--,35,15,150,优,#00E400,#00E400,4,海盐商贸学校,#FFFF00,37,优,优,优,330400,#00E400,120.9293,#00E400,17,优,0.5,优,#00E400,#00E400,330424002,优,#00E400,嘉兴市,#00E400,优,21,29,#00E400,70,2026-06-28 19:00:00
73,良,330782,116,29.335473,优,--,43,18,134,优,#00E400,#00E400,4,北苑,#FFFF00,37,优,优,优,330700,#00E400,120.078609,#00E400,19,优,0.6,优,#00E400,#00E400,330782001,优,#00E400,金华市,#00E400,优,31,29,#00E400,70,2026-06-28 19:00:00
74,良,330825,117,29.0392,优,--,48,9,135,优,#00E400,#00E400,6,建设大楼,#FFFF00,37,优,优,优,330800,#00E400,119.1675,#00E400,15,优,0.4,优,#00E400,#00E400,330825001,优,#00E400,衢州市,#00E400,优,27,32,#00E400,70,2026-06-28 19:00:00
75,--,331024,96,28.8589,优,--,32,10,--,优,#00E400,#00E400,8,仙居环监站,--,37,优,优,优,331000,#00E400,120.7248,#00E400,22,优,0.5,优,#00E400,#00E400,331024001,优,#00E400,台州市,#00E400,优,37,20,#00E400,70,2026-06-28 19:00:00
76,良,331023,107,29.1504,优,--,37,10,122,优,#00E400,#00E400,6,育青中学,#FFFF00,37,优,优,优,331000,#00E400,121.0091,#00E400,25,优,0.6,优,#00E400,#00E400,331023001,优,#00E400,台州市,#00E400,优,37,24,#00E400,70,2026-06-28 19:00:00
77,良,330482,121,30.7292,优,--,29,10,147,优,#00E400,#00E400,8,陆家桥村,#FFFF00,38,优,优,优,330400,#00E400,120.9953,#00E400,15,优,0.5,优,#00E400,#00E400,330482002,优,#00E400,嘉兴市,#00E400,优,23,23,#00E400,78,2026-06-28 19:00:00
78,良,330481,120,30.5261,优,--,41,15,147,优,#00E400,#00E400,5,海宁监测大楼,#FFFF00,38,优,优,优,330400,#00E400,120.6739,#00E400,21,优,0.4,优,#00E400,#00E400,330481001,优,#00E400,嘉兴市,#00E400,优,33,27,#00E400,78,2026-06-28 19:00:00
79,良,330481,121,30.5137,优,--,39,10,148,优,#00E400,#00E400,11,硖石街道,#FFFF00,38,优,优,优,330400,#00E400,120.7082,#00E400,18,优,0.5,优,#00E400,#00E400,330481002,优,#00E400,嘉兴市,#00E400,优,32,25,#00E400,78,2026-06-28 19:00:00
80,良,330483,119,30.625,优,--,52,17,143,优,#00E400,#00E400,4,振东新六中站,#FFFF00,38,优,优,良,330400,#00E400,120.5613,#00E400,23,优,0.6,优,#00E400,#00E400,330483002,优,#00E400,嘉兴市,#00E400,优,37,29,#FFFF00,78,2026-06-28 19:00:00
81,良,330781,121,29.229931,优,--,35,11,131,优,#00E400,#00E400,6,兰溪八中,#FFFF00,38,优,优,优,330700,#00E400,119.475172,#00E400,16,优,0.5,优,#00E400,#00E400,330781002,优,#00E400,金华市,#00E400,优,27,22,#00E400,78,2026-06-28 19:00:00
82,优,331121,92,28.1094,优,--,33,25,92,优,#00E400,#00E400,6,青田中学,#00E400,38,优,优,优,331100,#00E400,120.3161,#00E400,24,优,0.7,优,#00E400,#00E400,331121002,优,#00E400,丽水市,#00E400,优,38,21,#00E400,78,2026-06-28 19:00:00
83,良,330127,123,29.5995,优,--,24,12,118,优,#00E400,#00E400,9,淳安环保大楼,#FFFF00,39,优,优,优,330100,#00E400,119.0481,#00E400,13,优,0.6,优,#00E400,#00E400,330127001,优,#00E400,杭州市,#00E400,优,25,16,#00E400,84,2026-06-28 19:00:00
84,良,330213,123,29.6774,优,--,33,13,130,优,#00E400,#00E400,7,大桥市场,#FFFF00,39,优,优,优,330200,#00E400,121.4237,#00E400,15,优,0.6,优,#00E400,#00E400,330213001,优,#00E400,宁波市,#00E400,优,21,22,#00E400,84,2026-06-28 19:00:00
85,良,330282,124,30.1636,优,--,39,15,135,优,#00E400,#00E400,5,慈溪环保大楼,#FFFF00,39,优,优,优,330200,#00E400,121.2677,#00E400,14,优,0.6,优,#00E400,#00E400,330282001,优,#00E400,宁波市,#00E400,优,30,20,#00E400,84,2026-06-28 19:00:00
86,良,330225,123,29.2003,优,--,32,10,130,优,#00E400,#00E400,9,石浦新港小学,#FFFF00,39,优,优,优,330200,#00E400,121.934,#00E400,6,优,0.5,优,#00E400,#00E400,330225002,优,#00E400,宁波市,#00E400,优,9,23,#00E400,84,2026-06-28 19:00:00
87,良,330726,124,29.439787,优,--,36,12,147,优,#00E400,#00E400,4,浦江中学,#FFFF00,39,优,优,优,330700,#00E400,119.924638,#00E400,17,优,0.5,优,#00E400,#00E400,330726002,优,#00E400,金华市,#00E400,优,28,22,#00E400,84,2026-06-28 19:00:00
88,良,330782,112,29.305096,优,--,39,20,124,优,#00E400,#00E400,5,江东,#FFFF00,39,优,优,优,330700,#00E400,120.090442,#00E400,17,优,0.7,优,#00E400,#00E400,330782002,优,#00E400,金华市,#00E400,优,39,21,#00E400,84,2026-06-28 19:00:00
89,良,330824,123,29.1343,优,--,35,6,116,优,#00E400,#00E400,6,开化气象局,#FFFF00,39,优,优,优,330800,#00E400,118.402,#00E400,15,优,0.4,优,#00E400,#00E400,330824001,优,#00E400,衢州市,#00E400,优,34,15,#00E400,84,2026-06-28 19:00:00
90,良,330225,127,29.4767,优,--,32,6,120,优,#00E400,#00E400,8,文峰小学,#FFFF00,40,优,优,优,330200,#00E400,121.8864,#00E400,9,优,0.5,优,#00E400,#00E400,330225001,优,#00E400,宁波市,#00E400,优,12,24,#00E400,91,2026-06-28 19:00:00
91,良,330212,126,29.7736,优,--,29,3,126,优,#00E400,#00E400,4,钱湖水厂,#FFFF00,40,优,优,优,330200,#00E400,121.6330,#00E400,13,优,0.5,优,#00E400,#00E400,2013302120001,优,#00E400,宁波市,#00E400,优,16,20,#00E400,91,2026-06-28 19:00:00
92,良,330122,130,29.7955,优,--,30,11,132,优,#00E400,#00E400,6,桐庐江南,#FFFF00,41,优,优,优,330100,#00E400,119.6874,#00E400,22,优,0.4,优,#00E400,#00E400,330122001,优,#00E400,杭州市,#00E400,优,39,17,#00E400,93,2026-06-28 19:00:00
93,良,330282,130,30.1786,优,--,33,8,142,优,#00E400,#00E400,5,慈溪实验小学,#FFFF00,41,优,优,优,330200,#00E400,121.2525,#00E400,15,优,0.6,优,#00E400,#00E400,330282002,优,#00E400,宁波市,#00E400,优,24,21,#00E400,93,2026-06-28 19:00:00
94,良,330421,131,30.836,优,--,39,12,153,优,#00E400,#00E400,6,嘉善监测大楼,#FFFF00,41,优,优,优,330400,#00E400,120.9226,#00E400,17,优,0.6,优,#00E400,#00E400,330421001,优,#00E400,嘉兴市,#00E400,优,28,28,#00E400,93,2026-06-28 19:00:00
95,良,330483,130,30.6488,优,--,38,15,150,优,#00E400,#00E400,5,茅盾小学,#FFFF00,41,优,优,优,330400,#00E400,120.5498,#00E400,16,优,0.5,优,#00E400,#00E400,330483001,优,#00E400,嘉兴市,#00E400,优,32,25,#00E400,93,2026-06-28 19:00:00
96,良,330782,98,29.2637,优,--,40,26,130,优,#00E400,#00E400,3,儿童公园,#FFFF00,41,优,优,优,330700,#00E400,120.0321,#00E400,26,优,0.5,优,#00E400,#00E400,330782004,优,#00E400,金华市,#00E400,优,41,26,#00E400,93,2026-06-28 19:00:00
97,良,330483,130,30.6355,优,--,36,6,160,优,#00E400,#00E400,8,文化中心,#FFFF00,41,优,优,优,330400,#00E400,120.5795,#00E400,16,优,0.7,优,#00E400,#00E400,330483003,优,#00E400,嘉兴市,#00E400,优,24,26,#00E400,93,2026-06-28 19:00:00
98,良,330127,132,29.605,优,--,26,8,126,优,#00E400,#00E400,11,老年活动中心,#FFFF00,42,优,优,优,330100,#00E400,119.0372,#00E400,18,优,0.6,优,#00E400,#00E400,330127T_4,优,#00E400,杭州市,#00E400,优,25,18,#00E400,99,2026-06-28 19:00:00
99,良,330226,133,29.3125,优,--,39,4,132,优,#00E400,#00E400,5,宁海水利局,#FFFF00,42,优,优,优,330200,#00E400,121.4306,#00E400,13,优,0.5,优,#00E400,#00E400,330226001,优,#00E400,宁波市,#00E400,优,16,29,#00E400,99,2026-06-28 19:00:00
100,良,330226,133,29.2878,优,--,36,10,131,优,#00E400,#00E400,5,宁海城南站,#FFFF00,42,优,优,优,330200,#00E400,121.4201,#00E400,13,优,0.5,优,#00E400,#00E400,330226002,优,#00E400,宁波市,#00E400,优,18,27,#00E400,99,2026-06-28 19:00:00
101,轻度污染,330482,132,30.6937,优,--,32,10,166,优,#00E400,#00E400,9,平湖幼儿园,#FF7E00,42,优,优,优,330400,#00E400,121.0259,#00E400,17,优,0.5,优,#00E400,#00E400,330482001,优,#00E400,嘉兴市,#00E400,优,25,23,#00E400,99,2026-06-28 19:00:00
102,良,330726,133,29.465746,优,--,32,11,153,优,#00E400,#00E400,6,浦江实验中学,#FFFF00,42,优,优,优,330700,#00E400,119.875227,#00E400,20,优,0.5,优,#00E400,#00E400,330726001,优,#00E400,金华市,#00E400,优,35,22,#00E400,99,2026-06-28 19:00:00
103,轻度污染,330481,136,30.5524,优,--,44,12,162,优,#00E400,#00E400,7,胜利社区,#FF7E00,43,优,优,优,330400,#00E400,120.6713,#00E400,16,优,0.5,优,#00E400,#00E400,330481003,优,#00E400,嘉兴市,#00E400,优,31,23,#00E400,104,2026-06-28 19:00:00
104,良,330182,138,29.4638,优,--,38,12,132,优,#00E400,#00E400,6,第二中学,#FFFF00,44,优,优,优,330100,#00E400,119.2821,#00E400,19,优,0.5,优,#00E400,#00E400,330182002,优,#00E400,杭州市,#00E400,优,34,26,#00E400,105,2026-06-28 19:00:00
105,良,330122,142,29.8058,优,--,33,6,140,优,#00E400,#00E400,3,桐庐江北,#FFFF00,45,优,优,优,330100,#00E400,119.669,#00E400,23,优,0.7,优,#00E400,#00E400,330122002,优,#00E400,杭州市,#00E400,优,36,21,#00E400,106,2026-06-28 19:00:00
106,轻度污染,330421,145,30.8307,优,--,31,9,170,优,#00E400,#00E400,8,气象观测台,#FF7E00,46,优,优,优,330400,#00E400,120.9356,#00E400,19,优,0.5,优,#00E400,#00E400,330421002,优,#00E400,嘉兴市,#00E400,优,25,20,#00E400,107,2026-06-28 19:00:00
107,良,330182,152,29.4769,优,--,38,12,139,优,#00E400,#00E400,8,建德监测大楼,#FFFF00,48,优,优,优,330100,#00E400,119.2711,#00E400,25,优,0.6,优,#00E400,#00E400,330182T_2,优,#00E400,杭州市,#00E400,优,39,25,#00E400,108,2026-06-28 19:00:00
108,良,330781,153,29.216166,优,--,34,13,158,优,#00E400,#00E400,8,兰溪监测站,#FFFF00,48,优,优,优,330700,#00E400,119.459992,#00E400,19,优,0.4,优,#00E400,#00E400,330781001,优,#00E400,金华市,#00E400,优,32,22,#00E400,108,2026-06-28 19:00:00
109,轻度污染,330483,155,30.7369,优,--,37,13,183,优,#00E400,#00E400,5,植材小学,#FF7E00,49,优,优,优,330400,#00E400,120.4902,#00E400,21,优,0.6,优,#00E400,#00E400,330483509,优,#00E400,嘉兴市,#00E400,优,32,24,#00E400,110,2026-06-28 19:00:00
110,良,330523,159,30.5974,优,--,40,10,151,优,#00E400,#00E400,4,安吉城东,#FFFF00,50,优,优,优,330500,#00E400,119.6953,#00E400,19,优,0.3,优,#00E400,#00E400,330523002,优,#00E400,湖州市,#00E400,优,22,33,#00E400,111,2026-06-28 19:00:00
111,轻度污染,330522,172,31.0263,优,O₃,44,13,194,良,#00E400,#00E400,5,龙山新区,#FF7E00,65,优,良,优,330500,#00E400,119.9046,#00E400,19,优,0.5,优,#00E400,#00E400,330522002,优,#FFFF00,湖州市,#FFFF00,优,28,30,#00E400,112,2026-06-28 19:00:00
112,轻度污染,330522,179,31.0143,优,O₃,44,14,202,良,#00E400,#00E400,4,职教中心,#FF7E00,74,优,良,优,330500,#00E400,119.8935,#00E400,20,优,0.5,优,#00E400,#00E400,330522001,优,#FFFF00,湖州市,#FFFF00,优,28,31,#00E400,113,2026-06-28 19:00:00
113,轻度污染,330110,179,30.2635,优,O₃,38,25,174,良,#FFFF00,#FFFF00,9,海辰小学,#FF7E00,74,优,良,优,330100,#00E400,119.9842,#00E400,39,良,0.3,良,#00E400,#00E400,2013301100001,优,#FFFF00,杭州市,#FFFF00,优,64,24,#00E400,113,2026-06-28 19:00:00
114,轻度污染,330521,191,30.5231,优,O₃,40,9,181,良,#00E400,#00E400,9,地信科创园,#FF7E00,89,优,良,优,330500,#00E400,119.9781,#00E400,28,优,0.5,优,#00E400,#00E400,330521001,优,#FFFF00,湖州市,#FFFF00,优,37,31,#00E400,115,2026-06-28 19:00:00
115,良,330523,200,30.6422,优,O₃,50,12,159,良,#00E400,#00E400,7,安吉实验小学,#FFFF00,100,优,良,优,330500,#00E400,119.6768,#00E400,29,优,0.4,优,#00E400,#FFFF00,330523001,良,#FFFF00,湖州市,#FFFF00,优,43,39,#00E400,116,2026-06-28 19:00:00
116,轻度污染,330521,203,30.548493,优,O₃,41,14,185,轻度污染,#00E400,#00E400,8,春晖小学,#FF7E00,102,优,轻度污染,优,330500,#00E400,119.9505,#00E400,27,优,0.5,优,#00E400,#00E400,330521003,优,#FF7E00,湖州市,#FF7E00,优,44,27,#00E400,117,2026-06-28 19:00:00
117,良,330782,131,29.3686,优,--,41,16,146,优,#00E400,#00E400,--,第五中学,#FFFF00,--,优,--,优,330700,--,120.1345,#00E400,15,优,0.6,优,#00E400,#00E400,330782003,优,--,金华市,#00E400,--,32,20,#00E400,118,2026-06-28 19:00:00
