,O3H8_level,regioncode,O3,latitude,CO_level,SYWRW,PM10H24,NO2,O3H8,O3_level,PM10_color,PM25_color,SO2,sitename,O3H8_color,AQI,NO2_level,AQI_level,PM10H24_level,districtcode,SO2_color,longitude,NO2_color,PM25,PM10_level,CO,PM25_level,CO_color,PM25H24_color,sitecode,PM25H24_level,AQI_color,districtname,O3_color,SO2_level,PM10,PM25H24,PM10H24_color,sort,time
0,优,330381,35,27.782284,优,--,--,2,44,优,#00E400,#00E400,6,安阳新区,#00E400,11,优,优,--,330300,#00E400,120.650915,#00E400,5,优,0.5,优,#00E400,--,330381002,--,#00E400,温州市,#00E400,优,8,--,--,1,2026-05-28 06:00:00
1,优,330381,27,27.791645,优,--,42,13,39,优,#00E400,#00E400,5,花园桥,#00E400,13,优,优,优,330300,#00E400,120.62372,#00E400,9,优,0.5,优,#00E400,#00E400,330381001,优,#00E400,温州市,#00E400,优,13,23,#00E400,2,2026-05-28 06:00:00
2,优,330383,41,27.5617,优,--,36,10,56,优,#00E400,#00E400,6,龙港实验中学,#00E400,13,优,优,优,330300,#00E400,120.5355,#00E400,8,优,0.4,优,#00E400,#00E400,330303101,优,#00E400,温州市,#00E400,优,13,24,#00E400,2,2026-05-28 06:00:00
3,优,330382,25,28.1209,优,--,36,13,48,优,#00E400,#00E400,4,乐成,#00E400,15,优,优,优,330300,#00E400,120.9659,#00E400,10,优,0.6,优,#00E400,#00E400,330382001,优,#00E400,温州市,#00E400,优,13,25,#00E400,4,2026-05-28 06:00:00
4,优,331082,48,28.873,优,--,33,20,65,优,#00E400,#00E400,5,临海环保大楼,#00E400,15,优,优,优,331000,#00E400,121.1769,#00E400,7,优,0.7,优,#00E400,#00E400,331082001,优,#00E400,台州市,#00E400,优,12,20,#00E400,4,2026-05-28 06:00:00
5,优,330326,23,27.6653,优,--,37,9,37,优,#00E400,#00E400,7,平阳县政府,#00E400,16,优,优,优,330300,#00E400,120.5611,#00E400,6,优,0.6,优,#00E400,#00E400,330326002,优,#00E400,温州市,#00E400,优,16,21,#00E400,6,2026-05-28 06:00:00
6,优,330727,40,29.051486,优,--,21,15,42,优,#00E400,#00E400,8,国税大楼,#00E400,16,优,优,优,330700,#00E400,120.438346,#00E400,8,优,0.7,优,#00E400,#00E400,330727002,优,#00E400,金华市,#00E400,优,16,12,#00E400,6,2026-05-28 06:00:00
7,优,331082,51,28.84326,优,--,35,16,67,优,#00E400,#00E400,4,巾山实验小学,#00E400,16,优,优,优,331000,#00E400,121.136,#00E400,6,优,0.6,优,#00E400,#00E400,331082002,优,#00E400,台州市,#00E400,优,10,22,#00E400,6,2026-05-28 06:00:00
8,优,331122,47,28.6628,优,--,26,20,52,优,#00E400,#00E400,6,信访大楼,#00E400,16,优,优,优,331100,#00E400,120.0856,#00E400,8,优,0.5,优,#00E400,#00E400,331122002,优,#00E400,丽水市,#00E400,优,16,14,#00E400,6,2026-05-28 06:00:00
9,优,330383,31,27.5812,优,--,37,15,48,优,#00E400,#00E400,7,龙港,#00E400,18,优,优,优,330300,#00E400,120.5489,#00E400,9,优,0.5,优,#00E400,#00E400,330327002,优,#00E400,温州市,#00E400,优,18,23,#00E400,10,2026-05-28 06:00:00
10,优,330522,47,31.0263,优,--,20,8,57,优,#00E400,#00E400,5,龙山新区,#00E400,18,优,优,优,330500,#00E400,119.9046,#00E400,12,优,0.4,优,#00E400,#00E400,330522002,优,#00E400,湖州市,#00E400,优,18,14,#00E400,10,2026-05-28 06:00:00
11,优,331024,55,28.8589,优,--,24,13,68,优,#00E400,#00E400,9,仙居环监站,#00E400,18,优,优,优,331000,#00E400,120.7248,#00E400,8,优,0.5,优,#00E400,#00E400,331024001,优,#00E400,台州市,#00E400,优,18,11,#00E400,10,2026-05-28 06:00:00
12,优,330523,54,30.5974,优,--,22,9,56,优,#00E400,#00E400,6,安吉城东,#00E400,19,优,优,优,330500,#00E400,119.6953,#00E400,13,优,0.4,优,#00E400,#00E400,330523002,优,#00E400,湖州市,#00E400,优,19,14,#00E400,13,2026-05-28 06:00:00
13,优,330483,63,30.7369,优,--,24,4,73,优,#00E400,#00E400,8,植材小学,#00E400,20,优,优,优,330400,#00E400,120.4902,#00E400,12,优,0.7,优,#00E400,#00E400,330483509,优,#00E400,嘉兴市,#00E400,优,20,15,#00E400,14,2026-05-28 06:00:00
14,优,330324,24,28.158269,优,--,32,12,34,优,#00E400,#00E400,6,上塘,#00E400,21,优,优,优,330300,#00E400,120.694244,#00E400,4,优,0.8,优,#00E400,#00E400,330324001,优,#00E400,温州市,#00E400,优,21,14,#00E400,15,2026-05-28 06:00:00
15,优,330327,18,27.522222,优,--,35,12,30,优,#00E400,#00E400,7,苍南中学,#00E400,21,优,优,优,330300,#00E400,120.416111,#00E400,11,优,0.6,优,#00E400,#00E400,330327004,优,#00E400,温州市,#00E400,优,21,22,#00E400,15,2026-05-28 06:00:00
16,优,330521,59,30.5231,优,--,19,8,68,优,#00E400,#00E400,7,地信科创园,#00E400,21,优,优,优,330500,#00E400,119.9781,#00E400,14,优,0.7,优,#00E400,#00E400,330521001,优,#00E400,湖州市,#00E400,优,21,13,#00E400,15,2026-05-28 06:00:00
17,优,331023,21,29.1504,优,--,27,16,48,优,#00E400,#00E400,5,育青中学,#00E400,21,优,优,优,331000,#00E400,121.0091,#00E400,12,优,0.8,优,#00E400,#00E400,331023001,优,#00E400,台州市,#00E400,优,21,17,#00E400,15,2026-05-28 06:00:00
18,优,331023,33,29.1342,优,--,24,13,58,优,#00E400,#00E400,5,天台实验中学,#00E400,21,优,优,优,331000,#00E400,121.0349,#00E400,13,优,0.8,优,#00E400,#00E400,331023002,优,#00E400,台州市,#00E400,优,21,16,#00E400,15,2026-05-28 06:00:00
19,优,330127,47,29.605,优,--,18,5,36,优,#00E400,#00E400,12,老年活动中心,#00E400,22,优,优,优,330100,#00E400,119.0372,#00E400,12,优,0.6,优,#00E400,#00E400,330127T_4,优,#00E400,杭州市,#00E400,优,22,9,#00E400,20,2026-05-28 06:00:00
20,优,330281,59,30.0358,优,--,28,12,67,优,#00E400,#00E400,4,姚江小学,#00E400,22,优,优,优,330200,#00E400,121.1221,#00E400,15,优,0.7,优,#00E400,#00E400,330281002,优,#00E400,宁波市,#00E400,优,21,22,#00E400,20,2026-05-28 06:00:00
21,优,330328,18,27.7838,优,--,25,7,21,优,#00E400,#00E400,6,大峃,#00E400,22,优,优,优,330300,#00E400,120.085,#00E400,9,优,0.4,优,#00E400,#00E400,330328001,优,#00E400,温州市,#00E400,优,22,13,#00E400,20,2026-05-28 06:00:00
22,优,330329,33,27.557,优,--,22,15,31,优,#00E400,#00E400,5,罗阳,#00E400,22,优,优,优,330300,#00E400,119.7084,#00E400,15,优,0.5,优,#00E400,#00E400,330329001,优,#00E400,温州市,#00E400,优,18,14,#00E400,20,2026-05-28 06:00:00
23,优,330327,13,27.503889,优,--,29,11,24,优,#00E400,#00E400,9,灵溪,#00E400,22,优,优,优,330300,#00E400,120.395278,#00E400,6,优,0.5,优,#00E400,#00E400,330327001,优,#00E400,温州市,#00E400,优,22,16,#00E400,20,2026-05-28 06:00:00
24,优,330483,58,30.6355,优,--,26,5,69,优,#00E400,#00E400,11,文化中心,#00E400,22,优,优,优,330400,#00E400,120.5795,#00E400,14,优,0.7,优,#00E400,#00E400,330483003,优,#00E400,嘉兴市,#00E400,优,22,17,#00E400,20,2026-05-28 06:00:00
25,优,330127,31,29.5995,优,--,21,4,24,优,#00E400,#00E400,9,淳安环保大楼,#00E400,23,优,优,优,330100,#00E400,119.0481,#00E400,13,优,0.7,优,#00E400,#00E400,330127001,优,#00E400,杭州市,#00E400,优,23,10,#00E400,26,2026-05-28 06:00:00
26,优,330326,16,27.6593,优,--,39,5,24,优,#00E400,#00E400,8,平阳监测站,#00E400,23,优,优,优,330300,#00E400,120.5705,#00E400,8,优,0.6,优,#00E400,#00E400,330326001,优,#00E400,温州市,#00E400,优,23,23,#00E400,26,2026-05-28 06:00:00
27,优,330521,51,30.548493,优,--,22,16,66,优,#00E400,#00E400,7,春晖小学,#00E400,23,优,优,优,330500,#00E400,119.9505,#00E400,14,优,0.6,优,#00E400,#00E400,330521003,优,#00E400,湖州市,#00E400,优,23,15,#00E400,26,2026-05-28 06:00:00
28,优,330305,57,27.8342,优,--,35,8,76,优,#00E400,#00E400,7,洞头气象局,#00E400,24,优,优,优,330300,#00E400,121.1502,#00E400,15,优,0.6,优,#00E400,#00E400,330305001,优,#00E400,温州市,#00E400,优,24,24,#00E400,29,2026-05-28 06:00:00
29,优,330522,58,31.0143,优,--,24,9,67,优,#00E400,#00E400,3,职教中心,#00E400,24,优,优,优,330500,#00E400,119.8935,#00E400,10,优,0.4,优,#00E400,#00E400,330522001,优,#00E400,湖州市,#00E400,优,24,12,#00E400,29,2026-05-28 06:00:00
30,优,331124,24,28.4505,优,--,27,20,34,优,#00E400,#00E400,5,松阳监测楼,#00E400,24,优,优,优,331100,#00E400,119.4799,#00E400,14,优,0.4,优,#00E400,#00E400,331124001,优,#00E400,丽水市,#00E400,优,24,16,#00E400,29,2026-05-28 06:00:00
31,优,331124,36,28.4516,优,--,27,18,45,优,#00E400,#00E400,6,和平水厂,#00E400,24,优,优,优,331100,#00E400,119.4699,#00E400,11,优,0.5,优,#00E400,#00E400,331124002,优,#00E400,丽水市,#00E400,优,24,14,#00E400,29,2026-05-28 06:00:00
32,优,330483,61,30.6488,优,--,28,14,71,优,#00E400,#00E400,5,茅盾小学,#00E400,25,优,优,优,330400,#00E400,120.5498,#00E400,14,优,0.5,优,#00E400,#00E400,330483001,优,#00E400,嘉兴市,#00E400,优,25,16,#00E400,33,2026-05-28 06:00:00
33,优,330523,52,30.6422,优,--,37,9,65,优,#00E400,#00E400,7,安吉实验小学,#00E400,25,优,优,优,330500,#00E400,119.6768,#00E400,17,优,0.5,优,#00E400,#00E400,330523001,优,#00E400,湖州市,#00E400,优,24,22,#00E400,33,2026-05-28 06:00:00
34,优,330922,64,30.7269,优,--,24,5,73,优,#00E400,#00E400,8,嵊泗菜园,#00E400,25,优,优,优,330900,#00E400,122.4464,#00E400,17,优,0.5,优,#00E400,#00E400,330922001,优,#00E400,舟山市,#00E400,优,25,19,#00E400,33,2026-05-28 06:00:00
35,优,331122,56,28.6574,优,--,25,31,62,优,#00E400,#00E400,7,缙云中学,#00E400,25,优,优,优,331100,#00E400,120.0696,#00E400,13,优,0.5,优,#00E400,#00E400,331122001,优,#00E400,丽水市,#00E400,优,25,15,#00E400,33,2026-05-28 06:00:00
36,优,330421,56,30.8307,优,--,23,11,69,优,#00E400,#00E400,8,气象观测台,#00E400,26,优,优,优,330400,#00E400,120.9356,#00E400,18,优,0.6,优,#00E400,#00E400,330421002,优,#00E400,嘉兴市,#00E400,优,25,17,#00E400,37,2026-05-28 06:00:00
37,优,331127,6,27.9772,优,--,22,9,5,优,#00E400,#00E400,4,景宁县政府,#00E400,26,优,优,优,331100,#00E400,119.6311,#00E400,12,优,0.5,优,#00E400,#00E400,331127002,优,#00E400,丽水市,#00E400,优,26,10,#00E400,37,2026-05-28 06:00:00
38,优,330727,4,29.039869,优,--,26,21,26,优,#00E400,#00E400,6,南园初中,#00E400,27,优,优,优,330700,#00E400,120.440622,#00E400,10,优,0.6,优,#00E400,#00E400,330727003,优,#00E400,金华市,#00E400,优,27,15,#00E400,39,2026-05-28 06:00:00
39,优,331125,4,28.1173,优,--,23,18,8,优,#00E400,#00E400,5,云和监测楼,#00E400,27,优,优,优,331100,#00E400,119.5626,#00E400,12,优,0.4,优,#00E400,#00E400,331125001,优,#00E400,丽水市,#00E400,优,27,12,#00E400,39,2026-05-28 06:00:00
40,优,331126,23,27.6211,优,--,23,7,24,优,#00E400,#00E400,5,庆元气象局,#00E400,27,优,优,优,331100,#00E400,119.0788,#00E400,13,优,0.9,优,#00E400,#00E400,331126002,优,#00E400,丽水市,#00E400,优,27,13,#00E400,39,2026-05-28 06:00:00
41,优,330481,54,30.5137,优,--,25,8,69,优,#00E400,#00E400,9,硖石街道,#00E400,28,优,优,优,330400,#00E400,120.7082,#00E400,18,优,0.7,优,#00E400,#00E400,330481002,优,#00E400,嘉兴市,#00E400,优,28,16,#00E400,42,2026-05-28 06:00:00
42,优,330483,64,30.625,优,--,28,15,73,优,#00E400,#00E400,5,振东新六中站,#00E400,28,优,优,优,330400,#00E400,120.5613,#00E400,18,优,0.7,优,#00E400,#00E400,330483002,优,#00E400,嘉兴市,#00E400,优,28,17,#00E400,42,2026-05-28 06:00:00
43,优,330824,13,29.1343,优,--,26,7,24,优,#00E400,#00E400,6,开化气象局,#00E400,28,优,优,优,330800,#00E400,118.402,#00E400,11,优,0.4,优,#00E400,#00E400,330824001,优,#00E400,衢州市,#00E400,优,28,9,#00E400,42,2026-05-28 06:00:00
44,优,331081,54,28.39136,优,--,30,6,75,优,#00E400,#00E400,3,之江高级中学,#00E400,28,优,优,优,331000,#00E400,121.37696,#00E400,19,优,1.0,优,#00E400,#00E400,331081002,优,#00E400,台州市,#00E400,优,21,23,#00E400,42,2026-05-28 06:00:00
45,优,330328,7,27.804722,优,--,24,7,16,优,#00E400,#00E400,7,文成中学,#00E400,29,优,优,优,330300,#00E400,120.077222,#00E400,11,优,0.4,优,#00E400,#00E400,330328002,优,#00E400,温州市,#00E400,优,29,13,#00E400,46,2026-05-28 06:00:00
46,优,331024,32,28.7403,优,--,20,15,50,优,#00E400,#00E400,6,新生中学,#00E400,29,优,优,优,331000,#00E400,120.4728,#00E400,20,优,0.5,优,#00E400,#00E400,331024002,优,#00E400,台州市,#00E400,优,17,17,#00E400,46,2026-05-28 06:00:00
47,优,330110,65,30.2635,优,--,24,9,78,优,#00E400,#00E400,7,海辰小学,#00E400,29,优,优,优,330100,#00E400,119.9842,#00E400,20,优,1.0,优,#00E400,#00E400,2013301100001,优,#00E400,杭州市,#00E400,优,28,15,#00E400,46,2026-05-28 06:00:00
48,优,330324,30,28.044335,优,--,39,33,37,优,#00E400,#00E400,7,瓯北,#00E400,30,优,优,优,330300,#00E400,120.654963,#00E400,17,优,0.7,优,#00E400,#00E400,330324002,优,#00E400,温州市,#00E400,优,30,18,#00E400,49,2026-05-28 06:00:00
49,优,330329,17,27.5438,优,--,23,13,23,优,#00E400,#00E400,7,泰顺实验中学,#00E400,30,优,优,优,330300,#00E400,119.716111,#00E400,19,优,0.3,优,#00E400,#00E400,330329002,优,#00E400,温州市,#00E400,优,30,14,#00E400,49,2026-05-28 06:00:00
50,优,331123,3,28.5991,优,--,24,10,4,优,#00E400,#00E400,4,遂昌民政局,#00E400,30,优,优,优,331100,#00E400,119.2622,#00E400,14,优,0.6,优,#00E400,#00E400,331123001,优,#00E400,丽水市,#00E400,优,30,14,#00E400,49,2026-05-28 06:00:00
51,优,331123,3,28.5839,优,--,28,13,6,优,#00E400,#00E400,7,遂昌中学,#00E400,30,优,优,优,331100,#00E400,119.2656,#00E400,10,优,0.7,优,#00E400,#00E400,331123002,优,#00E400,丽水市,#00E400,优,30,14,#00E400,49,2026-05-28 06:00:00
52,优,330281,63,30.0497,优,--,27,13,72,优,#00E400,#00E400,5,龙山公园,#00E400,31,优,优,优,330200,#00E400,121.1475,#00E400,18,优,0.6,优,#00E400,#00E400,330281001,优,#00E400,宁波市,#00E400,优,31,18,#00E400,53,2026-05-28 06:00:00
53,优,330824,3,29.1478,优,--,23,12,13,优,#00E400,#00E400,8,开化监测大楼,#00E400,31,优,优,优,330800,#00E400,118.4108,#00E400,17,优,0.5,优,#00E400,#00E400,330824002,优,#00E400,衢州市,#00E400,优,31,15,#00E400,53,2026-05-28 06:00:00
54,优,331125,5,28.1062,优,--,31,10,6,优,#00E400,#00E400,6,云和三中,#00E400,31,优,优,优,331100,#00E400,119.5728,#00E400,10,优,0.6,优,#00E400,#00E400,331125002,优,#00E400,丽水市,#00E400,优,31,11,#00E400,53,2026-05-28 06:00:00
55,优,331181,7,28.076,优,--,19,8,13,优,#00E400,#00E400,9,粮食大楼,#00E400,31,优,优,优,331100,#00E400,119.1217,#00E400,19,优,0.6,优,#00E400,#00E400,331181002,优,#00E400,丽水市,#00E400,优,31,10,#00E400,53,2026-05-28 06:00:00
56,优,330482,52,30.6937,优,--,27,7,66,优,#00E400,#00E400,8,平湖幼儿园,#00E400,32,优,优,优,330400,#00E400,121.0259,#00E400,22,优,0.8,优,#00E400,#00E400,330482001,优,#00E400,嘉兴市,#00E400,优,31,19,#00E400,57,2026-05-28 06:00:00
57,优,330482,52,30.7292,优,--,24,12,64,优,#00E400,#00E400,8,陆家桥村,#00E400,32,优,优,优,330400,#00E400,120.9953,#00E400,22,优,0.7,优,#00E400,#00E400,330482002,优,#00E400,嘉兴市,#00E400,优,28,19,#00E400,57,2026-05-28 06:00:00
58,优,330783,30,29.30093,优,--,24,15,35,优,#00E400,#00E400,5,广厦学院,#00E400,32,优,优,优,330700,#00E400,120.24157,#00E400,17,优,0.8,优,#00E400,#00E400,330783001,优,#00E400,金华市,#00E400,优,32,13,#00E400,57,2026-05-28 06:00:00
59,优,330822,41,28.9012,优,--,26,13,40,优,#00E400,#00E400,5,图书馆大楼,#00E400,32,优,优,优,330800,#00E400,118.5062,#00E400,5,优,0.5,优,#00E400,#00E400,330822002,优,#00E400,衢州市,#00E400,优,32,11,#00E400,57,2026-05-28 06:00:00
60,优,330921,51,30.2669,优,--,36,21,74,优,#00E400,#00E400,6,岱山环保大楼,#00E400,32,优,优,优,330900,#00E400,122.2199,#00E400,22,优,0.5,优,#00E400,#00E400,330921001,优,#00E400,舟山市,#00E400,优,29,27,#00E400,57,2026-05-28 06:00:00
61,优,331121,18,28.1341,优,--,28,22,25,优,#00E400,#00E400,5,塔山小学,#00E400,32,优,优,优,331100,#00E400,120.2936,#00E400,13,优,0.5,优,#00E400,#00E400,331121001,优,#00E400,丽水市,#00E400,优,32,15,#00E400,57,2026-05-28 06:00:00
62,优,331126,18,27.629585,优,--,22,10,18,优,#00E400,#00E400,4,庆元监测楼,#00E400,32,优,优,优,331100,#00E400,119.054809,#00E400,16,优,0.9,优,#00E400,#00E400,331126001,优,#00E400,丽水市,#00E400,优,32,12,#00E400,57,2026-05-28 06:00:00
63,优,330723,19,28.9178,优,--,28,22,22,优,#00E400,#00E400,7,武义北岭幼儿园,#00E400,32,优,优,优,330700,#00E400,119.8022,#00E400,22,优,0.8,优,#00E400,#00E400,330723003,优,#00E400,金华市,#00E400,优,31,19,#00E400,57,2026-05-28 06:00:00
64,优,331127,3,28.002222,优,--,26,7,3,优,#00E400,#00E400,7,红星小学,#00E400,33,优,优,优,331100,#00E400,119.636389,#00E400,14,优,0.4,优,#00E400,#00E400,331127003,优,#00E400,丽水市,#00E400,优,33,14,#00E400,65,2026-05-28 06:00:00
65,优,330421,58,30.836,优,--,30,12,68,优,#00E400,#00E400,6,嘉善监测大楼,#00E400,33,优,优,优,330400,#00E400,120.9226,#00E400,22,优,0.6,优,#00E400,#00E400,330421001,优,#00E400,嘉兴市,#00E400,优,33,19,#00E400,65,2026-05-28 06:00:00
66,优,330681,48,29.726389,优,--,36,12,56,优,#00E400,#00E400,6,青少年宫,#00E400,33,优,优,优,330600,#00E400,120.199722,#00E400,23,优,0.6,优,#00E400,#00E400,330681002,优,#00E400,绍兴市,#00E400,优,33,24,#00E400,65,2026-05-28 06:00:00
67,优,331121,10,28.1094,优,--,25,24,28,优,#00E400,#00E400,4,青田中学,#00E400,33,优,优,优,331100,#00E400,120.3161,#00E400,16,优,0.5,优,#00E400,#00E400,331121002,优,#00E400,丽水市,#00E400,优,33,14,#00E400,65,2026-05-28 06:00:00
68,优,330481,54,30.5524,优,--,31,11,69,优,#00E400,#00E400,6,胜利社区,#00E400,34,优,优,优,330400,#00E400,120.6713,#00E400,20,优,0.8,优,#00E400,#00E400,330481003,优,#00E400,嘉兴市,#00E400,优,34,18,#00E400,69,2026-05-28 06:00:00
69,优,330481,55,30.5261,优,--,30,14,68,优,#00E400,#00E400,7,海宁监测大楼,#00E400,35,优,优,优,330400,#00E400,120.6739,#00E400,20,优,0.4,优,#00E400,#00E400,330481001,优,#00E400,嘉兴市,#00E400,优,35,17,#00E400,70,2026-05-28 06:00:00
70,优,330784,5,28.8854,优,--,34,26,25,优,#00E400,#00E400,6,永康一中,#00E400,35,优,优,优,330700,#00E400,120.0439,#00E400,16,优,0.7,优,#00E400,#00E400,330784001,优,#00E400,金华市,#00E400,优,35,22,#00E400,70,2026-05-28 06:00:00
71,优,330784,5,28.90016,优,--,38,15,22,优,#00E400,#00E400,7,西城供电所,#00E400,35,优,优,优,330700,#00E400,120.01452,#00E400,21,优,0.6,优,#00E400,#00E400,330784002,优,#00E400,金华市,#00E400,优,35,23,#00E400,70,2026-05-28 06:00:00
72,优,330881,42,28.7465,优,--,32,8,38,优,#00E400,#00E400,10,江山环保大楼,#00E400,35,优,优,优,330800,#00E400,118.6301,#00E400,24,优,0.8,优,#00E400,#00E400,330881001,优,#00E400,衢州市,#00E400,优,32,23,#00E400,70,2026-05-28 06:00:00
73,优,330213,60,29.6506,优,--,37,11,80,优,#00E400,#00E400,5,奉化教育局,#00E400,36,优,优,优,330200,#00E400,121.4042,#00E400,25,优,0.8,优,#00E400,#00E400,330283005,优,#00E400,宁波市,#00E400,优,36,25,#00E400,74,2026-05-28 06:00:00
74,优,330282,68,30.1636,优,--,32,13,77,优,#00E400,#00E400,5,慈溪环保大楼,#00E400,36,优,优,优,330200,#00E400,121.2677,#00E400,16,优,0.7,优,#00E400,#00E400,330282001,优,#00E400,宁波市,#00E400,优,36,17,#00E400,74,2026-05-28 06:00:00
75,优,330681,57,29.6818,优,--,34,9,65,优,#00E400,#00E400,5,杨树畈,#00E400,36,优,优,优,330600,#00E400,120.2359,#00E400,25,优,0.6,优,#00E400,#00E400,330681001,优,#00E400,绍兴市,#00E400,优,28,28,#00E400,74,2026-05-28 06:00:00
76,优,330723,18,28.896108,优,--,35,20,29,优,#00E400,#00E400,8,武义县政府,#00E400,36,优,优,优,330700,#00E400,119.811352,#00E400,20,优,0.8,优,#00E400,#00E400,330723001,优,#00E400,金华市,#00E400,优,36,21,#00E400,74,2026-05-28 06:00:00
77,优,331081,55,28.37558,优,--,31,15,62,优,#00E400,#00E400,6,温岭环监站,#00E400,36,优,优,优,331000,#00E400,121.36579,#00E400,25,优,0.8,优,#00E400,#00E400,331081001,优,#00E400,台州市,#00E400,优,30,25,#00E400,74,2026-05-28 06:00:00
78,优,330282,68,30.1786,优,--,32,12,76,优,#00E400,#00E400,3,慈溪实验小学,#00E400,37,优,优,优,330200,#00E400,121.2525,#00E400,19,优,0.6,优,#00E400,#00E400,330282002,优,#00E400,宁波市,#00E400,优,37,20,#00E400,79,2026-05-28 06:00:00
79,优,330781,21,29.216166,优,--,24,14,30,优,#00E400,#00E400,6,兰溪监测站,#00E400,37,优,优,优,330700,#00E400,119.459992,#00E400,20,优,0.6,优,#00E400,#00E400,330781001,优,#00E400,金华市,#00E400,优,37,14,#00E400,79,2026-05-28 06:00:00
80,优,330783,37,29.27739,优,--,27,18,46,优,#00E400,#00E400,5,东阳环保大楼,#00E400,37,优,优,优,330700,#00E400,120.23692,#00E400,20,优,0.8,优,#00E400,#00E400,330783002,优,#00E400,金华市,#00E400,优,37,16,#00E400,79,2026-05-28 06:00:00
81,优,331083,41,28.12715,优,--,35,15,68,优,#00E400,#00E400,10,玉环环监站,#00E400,37,优,优,优,331000,#00E400,121.2339,#00E400,25,优,0.9,优,#00E400,#00E400,331021001,优,#00E400,台州市,#00E400,优,37,25,#00E400,79,2026-05-28 06:00:00
82,优,330726,39,29.465746,优,--,38,18,44,优,#00E400,#00E400,6,浦江实验中学,#00E400,38,优,优,优,330700,#00E400,119.875227,#00E400,26,优,0.9,优,#00E400,#00E400,330726001,优,#00E400,金华市,#00E400,优,36,24,#00E400,83,2026-05-28 06:00:00
83,优,330881,51,28.7282,优,--,29,11,49,优,#00E400,#00E400,15,人民医院,#00E400,38,优,优,优,330800,#00E400,118.6227,#00E400,26,优,0.6,优,#00E400,#00E400,330881002,优,#00E400,衢州市,#00E400,优,32,22,#00E400,83,2026-05-28 06:00:00
84,优,330683,64,29.5663,优,--,26,14,76,优,#00E400,#00E400,5,丽湖小区,#00E400,39,优,优,优,330600,#00E400,120.8173,#00E400,27,优,0.7,优,#00E400,#00E400,330683002,优,#00E400,绍兴市,#00E400,优,30,23,#00E400,85,2026-05-28 06:00:00
85,优,330726,40,29.439787,优,--,35,17,38,优,#00E400,#00E400,2,浦江中学,#00E400,40,优,优,优,330700,#00E400,119.924638,#00E400,24,优,0.7,优,#00E400,#00E400,330726002,优,#00E400,金华市,#00E400,优,40,24,#00E400,86,2026-05-28 06:00:00
86,优,330782,41,29.305096,优,--,31,4,37,优,#00E400,#00E400,6,江东,#00E400,41,优,优,优,330700,#00E400,120.090442,#00E400,19,优,0.8,优,#00E400,#00E400,330782002,优,#00E400,金华市,#00E400,优,41,18,#00E400,87,2026-05-28 06:00:00
87,优,330382,48,28.0297,优,--,39,20,64,优,#00E400,#00E400,5,柳市,#00E400,42,优,优,优,330300,#00E400,120.891,#00E400,26,优,0.7,优,#00E400,#00E400,330382002,优,#00E400,温州市,#00E400,优,42,24,#00E400,88,2026-05-28 06:00:00
88,优,330825,40,29.0392,优,--,29,28,50,优,#00E400,#00E400,6,建设大楼,#00E400,42,优,优,优,330800,#00E400,119.1675,#00E400,24,优,0.7,优,#00E400,#00E400,330825001,优,#00E400,衢州市,#00E400,优,42,18,#00E400,88,2026-05-28 06:00:00
89,优,330681,47,29.7257,优,--,42,12,60,优,#00E400,#00E400,6,城新小学,#00E400,43,优,优,优,330600,#00E400,120.272,#00E400,30,优,0.7,优,#00E400,#00E400,330681505,优,#00E400,绍兴市,#00E400,优,41,27,#00E400,90,2026-05-28 06:00:00
90,优,330803,30,28.9844,优,--,33,12,23,优,#00E400,#00E400,6,衢州三中（市）,#00E400,43,优,优,优,330800,#00E400,118.9628,#00E400,30,优,0.7,优,#00E400,#00E400,330803704,优,#00E400,衢州市,#00E400,优,42,22,#00E400,90,2026-05-28 06:00:00
91,良,330225,93,29.4767,优,--,35,7,109,优,#00E400,#00E400,8,文峰小学,#FFFF00,43,优,优,优,330200,#00E400,121.8864,#00E400,30,优,0.8,优,#00E400,#00E400,330225001,优,#00E400,宁波市,#00E400,优,40,25,#00E400,90,2026-05-28 06:00:00
92,优,330424,60,30.5299,优,--,26,21,66,优,#00E400,#00E400,5,海盐商贸学校,#00E400,43,优,优,优,330400,#00E400,120.9293,#00E400,30,优,0.6,优,#00E400,#00E400,330424002,优,#00E400,嘉兴市,#00E400,优,36,21,#00E400,90,2026-05-28 06:00:00
93,优,330781,22,29.229931,优,--,19,19,30,优,#00E400,#00E400,7,兰溪八中,#00E400,43,优,优,优,330700,#00E400,119.475172,#00E400,30,优,0.7,优,#00E400,#00E400,330781002,优,#00E400,金华市,#00E400,优,34,18,#00E400,90,2026-05-28 06:00:00
94,优,330921,54,30.2517,优,--,40,12,74,优,#00E400,#00E400,8,岱山高亭,#00E400,43,优,优,优,330900,#00E400,122.1958,#00E400,29,优,0.6,优,#00E400,#00E400,330921002,优,#00E400,舟山市,#00E400,优,43,27,#00E400,90,2026-05-28 06:00:00
95,优,330683,57,29.5901,优,--,31,14,80,优,#00E400,#00E400,4,马寅初初中,#00E400,45,优,优,优,330600,#00E400,120.8249,#00E400,31,优,0.7,优,#00E400,#00E400,330683001,优,#00E400,绍兴市,#00E400,优,39,22,#00E400,96,2026-05-28 06:00:00
96,优,330424,61,30.5042,优,--,33,12,71,优,#00E400,#00E400,7,高级中学,#00E400,46,优,优,优,330400,#00E400,120.9413,#00E400,27,优,0.7,优,#00E400,#00E400,330424001,优,#00E400,嘉兴市,#00E400,优,46,20,#00E400,97,2026-05-28 06:00:00
97,优,331181,5,28.08007,优,--,33,7,7,优,#00E400,#00E400,7,龙泉环保大楼,#00E400,46,优,优,优,331100,#00E400,119.1328,#00E400,14,优,0.4,优,#00E400,#00E400,331181001,优,#00E400,丽水市,#00E400,优,46,13,#00E400,97,2026-05-28 06:00:00
98,优,330122,53,29.8058,优,--,33,14,56,优,#00E400,#00E400,4,桐庐江北,#00E400,47,优,优,优,330100,#00E400,119.669,#00E400,25,优,0.8,优,#00E400,#00E400,330122002,优,#00E400,杭州市,#00E400,优,47,16,#00E400,99,2026-05-28 06:00:00
99,优,330624,67,29.5036,优,--,35,11,68,优,#00E400,#00E400,4,钟楼站,#00E400,48,优,优,优,330600,#00E400,120.8938,#00E400,33,优,0.6,优,#00E400,#00E400,330624001,优,#00E400,绍兴市,#00E400,优,45,24,#00E400,100,2026-05-28 06:00:00
100,优,330782,44,29.335473,优,--,32,9,41,优,#00E400,#00E400,4,北苑,#00E400,48,优,优,优,330700,#00E400,120.078609,#00E400,33,优,0.8,优,#00E400,#00E400,330782001,优,#00E400,金华市,#00E400,优,46,19,#00E400,100,2026-05-28 06:00:00
101,优,330182,42,29.4769,优,--,28,11,36,优,#00E400,#00E400,6,建德监测大楼,#00E400,49,优,优,优,330100,#00E400,119.2711,#00E400,32,优,0.8,优,#00E400,#00E400,330182T_2,优,#00E400,杭州市,#00E400,优,49,15,#00E400,102,2026-05-28 06:00:00
102,优,330182,61,29.4638,优,--,27,10,56,优,#00E400,#00E400,3,第二中学,#00E400,50,优,优,优,330100,#00E400,119.2821,#00E400,35,优,0.8,优,#00E400,#00E400,330182002,优,#00E400,杭州市,#00E400,优,43,20,#00E400,103,2026-05-28 06:00:00
103,优,330213,44,29.693,优,--,33,22,72,优,#00E400,#00E400,4,溪口政府大楼,#00E400,50,优,优,优,330200,#00E400,121.2774,#00E400,35,优,0.5,优,#00E400,#00E400,330283T_1,优,#00E400,宁波市,#00E400,优,45,25,#00E400,103,2026-05-28 06:00:00
104,优,330213,63,29.6774,优,--,40,13,90,优,#00E400,#00E400,5,大桥市场,#00E400,50,优,优,优,330200,#00E400,121.4237,#00E400,35,优,0.8,优,#00E400,#00E400,330213001,优,#00E400,宁波市,#00E400,优,48,28,#00E400,103,2026-05-28 06:00:00
105,优,330624,68,29.4938,优,--,34,11,64,优,#00E400,#00E400,4,城东站,#00E400,50,优,优,优,330600,#00E400,120.9109,#00E400,35,优,0.7,优,#00E400,#00E400,330624002,优,#00E400,绍兴市,#00E400,优,42,25,#00E400,103,2026-05-28 06:00:00
106,优,330782,39,29.3686,优,PM₁₀,33,17,39,优,#FFFF00,#00E400,9,第五中学,#00E400,51,优,良,优,330700,#00E400,120.1345,#00E400,30,良,0.9,优,#00E400,#00E400,330782003,优,#FFFF00,金华市,#00E400,优,51,18,#00E400,107,2026-05-28 06:00:00
107,良,330225,107,29.2003,优,PM₂.₅,43,12,112,优,#00E400,#FFFF00,8,石浦新港小学,#FFFF00,52,优,良,优,330200,#00E400,121.934,#00E400,36,优,0.7,良,#00E400,#00E400,330225002,优,#FFFF00,宁波市,#00E400,优,50,31,#00E400,108,2026-05-28 06:00:00
108,优,330122,49,29.7955,优,PM₁₀,41,15,62,优,#FFFF00,#00E400,5,桐庐江南,#00E400,53,优,良,优,330100,#00E400,119.6874,#00E400,25,良,0.7,优,#00E400,#00E400,330122001,优,#FFFF00,杭州市,#00E400,优,54,19,#00E400,109,2026-05-28 06:00:00
109,良,330226,98,29.2878,优,PM₂.₅,40,11,117,优,#00E400,#FFFF00,6,宁海城南站,#FFFF00,56,优,良,优,330200,#00E400,121.4201,#00E400,38,优,0.5,良,#00E400,#00E400,330226002,优,#FFFF00,宁波市,#00E400,优,47,30,#00E400,110,2026-05-28 06:00:00
110,优,330212,66,29.7736,优,PM₂.₅,38,17,90,优,#00E400,#FFFF00,5,钱湖水厂,#00E400,56,优,良,优,330200,#00E400,121.6330,#00E400,38,优,0.8,良,#00E400,#00E400,2013302120001,优,#FFFF00,宁波市,#00E400,优,50,28,#00E400,110,2026-05-28 06:00:00
111,优,330825,17,29.0464,优,PM₁₀,35,17,24,优,#FFFF00,#00E400,5,龙游二高,#00E400,57,优,良,优,330800,#00E400,119.204,#00E400,33,良,0.6,优,#00E400,#00E400,330825002,优,#FFFF00,衢州市,#00E400,优,59,21,#00E400,112,2026-05-28 06:00:00
112,良,330226,97,29.3125,优,PM₂.₅,41,13,113,优,#FFFF00,#FFFF00,6,宁海水利局,#FFFF00,60,优,良,优,330200,#00E400,121.4306,#00E400,40,良,0.6,良,#00E400,#00E400,330226001,优,#FFFF00,宁波市,#00E400,优,57,29,#00E400,113,2026-05-28 06:00:00
113,优,331083,58,28.2221,优,PM₂.₅,48,13,78,优,#FFFF00,#FFFF00,6,楚门中心小学,#00E400,60,优,良,优,331000,#00E400,121.2846,#00E400,40,良,1.0,良,#00E400,#00E400,331021002,优,#FFFF00,台州市,#00E400,优,62,30,#00E400,113,2026-05-28 06:00:00
114,优,331022,95,29.11779,优,PM₂.₅,41,7,86,优,#FFFF00,#FFFF00,5,三门环监楼,#00E400,60,优,良,优,331000,#00E400,121.382189,#00E400,40,良,0.8,良,#00E400,#00E400,331022001,优,#FFFF00,台州市,#00E400,优,59,28,#00E400,113,2026-05-28 06:00:00
115,优,330782,36,29.2637,优,PM₁₀,32,17,35,优,#FFFF00,#00E400,6,儿童公园,#00E400,60,优,良,优,330700,#00E400,120.0321,#00E400,33,良,0.7,优,#00E400,#00E400,330782004,优,#FFFF00,金华市,#00E400,优,63,16,#00E400,113,2026-05-28 06:00:00
116,优,331022,109,29.1028,优,PM₂.₅,41,4,99,优,#FFFF00,#FFFF00,5,心湖站,#00E400,74,优,良,优,331000,#00E400,121.3918,#00E400,47,良,0.6,良,#00E400,#00E400,331022002,优,#FFFF00,台州市,#00E400,优,65,31,#00E400,117,2026-05-28 06:00:00
117,--,330822,--,28.901,--,--,--,--,--,--,--,--,--,常山环保大楼,--,--,--,--,--,330800,--,118.5196,--,--,--,--,--,--,--,330822001,--,--,衢州市,--,--,--,--,--,118,2026-05-28 06:00:00
