,O3H8_level,regioncode,O3,latitude,CO_level,SYWRW,PM10H24,NO2,O3H8,O3_level,PM10_color,PM25_color,SO2,sitename,O3H8_color,AQI,NO2_level,AQI_level,PM10H24_level,districtcode,SO2_color,longitude,NO2_color,PM25,PM10_level,CO,PM25_level,CO_color,PM25H24_color,sitecode,PM25H24_level,AQI_color,districtname,O3_color,SO2_level,PM10,PM25H24,PM10H24_color,sort,time
0,优,330328,63,27.804722,优,--,19,5,87,优,#00E400,#00E400,7,文成中学,#00E400,20,优,优,优,330300,#00E400,120.077222,#00E400,9,优,0.2,优,#00E400,#00E400,330328002,优,#00E400,温州市,#00E400,优,19,11,#00E400,1,2026-05-04 19:00:00
1,优,331126,66,27.629585,优,--,18,7,85,优,#00E400,#00E400,6,庆元监测楼,#00E400,21,优,优,优,331100,#00E400,119.054809,#00E400,5,优,0.5,优,#00E400,#00E400,331126001,优,#00E400,丽水市,#00E400,优,10,14,#00E400,2,2026-05-04 19:00:00
2,良,330727,70,29.039869,优,--,22,15,102,优,#00E400,#00E400,6,南园初中,#FFFF00,23,优,优,优,330700,#00E400,120.440622,#00E400,13,优,0.5,优,#00E400,#00E400,330727003,优,#00E400,金华市,#00E400,优,23,13,#00E400,3,2026-05-04 19:00:00
3,优,330305,75,27.8342,优,--,20,21,87,优,#00E400,#00E400,7,洞头气象局,#00E400,24,优,优,优,330300,#00E400,121.1502,#00E400,12,优,0.7,优,#00E400,#00E400,330305001,优,#00E400,温州市,#00E400,优,24,13,#00E400,4,2026-05-04 19:00:00
4,优,331127,77,28.002222,优,--,25,11,92,优,#00E400,#00E400,5,红星小学,#00E400,25,优,优,优,331100,#00E400,119.636389,#00E400,10,优,0.5,优,#00E400,#00E400,331127003,优,#00E400,丽水市,#00E400,优,16,14,#00E400,5,2026-05-04 19:00:00
5,良,330329,77,27.557,优,--,19,9,109,优,#00E400,#00E400,5,罗阳,#FFFF00,25,优,优,优,330300,#00E400,119.7084,#00E400,15,优,0.5,优,#00E400,#00E400,330329001,优,#00E400,温州市,#00E400,优,20,16,#00E400,5,2026-05-04 19:00:00
6,优,331083,74,28.2221,优,--,26,33,92,优,#00E400,#00E400,6,楚门中心小学,#00E400,25,优,优,优,331000,#00E400,121.2846,#00E400,16,优,0.6,优,#00E400,#00E400,331021002,优,#00E400,台州市,#00E400,优,25,18,#00E400,5,2026-05-04 19:00:00
7,优,331123,78,28.5991,优,--,24,16,97,优,#00E400,#00E400,4,遂昌民政局,#00E400,25,优,优,优,331100,#00E400,119.2622,#00E400,14,优,0.4,优,#00E400,#00E400,331123001,优,#00E400,丽水市,#00E400,优,21,16,#00E400,5,2026-05-04 19:00:00
8,优,331181,80,28.076,优,--,23,9,94,优,#00E400,#00E400,8,粮食大楼,#00E400,25,优,优,优,331100,#00E400,119.1217,#00E400,12,优,0.4,优,#00E400,#00E400,331181002,优,#00E400,丽水市,#00E400,优,19,17,#00E400,5,2026-05-04 19:00:00
9,优,330326,44,27.6593,优,--,30,18,84,优,#00E400,#00E400,9,平阳监测站,#00E400,26,优,优,优,330300,#00E400,120.5705,#00E400,15,优,0.7,优,#00E400,#00E400,330326001,优,#00E400,温州市,#00E400,优,26,18,#00E400,10,2026-05-04 19:00:00
10,良,330329,83,27.5438,优,--,16,6,104,优,#00E400,#00E400,6,泰顺实验中学,#FFFF00,26,优,优,优,330300,#00E400,119.716111,#00E400,7,优,0.3,优,#00E400,#00E400,330329002,优,#00E400,温州市,#00E400,优,13,11,#00E400,10,2026-05-04 19:00:00
11,优,330624,82,29.4938,优,--,23,15,96,优,#00E400,#00E400,4,城东站,#00E400,26,优,优,优,330600,#00E400,120.9109,#00E400,16,优,0.5,优,#00E400,#00E400,330624002,优,#00E400,绍兴市,#00E400,优,26,15,#00E400,10,2026-05-04 19:00:00
12,良,330727,82,29.051486,优,--,15,12,105,优,#00E400,#00E400,8,国税大楼,#FFFF00,26,优,优,优,330700,#00E400,120.438346,#00E400,3,优,0.5,优,#00E400,#00E400,330727002,优,#00E400,金华市,#00E400,优,9,8,#00E400,10,2026-05-04 19:00:00
13,优,331024,83,28.7403,优,--,23,17,96,优,#00E400,#00E400,6,新生中学,#00E400,26,优,优,优,331000,#00E400,120.4728,#00E400,8,优,0.4,优,#00E400,#00E400,331024002,优,#00E400,台州市,#00E400,优,23,14,#00E400,10,2026-05-04 19:00:00
14,优,331126,82,27.6211,优,--,22,4,91,优,#00E400,#00E400,4,庆元气象局,#00E400,26,优,优,优,331100,#00E400,119.0788,#00E400,8,优,0.5,优,#00E400,#00E400,331126002,优,#00E400,丽水市,#00E400,优,11,17,#00E400,10,2026-05-04 19:00:00
15,优,330683,86,29.5663,优,--,24,28,100,优,#00E400,#00E400,4,丽湖小区,#00E400,27,优,优,优,330600,#00E400,120.8173,#00E400,18,优,0.4,优,#00E400,#00E400,330683002,优,#00E400,绍兴市,#00E400,优,24,12,#00E400,16,2026-05-04 19:00:00
16,优,331125,86,28.1173,优,--,19,12,98,优,#00E400,#00E400,7,云和监测楼,#00E400,27,优,优,优,331100,#00E400,119.5626,#00E400,12,优,0.4,优,#00E400,#00E400,331125001,优,#00E400,丽水市,#00E400,优,14,13,#00E400,16,2026-05-04 19:00:00
17,优,330784,78,28.90016,优,--,43,17,81,优,#00E400,#00E400,6,西城供电所,#00E400,28,优,优,优,330700,#00E400,120.01452,#00E400,18,优,0.3,优,#00E400,#00E400,330784002,优,#00E400,金华市,#00E400,优,28,25,#00E400,18,2026-05-04 19:00:00
18,优,331181,89,28.08007,优,--,29,7,94,优,#00E400,#00E400,7,龙泉环保大楼,#00E400,28,优,优,优,331100,#00E400,119.1328,#00E400,10,优,0.4,优,#00E400,#00E400,331181001,优,#00E400,丽水市,#00E400,优,20,16,#00E400,18,2026-05-04 19:00:00
19,良,330327,90,27.503889,优,--,28,7,104,优,#00E400,#00E400,9,灵溪,#FFFF00,29,优,优,优,330300,#00E400,120.395278,#00E400,16,优,0.5,优,#00E400,#00E400,330327001,优,#00E400,温州市,#00E400,优,27,18,#00E400,20,2026-05-04 19:00:00
20,良,330824,91,29.1343,优,--,24,7,101,优,#00E400,#00E400,5,开化气象局,#FFFF00,29,优,优,优,330800,#00E400,118.402,#00E400,12,优,0.3,优,#00E400,#00E400,330824001,优,#00E400,衢州市,#00E400,优,27,11,#00E400,20,2026-05-04 19:00:00
21,优,331081,79,28.37558,优,--,28,25,86,优,#00E400,#00E400,7,温岭环监站,#00E400,29,优,优,优,331000,#00E400,121.36579,#00E400,13,优,0.4,优,#00E400,#00E400,331081001,优,#00E400,台州市,#00E400,优,29,16,#00E400,20,2026-05-04 19:00:00
22,优,331081,91,28.39136,优,--,26,16,99,优,#00E400,#00E400,5,之江高级中学,#00E400,29,优,优,优,331000,#00E400,121.37696,#00E400,12,优,0.5,优,#00E400,#00E400,331081002,优,#00E400,台州市,#00E400,优,9,18,#00E400,20,2026-05-04 19:00:00
23,良,331125,92,28.1062,优,--,26,11,103,优,#00E400,#00E400,6,云和三中,#FFFF00,29,优,优,优,331100,#00E400,119.5728,#00E400,9,优,0.3,优,#00E400,#00E400,331125002,优,#00E400,丽水市,#00E400,优,20,13,#00E400,20,2026-05-04 19:00:00
24,优,330328,45,27.7838,优,--,24,18,84,优,#00E400,#00E400,5,大峃,#00E400,30,优,优,优,330300,#00E400,120.085,#00E400,16,优,0.4,优,#00E400,#00E400,330328001,优,#00E400,温州市,#00E400,优,30,13,#00E400,25,2026-05-04 19:00:00
25,优,330326,66,27.6653,优,--,28,20,91,优,#00E400,#00E400,7,平阳县政府,#00E400,30,优,优,优,330300,#00E400,120.5611,#00E400,14,优,0.6,优,#00E400,#00E400,330326002,优,#00E400,温州市,#00E400,优,30,17,#00E400,25,2026-05-04 19:00:00
26,良,330782,87,29.305096,优,--,24,32,112,优,#00E400,#00E400,6,江东,#FFFF00,30,优,优,优,330700,#00E400,120.090442,#00E400,20,优,0.5,优,#00E400,#00E400,330782002,优,#00E400,金华市,#00E400,优,30,15,#00E400,25,2026-05-04 19:00:00
27,良,330824,95,29.1478,优,--,19,6,103,优,#00E400,#00E400,7,开化监测大楼,#FFFF00,30,优,优,优,330800,#00E400,118.4108,#00E400,10,优,0.3,优,#00E400,#00E400,330824002,优,#00E400,衢州市,#00E400,优,17,11,#00E400,25,2026-05-04 19:00:00
28,优,331083,95,28.12715,优,--,22,16,98,优,#00E400,#00E400,9,玉环环监站,#00E400,30,优,优,优,331000,#00E400,121.2339,#00E400,20,优,0.6,优,#00E400,#00E400,331021001,优,#00E400,台州市,#00E400,优,13,19,#00E400,25,2026-05-04 19:00:00
29,良,331123,95,28.5839,优,--,25,8,108,优,#00E400,#00E400,7,遂昌中学,#FFFF00,30,优,优,优,331100,#00E400,119.2656,#00E400,12,优,0.4,优,#00E400,#00E400,331123002,优,#00E400,丽水市,#00E400,优,21,16,#00E400,25,2026-05-04 19:00:00
30,良,331124,93,28.4505,优,--,27,12,102,优,#00E400,#00E400,4,松阳监测楼,#FFFF00,30,优,优,优,331100,#00E400,119.4799,#00E400,13,优,0.4,优,#00E400,#00E400,331124001,优,#00E400,丽水市,#00E400,优,22,19,#00E400,25,2026-05-04 19:00:00
31,良,330523,98,30.5974,优,--,11,5,115,优,#00E400,#00E400,5,安吉城东,#FFFF00,31,优,优,优,330500,#00E400,119.6953,#00E400,11,优,0.3,优,#00E400,#00E400,330523002,优,#00E400,湖州市,#00E400,优,15,8,#00E400,32,2026-05-04 19:00:00
32,良,330683,97,29.5901,优,--,23,18,104,优,#00E400,#00E400,5,马寅初初中,#FFFF00,31,优,优,优,330600,#00E400,120.8249,#00E400,14,优,0.4,优,#00E400,#00E400,330683001,优,#00E400,绍兴市,#00E400,优,25,12,#00E400,32,2026-05-04 19:00:00
33,良,330624,80,29.5036,优,--,24,19,102,优,#00E400,#00E400,4,钟楼站,#FFFF00,31,优,优,优,330600,#00E400,120.8938,#00E400,16,优,0.5,优,#00E400,#00E400,330624001,优,#00E400,绍兴市,#00E400,优,31,12,#00E400,32,2026-05-04 19:00:00
34,良,330723,99,28.896108,优,--,37,16,122,优,#00E400,#00E400,9,武义县政府,#FFFF00,31,优,优,优,330700,#00E400,119.811352,#00E400,14,优,0.5,优,#00E400,#00E400,330723001,优,#00E400,金华市,#00E400,优,27,21,#00E400,32,2026-05-04 19:00:00
35,良,330822,99,28.9012,优,--,26,14,107,优,#00E400,#00E400,5,图书馆大楼,#FFFF00,31,优,优,优,330800,#00E400,118.5062,#00E400,10,优,0.4,优,#00E400,#00E400,330822002,优,#00E400,衢州市,#00E400,优,27,11,#00E400,32,2026-05-04 19:00:00
36,优,331023,97,29.1504,优,--,20,16,99,优,#00E400,#00E400,4,育青中学,#00E400,31,优,优,优,331000,#00E400,121.0091,#00E400,14,优,0.3,优,#00E400,#00E400,331023001,优,#00E400,台州市,#00E400,优,20,16,#00E400,32,2026-05-04 19:00:00
37,优,331023,99,29.1342,优,--,23,15,99,优,#00E400,#00E400,7,天台实验中学,#00E400,31,优,优,优,331000,#00E400,121.0349,#00E400,21,优,0.5,优,#00E400,#00E400,331023002,优,#00E400,台州市,#00E400,优,27,16,#00E400,32,2026-05-04 19:00:00
38,良,330182,100,29.4769,优,--,21,10,111,优,#00E400,#00E400,8,建德监测大楼,#FFFF00,32,优,优,优,330100,#00E400,119.2711,#00E400,14,优,0.5,优,#00E400,#00E400,330182T_2,优,#00E400,杭州市,#00E400,优,24,12,#00E400,39,2026-05-04 19:00:00
39,良,330182,91,29.4638,优,--,22,29,115,优,#00E400,#00E400,5,第二中学,#FFFF00,32,优,优,优,330100,#00E400,119.2821,#00E400,18,优,0.6,优,#00E400,#00E400,330182002,优,#00E400,杭州市,#00E400,优,32,14,#00E400,39,2026-05-04 19:00:00
40,良,330681,100,29.6818,优,--,23,14,120,优,#00E400,#00E400,5,杨树畈,#FFFF00,32,优,优,优,330600,#00E400,120.2359,#00E400,8,优,0.5,优,#00E400,#00E400,330681001,优,#00E400,绍兴市,#00E400,优,27,13,#00E400,39,2026-05-04 19:00:00
41,良,330726,101,29.465746,优,--,16,28,117,优,#00E400,#00E400,6,浦江实验中学,#FFFF00,32,优,优,优,330700,#00E400,119.875227,#00E400,10,优,0.5,优,#00E400,#00E400,330726001,优,#00E400,金华市,#00E400,优,24,9,#00E400,39,2026-05-04 19:00:00
42,良,330784,102,28.8854,优,--,34,10,101,优,#00E400,#00E400,7,永康一中,#FFFF00,32,优,优,优,330700,#00E400,120.0439,#00E400,14,优,0.4,优,#00E400,#00E400,330784001,优,#00E400,金华市,#00E400,优,24,20,#00E400,39,2026-05-04 19:00:00
43,良,330822,99,28.901,优,--,26,21,109,优,#00E400,#00E400,7,常山环保大楼,#FFFF00,32,优,优,优,330800,#00E400,118.5196,#00E400,14,优,0.6,优,#00E400,#00E400,330822001,优,#00E400,衢州市,#00E400,优,32,11,#00E400,39,2026-05-04 19:00:00
44,良,331124,101,28.4516,优,--,30,9,107,优,#00E400,#00E400,6,和平水厂,#FFFF00,32,优,优,优,331100,#00E400,119.4699,#00E400,8,优,0.4,优,#00E400,#00E400,331124002,优,#00E400,丽水市,#00E400,优,13,18,#00E400,39,2026-05-04 19:00:00
45,良,330212,101,29.7736,优,--,28,10,117,优,#00E400,#00E400,4,钱湖水厂,#FFFF00,32,优,优,优,330200,#00E400,121.6330,#00E400,11,优,0.4,优,#00E400,#00E400,2013302120001,优,#00E400,宁波市,#00E400,优,21,17,#00E400,39,2026-05-04 19:00:00
46,良,330122,105,29.7955,优,--,24,19,114,优,#00E400,#00E400,6,桐庐江南,#FFFF00,33,优,优,优,330100,#00E400,119.6874,#00E400,18,优,0.4,优,#00E400,#00E400,330122001,优,#00E400,杭州市,#00E400,优,29,16,#00E400,47,2026-05-04 19:00:00
47,良,330213,105,29.6774,优,--,24,22,115,优,#00E400,#00E400,6,大桥市场,#FFFF00,33,优,优,优,330200,#00E400,121.4237,#00E400,14,优,0.4,优,#00E400,#00E400,330213001,优,#00E400,宁波市,#00E400,优,31,15,#00E400,47,2026-05-04 19:00:00
48,良,330327,100,27.522222,优,--,31,21,112,优,#00E400,#00E400,9,苍南中学,#FFFF00,33,优,优,优,330300,#00E400,120.416111,#00E400,21,优,0.6,优,#00E400,#00E400,330327004,优,#00E400,温州市,#00E400,优,33,22,#00E400,47,2026-05-04 19:00:00
49,良,330783,104,29.27739,优,--,22,16,111,优,#00E400,#00E400,8,东阳环保大楼,#FFFF00,33,优,优,优,330700,#00E400,120.23692,#00E400,10,优,0.7,优,#00E400,#00E400,330783002,优,#00E400,金华市,#00E400,优,17,14,#00E400,47,2026-05-04 19:00:00
50,良,331022,105,29.1028,优,--,29,14,104,优,#00E400,#00E400,6,心湖站,#FFFF00,33,优,优,优,331000,#00E400,121.3918,#00E400,17,优,0.4,优,#00E400,#00E400,331022002,优,#00E400,台州市,#00E400,优,30,18,#00E400,47,2026-05-04 19:00:00
51,良,331022,105,29.11779,优,--,27,12,103,优,#00E400,#00E400,6,三门环监楼,#FFFF00,33,优,优,优,331000,#00E400,121.382189,#00E400,17,优,0.5,优,#00E400,#00E400,331022001,优,#00E400,台州市,#00E400,优,30,18,#00E400,47,2026-05-04 19:00:00
52,优,331122,105,28.6628,优,--,32,17,97,优,#00E400,#00E400,7,信访大楼,#00E400,33,优,优,优,331100,#00E400,120.0856,#00E400,18,优,0.5,优,#00E400,#00E400,331122002,优,#00E400,丽水市,#00E400,优,18,16,#00E400,47,2026-05-04 19:00:00
53,良,330213,94,29.693,优,--,22,13,110,优,#00E400,#00E400,5,溪口政府大楼,#FFFF00,34,优,优,优,330200,#00E400,121.2774,#00E400,17,优,0.4,优,#00E400,#00E400,330283T_1,优,#00E400,宁波市,#00E400,优,34,13,#00E400,54,2026-05-04 19:00:00
54,优,330382,92,28.1209,优,--,26,29,94,优,#00E400,#00E400,6,乐成,#00E400,34,优,优,优,330300,#00E400,120.9659,#00E400,21,优,0.6,优,#00E400,#00E400,330382001,优,#00E400,温州市,#00E400,优,34,17,#00E400,54,2026-05-04 19:00:00
55,良,330481,108,30.5137,优,--,25,16,118,优,#00E400,#00E400,9,硖石街道,#FFFF00,34,优,优,优,330400,#00E400,120.7082,#00E400,12,优,0.2,优,#00E400,#00E400,330481002,优,#00E400,嘉兴市,#00E400,优,27,13,#00E400,54,2026-05-04 19:00:00
56,优,331127,79,27.9772,优,--,26,13,96,优,#00E400,#00E400,4,景宁县政府,#00E400,34,优,优,优,331100,#00E400,119.6311,#00E400,13,优,0.5,优,#00E400,#00E400,331127002,优,#00E400,丽水市,#00E400,优,34,13,#00E400,54,2026-05-04 19:00:00
57,良,330122,111,29.8058,优,--,28,14,116,优,#00E400,#00E400,5,桐庐江北,#FFFF00,35,优,优,优,330100,#00E400,119.669,#00E400,19,优,0.4,优,#00E400,#00E400,330122002,优,#00E400,杭州市,#00E400,优,30,15,#00E400,58,2026-05-04 19:00:00
58,良,330522,110,31.0143,优,--,21,31,126,优,#00E400,#00E400,6,职教中心,#FFFF00,35,优,优,优,330500,#00E400,119.8935,#00E400,7,优,0.3,优,#00E400,#00E400,330522001,优,#00E400,湖州市,#00E400,优,28,7,#00E400,58,2026-05-04 19:00:00
59,良,330921,110,30.2669,优,--,24,45,124,优,#00E400,#00E400,7,岱山环保大楼,#FFFF00,35,优,优,优,330900,#00E400,122.2199,#00E400,16,优,0.5,优,#00E400,#00E400,330921001,优,#00E400,舟山市,#00E400,优,31,14,#00E400,58,2026-05-04 19:00:00
60,良,331121,110,28.1094,优,--,39,9,102,优,#00E400,#00E400,4,青田中学,#FFFF00,35,优,优,优,331100,#00E400,120.3161,#00E400,17,优,0.4,优,#00E400,#00E400,331121002,优,#00E400,丽水市,#00E400,优,28,20,#00E400,58,2026-05-04 19:00:00
61,良,330110,111,30.2635,优,--,22,20,125,优,#00E400,#00E400,7,海辰小学,#FFFF00,35,优,优,优,330100,#00E400,119.9842,#00E400,13,优,0.6,优,#00E400,#00E400,2013301100001,优,#00E400,杭州市,#00E400,优,31,11,#00E400,58,2026-05-04 19:00:00
62,良,330383,100,27.5617,优,--,27,28,119,优,#00E400,#00E400,9,龙港实验中学,#FFFF00,35,优,优,优,330300,#00E400,120.5355,#00E400,20,优,0.5,优,#00E400,#00E400,330303101,优,#00E400,温州市,#00E400,优,35,19,#00E400,58,2026-05-04 19:00:00
63,良,330521,109,30.548493,优,--,18,15,124,优,#00E400,#00E400,6,春晖小学,#FFFF00,35,优,优,优,330500,#00E400,119.9505,#00E400,17,优,0.4,优,#00E400,#00E400,330521003,优,#00E400,湖州市,#00E400,优,35,9,#00E400,58,2026-05-04 19:00:00
64,良,330382,113,28.0297,优,--,37,18,114,优,#00E400,#00E400,5,柳市,#FFFF00,36,优,优,优,330300,#00E400,120.891,#00E400,13,优,0.3,优,#00E400,#00E400,330382002,优,#00E400,温州市,#00E400,优,29,23,#00E400,65,2026-05-04 19:00:00
65,良,330482,115,30.7292,优,--,37,21,121,优,#00E400,#00E400,9,陆家桥村,#FFFF00,36,优,优,优,330400,#00E400,120.9953,#00E400,14,优,0.4,优,#00E400,#00E400,330482002,优,#00E400,嘉兴市,#00E400,优,33,18,#00E400,65,2026-05-04 19:00:00
66,良,330483,102,30.625,优,--,27,36,120,优,#00E400,#00E400,5,振东新六中站,#FFFF00,36,优,优,优,330400,#00E400,120.5613,#00E400,18,优,0.4,优,#00E400,#00E400,330483002,优,#00E400,嘉兴市,#00E400,优,36,16,#00E400,65,2026-05-04 19:00:00
67,良,330726,103,29.439787,优,--,24,20,109,优,#00E400,#00E400,4,浦江中学,#FFFF00,36,优,优,优,330700,#00E400,119.924638,#00E400,13,优,0.5,优,#00E400,#00E400,330726002,优,#00E400,金华市,#00E400,优,36,10,#00E400,65,2026-05-04 19:00:00
68,良,330783,92,29.30093,优,--,27,27,110,优,#00E400,#00E400,6,广厦学院,#FFFF00,36,优,优,优,330700,#00E400,120.24157,#00E400,14,优,0.6,优,#00E400,#00E400,330783001,优,#00E400,金华市,#00E400,优,36,14,#00E400,65,2026-05-04 19:00:00
69,优,331024,91,28.8589,优,--,29,13,97,优,#00E400,#00E400,9,仙居环监站,#00E400,36,优,优,优,331000,#00E400,120.7248,#00E400,17,优,0.4,优,#00E400,#00E400,331024001,优,#00E400,台州市,#00E400,优,36,15,#00E400,65,2026-05-04 19:00:00
70,良,331082,103,28.873,优,--,30,24,106,优,#00E400,#00E400,8,临海环保大楼,#FFFF00,36,优,优,优,331000,#00E400,121.1769,#00E400,18,优,0.4,优,#00E400,#00E400,331082001,优,#00E400,台州市,#00E400,优,36,15,#00E400,65,2026-05-04 19:00:00
71,良,330483,115,30.6355,优,--,26,16,121,优,#00E400,#00E400,11,文化中心,#FFFF00,36,优,优,优,330400,#00E400,120.5795,#00E400,15,优,0.4,优,#00E400,#00E400,330483003,优,#00E400,嘉兴市,#00E400,优,30,14,#00E400,65,2026-05-04 19:00:00
72,良,330281,117,30.0358,优,--,22,22,116,优,#00E400,#00E400,8,姚江小学,#FFFF00,37,优,优,优,330200,#00E400,121.1221,#00E400,19,优,0.5,优,#00E400,#00E400,330281002,优,#00E400,宁波市,#00E400,优,32,12,#00E400,73,2026-05-04 19:00:00
73,良,331122,116,28.6574,优,--,29,14,104,优,#00E400,#00E400,8,缙云中学,#FFFF00,37,优,优,优,331100,#00E400,120.0696,#00E400,13,优,0.5,优,#00E400,#00E400,331122001,优,#00E400,丽水市,#00E400,优,23,18,#00E400,73,2026-05-04 19:00:00
74,良,330127,121,29.605,优,--,21,7,121,优,#00E400,#00E400,14,老年活动中心,#FFFF00,38,优,优,优,330100,#00E400,119.0372,#00E400,16,优,0.6,优,#00E400,#00E400,330127T_4,优,#00E400,杭州市,#00E400,优,26,13,#00E400,75,2026-05-04 19:00:00
75,良,330481,119,30.5261,优,--,26,14,120,优,#00E400,#00E400,7,海宁监测大楼,#FFFF00,38,优,优,优,330400,#00E400,120.6739,#00E400,14,优,0.2,优,#00E400,#00E400,330481001,优,#00E400,嘉兴市,#00E400,优,28,16,#00E400,75,2026-05-04 19:00:00
76,良,330483,117,30.6488,优,--,30,18,119,优,#00E400,#00E400,6,茅盾小学,#FFFF00,38,优,优,优,330400,#00E400,120.5498,#00E400,18,优,0.4,优,#00E400,#00E400,330483001,优,#00E400,嘉兴市,#00E400,优,38,15,#00E400,75,2026-05-04 19:00:00
77,良,330424,120,30.5299,优,--,29,11,124,优,#00E400,#00E400,5,海盐商贸学校,#FFFF00,38,优,优,优,330400,#00E400,120.9293,#00E400,12,优,0.3,优,#00E400,#00E400,330424002,优,#00E400,嘉兴市,#00E400,优,25,16,#00E400,75,2026-05-04 19:00:00
78,良,330782,120,29.335473,优,--,26,18,121,优,#00E400,#00E400,5,北苑,#FFFF00,38,优,优,优,330700,#00E400,120.078609,#00E400,8,优,0.4,优,#00E400,#00E400,330782001,优,#00E400,金华市,#00E400,优,24,14,#00E400,75,2026-05-04 19:00:00
79,良,330881,120,28.7282,优,--,36,14,120,优,#00E400,#00E400,8,人民医院,#FFFF00,38,优,优,优,330800,#00E400,118.6227,#00E400,17,优,0.5,优,#00E400,#00E400,330881002,优,#00E400,衢州市,#00E400,优,31,23,#00E400,75,2026-05-04 19:00:00
80,良,330825,121,29.0464,优,--,28,20,129,优,#00E400,#00E400,5,龙游二高,#FFFF00,38,优,优,优,330800,#00E400,119.204,#00E400,11,优,0.3,优,#00E400,#00E400,330825002,优,#00E400,衢州市,#00E400,优,23,17,#00E400,75,2026-05-04 19:00:00
81,良,330922,120,30.7269,优,--,22,28,130,优,#00E400,#00E400,9,嵊泗菜园,#FFFF00,38,优,优,优,330900,#00E400,122.4464,#00E400,19,优,0.6,优,#00E400,#00E400,330922001,优,#00E400,舟山市,#00E400,优,32,13,#00E400,75,2026-05-04 19:00:00
82,良,330225,123,29.2003,优,--,36,16,123,优,#00E400,#00E400,6,石浦新港小学,#FFFF00,39,优,优,优,330200,#00E400,121.934,#00E400,19,优,0.5,优,#00E400,#00E400,330225002,优,#00E400,宁波市,#00E400,优,31,21,#00E400,83,2026-05-04 19:00:00
83,优,330381,24,27.791645,优,--,31,67,94,优,#00E400,#00E400,7,花园桥,#00E400,39,优,优,优,330300,#00E400,120.62372,#00E400,21,优,0.5,优,#00E400,#00E400,330381001,优,#00E400,温州市,#00E400,优,39,20,#00E400,83,2026-05-04 19:00:00
84,良,330324,96,28.044335,优,--,39,30,101,优,#00E400,#00E400,7,瓯北,#FFFF00,39,优,优,优,330300,#00E400,120.654963,#00E400,21,优,0.6,优,#00E400,#00E400,330324002,优,#00E400,温州市,#00E400,优,39,22,#00E400,83,2026-05-04 19:00:00
85,良,330383,82,27.5812,优,--,30,38,102,优,#00E400,#00E400,9,龙港,#FFFF00,39,优,优,优,330300,#00E400,120.5489,#00E400,27,优,0.5,优,#00E400,#00E400,330327002,优,#00E400,温州市,#00E400,优,33,21,#00E400,83,2026-05-04 19:00:00
86,良,330482,123,30.6937,优,--,29,19,128,优,#00E400,#00E400,9,平湖幼儿园,#FFFF00,39,优,优,优,330400,#00E400,121.0259,#00E400,12,优,0.3,优,#00E400,#00E400,330482001,优,#00E400,嘉兴市,#00E400,优,25,17,#00E400,83,2026-05-04 19:00:00
87,良,330424,123,30.5042,优,--,29,15,123,优,#00E400,#00E400,7,高级中学,#FFFF00,39,优,优,优,330400,#00E400,120.9413,#00E400,9,优,0.3,优,#00E400,#00E400,330424001,优,#00E400,嘉兴市,#00E400,优,21,15,#00E400,83,2026-05-04 19:00:00
88,良,330522,123,31.0263,优,--,15,19,126,优,#00E400,#00E400,5,龙山新区,#FFFF00,39,优,优,优,330500,#00E400,119.9046,#00E400,6,优,0.3,优,#00E400,#00E400,330522002,优,#00E400,湖州市,#00E400,优,19,7,#00E400,83,2026-05-04 19:00:00
89,良,330781,118,29.216166,优,--,21,18,112,优,#00E400,#00E400,7,兰溪监测站,#FFFF00,39,优,优,优,330700,#00E400,119.459992,#00E400,27,优,0.5,优,#00E400,#00E400,330781001,优,#00E400,金华市,#00E400,优,34,16,#00E400,83,2026-05-04 19:00:00
90,良,331082,107,28.84326,优,--,29,18,106,优,#00E400,#00E400,5,巾山实验小学,#FFFF00,39,优,优,优,331000,#00E400,121.136,#00E400,19,优,0.4,优,#00E400,#00E400,331082002,优,#00E400,台州市,#00E400,优,39,16,#00E400,83,2026-05-04 19:00:00
91,良,330481,123,30.5524,优,--,26,10,129,优,#00E400,#00E400,8,胜利社区,#FFFF00,39,优,优,优,330400,#00E400,120.6713,#00E400,14,优,0.4,优,#00E400,#00E400,330481003,优,#00E400,嘉兴市,#00E400,优,32,15,#00E400,83,2026-05-04 19:00:00
92,良,330281,120,30.0497,优,--,22,17,114,优,#00E400,#00E400,6,龙山公园,#FFFF00,40,优,优,优,330200,#00E400,121.1475,#00E400,23,优,0.4,优,#00E400,#00E400,330281001,优,#00E400,宁波市,#00E400,优,40,14,#00E400,93,2026-05-04 19:00:00
93,良,330421,127,30.836,优,--,28,17,124,优,#00E400,#00E400,6,嘉善监测大楼,#FFFF00,40,优,优,优,330400,#00E400,120.9226,#00E400,15,优,0.4,优,#00E400,#00E400,330421001,优,#00E400,嘉兴市,#00E400,优,33,16,#00E400,93,2026-05-04 19:00:00
94,良,330421,126,30.8307,优,--,28,25,134,优,#00E400,#00E400,8,气象观测台,#FFFF00,40,优,优,优,330400,#00E400,120.9356,#00E400,17,优,0.4,优,#00E400,#00E400,330421002,优,#00E400,嘉兴市,#00E400,优,31,16,#00E400,93,2026-05-04 19:00:00
95,良,330781,99,29.229931,优,--,25,20,104,优,#00E400,#00E400,8,兰溪八中,#FFFF00,40,优,优,优,330700,#00E400,119.475172,#00E400,5,优,0.4,优,#00E400,#00E400,330781002,优,#00E400,金华市,#00E400,优,40,15,#00E400,93,2026-05-04 19:00:00
96,良,330881,126,28.7465,优,--,36,13,122,优,#00E400,#00E400,8,江山环保大楼,#FFFF00,40,优,优,优,330800,#00E400,118.6301,#00E400,19,优,0.6,优,#00E400,#00E400,330881001,优,#00E400,衢州市,#00E400,优,33,23,#00E400,93,2026-05-04 19:00:00
97,良,330921,102,30.2517,优,--,24,27,116,优,#00E400,#00E400,9,岱山高亭,#FFFF00,40,优,优,优,330900,#00E400,122.1958,#00E400,23,优,0.3,优,#00E400,#00E400,330921002,优,#00E400,舟山市,#00E400,优,40,14,#00E400,93,2026-05-04 19:00:00
98,--,330782,104,29.2637,优,--,--,19,--,优,#00E400,#00E400,6,儿童公园,--,40,优,优,--,330700,#00E400,120.0321,#00E400,17,优,0.9,优,#00E400,--,330782004,--,#00E400,金华市,#00E400,优,40,--,--,93,2026-05-04 19:00:00
99,良,330483,127,30.7369,优,--,27,16,135,优,#00E400,#00E400,10,植材小学,#FFFF00,40,优,优,优,330400,#00E400,120.4902,#00E400,9,优,0.5,优,#00E400,#00E400,330483509,优,#00E400,嘉兴市,#00E400,优,25,11,#00E400,93,2026-05-04 19:00:00
100,良,330681,131,29.7257,优,--,27,14,137,优,#00E400,#00E400,7,城新小学,#FFFF00,41,优,优,优,330600,#00E400,120.272,#00E400,18,优,0.5,优,#00E400,#00E400,330681505,优,#00E400,绍兴市,#00E400,优,35,16,#00E400,101,2026-05-04 19:00:00
101,良,330803,129,28.9844,优,--,27,13,133,优,#00E400,#00E400,8,衢州三中（市）,#FFFF00,41,优,优,优,330800,#00E400,118.9628,#00E400,14,优,0.4,优,#00E400,#00E400,330803704,优,#00E400,衢州市,#00E400,优,25,16,#00E400,101,2026-05-04 19:00:00
102,良,330282,126,30.1636,优,--,31,21,124,优,#00E400,#00E400,6,慈溪环保大楼,#FFFF00,41,优,优,优,330200,#00E400,121.2677,#00E400,23,优,0.5,优,#00E400,#00E400,330282001,优,#00E400,宁波市,#00E400,优,41,19,#00E400,101,2026-05-04 19:00:00
103,良,330282,128,30.1786,优,--,31,19,124,优,#00E400,#00E400,6,慈溪实验小学,#FFFF00,41,优,优,优,330200,#00E400,121.2525,#00E400,19,优,0.5,优,#00E400,#00E400,330282002,优,#00E400,宁波市,#00E400,优,41,20,#00E400,101,2026-05-04 19:00:00
104,良,330825,129,29.0392,优,--,31,17,134,优,#00E400,#00E400,6,建设大楼,#FFFF00,41,优,优,优,330800,#00E400,119.1675,#00E400,9,优,0.4,优,#00E400,#00E400,330825001,优,#00E400,衢州市,#00E400,优,25,16,#00E400,101,2026-05-04 19:00:00
105,良,330521,116,30.5231,优,--,14,11,120,优,#00E400,#00E400,7,地信科创园,#FFFF00,42,优,优,优,330500,#00E400,119.9781,#00E400,10,优,0.3,优,#00E400,#00E400,330521001,优,#00E400,湖州市,#00E400,优,42,9,#00E400,106,2026-05-04 19:00:00
106,良,330782,88,29.3686,优,--,30,39,122,优,#00E400,#00E400,7,第五中学,#FFFF00,45,优,优,优,330700,#00E400,120.1345,#00E400,22,优,0.5,优,#00E400,#00E400,330782003,优,#00E400,金华市,#00E400,优,45,14,#00E400,107,2026-05-04 19:00:00
107,良,330226,134,29.2878,优,--,25,14,114,优,#00E400,#00E400,7,宁海城南站,#FFFF00,46,优,优,优,330200,#00E400,121.4201,#00E400,26,优,0.4,优,#00E400,#00E400,330226002,优,#00E400,宁波市,#00E400,优,46,16,#00E400,108,2026-05-04 19:00:00
108,良,330324,98,28.158269,优,--,36,27,102,优,#00E400,#00E400,6,上塘,#FFFF00,47,优,优,优,330300,#00E400,120.694244,#00E400,25,优,0.6,优,#00E400,#00E400,330324001,优,#00E400,温州市,#00E400,优,47,20,#00E400,109,2026-05-04 19:00:00
109,良,330681,119,29.726389,优,--,23,24,135,优,#00E400,#00E400,7,青少年宫,#FFFF00,48,优,优,优,330600,#00E400,120.199722,#00E400,28,优,0.4,优,#00E400,#00E400,330681002,优,#00E400,绍兴市,#00E400,优,48,14,#00E400,110,2026-05-04 19:00:00
110,良,330213,108,29.6506,优,--,26,18,114,优,#00E400,#00E400,8,奉化教育局,#FFFF00,49,优,优,优,330200,#00E400,121.4042,#00E400,29,优,0.4,优,#00E400,#00E400,330283005,优,#00E400,宁波市,#00E400,优,49,17,#00E400,111,2026-05-04 19:00:00
111,良,330381,67,27.782284,优,--,33,41,101,优,#00E400,#00E400,11,安阳新区,#FFFF00,49,优,优,优,330300,#00E400,120.650915,#00E400,29,优,0.5,优,#00E400,#00E400,330381002,优,#00E400,温州市,#00E400,优,49,21,#00E400,111,2026-05-04 19:00:00
112,良,330226,137,29.3125,优,--,28,16,115,优,#00E400,#00E400,7,宁海水利局,#FFFF00,50,优,优,优,330200,#00E400,121.4306,#00E400,26,优,0.4,优,#00E400,#00E400,330226001,优,#00E400,宁波市,#00E400,优,50,16,#00E400,113,2026-05-04 19:00:00
113,良,331121,105,28.1341,优,PM₁₀,38,19,105,优,#FFFF00,#00E400,6,塔山小学,#FFFF00,51,优,良,优,331100,#00E400,120.2936,#00E400,28,良,0.5,优,#00E400,#00E400,331121001,优,#FFFF00,丽水市,#00E400,优,51,21,#00E400,114,2026-05-04 19:00:00
114,良,330225,116,29.4767,优,PM₁₀,40,13,107,优,#FFFF00,#00E400,8,文峰小学,#FFFF00,58,优,良,优,330200,#00E400,121.8864,#00E400,17,良,0.4,优,#00E400,#00E400,330225001,优,#FFFF00,宁波市,#00E400,优,60,16,#00E400,115,2026-05-04 19:00:00
115,良,330127,115,29.5995,优,--,17,6,115,优,#00E400,#00E400,--,淳安环保大楼,#FFFF00,--,优,--,优,330100,--,119.0481,#00E400,12,优,0.5,优,#00E400,#00E400,330127001,优,--,杭州市,#00E400,--,21,13,#00E400,116,2026-05-04 19:00:00
116,良,330523,112,30.6422,--,--,10,18,118,优,#00E400,#00E400,8,安吉实验小学,#FFFF00,--,优,--,优,330500,#00E400,119.6768,#00E400,7,优,--,优,--,#00E400,330523001,优,--,湖州市,#00E400,优,9,11,#00E400,116,2026-05-04 19:00:00
117,良,330723,109,28.9178,优,--,32,--,121,优,#00E400,#00E400,7,武义北岭幼儿园,#FFFF00,--,--,--,优,330700,#00E400,119.8022,--,11,优,0.4,优,#00E400,#00E400,330723003,优,--,金华市,#00E400,优,17,23,#00E400,116,2026-05-04 19:00:00
