,O3H8_level,regioncode,O3,latitude,CO_level,SYWRW,PM10H24,NO2,O3H8,O3_level,PM10_color,PM25_color,SO2,sitename,O3H8_color,AQI,NO2_level,AQI_level,PM10H24_level,districtcode,SO2_color,longitude,NO2_color,PM25,PM10_level,CO,PM25_level,CO_color,PM25H24_color,sitecode,PM25H24_level,AQI_color,districtname,O3_color,SO2_level,PM10,PM25H24,PM10H24_color,sort,time
0,优,331024,58,28.7403,优,--,22,21,92,优,#00E400,#00E400,6,新生中学,#00E400,19,优,优,优,331000,#00E400,120.4728,#00E400,7,优,0.4,优,#00E400,#00E400,331024002,优,#00E400,台州市,#00E400,优,17,14,#00E400,1,2026-05-04 20:00:00
1,优,330328,57,27.804722,优,--,20,5,86,优,#00E400,#00E400,7,文成中学,#00E400,20,优,优,优,330300,#00E400,120.077222,#00E400,10,优,0.3,优,#00E400,#00E400,330328002,优,#00E400,温州市,#00E400,优,20,11,#00E400,2,2026-05-04 20:00:00
2,优,331127,67,28.002222,优,--,24,11,90,优,#00E400,#00E400,5,红星小学,#00E400,21,优,优,优,331100,#00E400,119.636389,#00E400,10,优,0.5,优,#00E400,#00E400,331127003,优,#00E400,丽水市,#00E400,优,18,14,#00E400,3,2026-05-04 20:00:00
3,优,331123,58,28.5991,优,--,24,22,94,优,#00E400,#00E400,4,遂昌民政局,#00E400,21,优,优,优,331100,#00E400,119.2622,#00E400,14,优,0.4,优,#00E400,#00E400,331123001,优,#00E400,丽水市,#00E400,优,21,16,#00E400,3,2026-05-04 20:00:00
4,优,331126,66,27.629585,优,--,18,6,84,优,#00E400,#00E400,6,庆元监测楼,#00E400,21,优,优,优,331100,#00E400,119.054809,#00E400,3,优,0.5,优,#00E400,#00E400,331126001,优,#00E400,丽水市,#00E400,优,6,14,#00E400,3,2026-05-04 20:00:00
5,优,330727,68,29.051486,优,--,14,17,100,优,#00E400,#00E400,8,国税大楼,#00E400,22,优,优,优,330700,#00E400,120.438346,#00E400,3,优,0.5,优,#00E400,#00E400,330727002,优,#00E400,金华市,#00E400,优,7,7,#00E400,6,2026-05-04 20:00:00
6,良,331123,72,28.5839,优,--,25,13,104,优,#00E400,#00E400,7,遂昌中学,#FFFF00,23,优,优,优,331100,#00E400,119.2656,#00E400,11,优,0.4,优,#00E400,#00E400,331123002,优,#00E400,丽水市,#00E400,优,20,15,#00E400,7,2026-05-04 20:00:00
7,良,330329,74,27.5438,优,--,17,7,101,优,#00E400,#00E400,6,泰顺实验中学,#FFFF00,24,优,优,优,330300,#00E400,119.716111,#00E400,13,优,0.3,优,#00E400,#00E400,330329002,优,#00E400,温州市,#00E400,优,20,11,#00E400,8,2026-05-04 20:00:00
8,优,331181,75,28.08007,优,--,28,8,92,优,#00E400,#00E400,7,龙泉环保大楼,#00E400,24,优,优,优,331100,#00E400,119.1328,#00E400,12,优,0.4,优,#00E400,#00E400,331181001,优,#00E400,丽水市,#00E400,优,23,16,#00E400,8,2026-05-04 20:00:00
9,优,330326,37,27.6593,优,--,30,20,78,优,#00E400,#00E400,9,平阳监测站,#00E400,25,优,优,优,330300,#00E400,120.5705,#00E400,14,优,0.7,优,#00E400,#00E400,330326001,优,#00E400,温州市,#00E400,优,25,18,#00E400,10,2026-05-04 20:00:00
10,优,331083,80,28.2221,优,--,26,25,91,优,#00E400,#00E400,5,楚门中心小学,#00E400,25,优,优,优,331000,#00E400,121.2846,#00E400,16,优,0.6,优,#00E400,#00E400,331021002,优,#00E400,台州市,#00E400,优,25,17,#00E400,10,2026-05-04 20:00:00
11,优,331023,80,29.1504,优,--,20,21,100,优,#00E400,#00E400,4,育青中学,#00E400,25,优,优,优,331000,#00E400,121.0091,#00E400,14,优,0.4,优,#00E400,#00E400,331023001,优,#00E400,台州市,#00E400,优,19,15,#00E400,10,2026-05-04 20:00:00
12,优,331125,80,28.1062,优,--,26,17,100,优,#00E400,#00E400,6,云和三中,#00E400,25,优,优,优,331100,#00E400,119.5728,#00E400,11,优,0.3,优,#00E400,#00E400,331125002,优,#00E400,丽水市,#00E400,优,23,13,#00E400,10,2026-05-04 20:00:00
13,优,331181,80,28.076,优,--,22,8,92,优,#00E400,#00E400,8,粮食大楼,#00E400,25,优,优,优,331100,#00E400,119.1217,#00E400,10,优,0.4,优,#00E400,#00E400,331181002,优,#00E400,丽水市,#00E400,优,14,16,#00E400,10,2026-05-04 20:00:00
14,优,330305,81,27.8342,优,--,20,16,86,优,#00E400,#00E400,7,洞头气象局,#00E400,26,优,优,优,330300,#00E400,121.1502,#00E400,9,优,0.6,优,#00E400,#00E400,330305001,优,#00E400,温州市,#00E400,优,22,13,#00E400,15,2026-05-04 20:00:00
15,优,330624,68,29.5036,优,--,24,22,99,优,#00E400,#00E400,4,钟楼站,#00E400,26,优,优,优,330600,#00E400,120.8938,#00E400,12,优,0.5,优,#00E400,#00E400,330624001,优,#00E400,绍兴市,#00E400,优,26,12,#00E400,15,2026-05-04 20:00:00
16,良,330726,83,29.465746,优,--,16,31,116,优,#00E400,#00E400,6,浦江实验中学,#FFFF00,26,优,优,优,330700,#00E400,119.875227,#00E400,9,优,0.5,优,#00E400,#00E400,330726001,优,#00E400,金华市,#00E400,优,24,8,#00E400,15,2026-05-04 20:00:00
17,良,330824,81,29.1478,优,--,19,7,102,优,#00E400,#00E400,7,开化监测大楼,#FFFF00,26,优,优,优,330800,#00E400,118.4108,#00E400,11,优,0.3,优,#00E400,#00E400,330824002,优,#00E400,衢州市,#00E400,优,18,11,#00E400,15,2026-05-04 20:00:00
18,优,331081,82,28.39136,优,--,25,18,98,优,#00E400,#00E400,5,之江高级中学,#00E400,26,优,优,优,331000,#00E400,121.37696,#00E400,11,优,0.5,优,#00E400,#00E400,331081002,优,#00E400,台州市,#00E400,优,10,18,#00E400,15,2026-05-04 20:00:00
19,良,330182,82,29.4769,优,--,21,12,111,优,#00E400,#00E400,8,建德监测大楼,#FFFF00,27,优,优,优,330100,#00E400,119.2711,#00E400,17,优,0.6,优,#00E400,#00E400,330182T_2,优,#00E400,杭州市,#00E400,优,27,12,#00E400,20,2026-05-04 20:00:00
20,优,330382,69,28.1209,优,--,26,25,92,优,#00E400,#00E400,6,乐成,#00E400,27,优,优,优,330300,#00E400,120.9659,#00E400,16,优,0.6,优,#00E400,#00E400,330382001,优,#00E400,温州市,#00E400,优,27,17,#00E400,20,2026-05-04 20:00:00
21,优,330328,40,27.7838,优,--,24,16,82,优,#00E400,#00E400,3,大峃,#00E400,27,优,优,优,330300,#00E400,120.085,#00E400,16,优,0.4,优,#00E400,#00E400,330328001,优,#00E400,温州市,#00E400,优,27,13,#00E400,20,2026-05-04 20:00:00
22,优,331125,85,28.1173,优,--,19,11,97,优,#00E400,#00E400,6,云和监测楼,#00E400,27,优,优,优,331100,#00E400,119.5626,#00E400,11,优,0.4,优,#00E400,#00E400,331125001,优,#00E400,丽水市,#00E400,优,14,13,#00E400,20,2026-05-04 20:00:00
23,良,330327,79,27.522222,优,--,31,14,111,优,#00E400,#00E400,8,苍南中学,#FFFF00,28,优,优,优,330300,#00E400,120.416111,#00E400,18,优,0.6,优,#00E400,#00E400,330327004,优,#00E400,温州市,#00E400,优,28,22,#00E400,24,2026-05-04 20:00:00
24,良,330523,88,30.5974,优,--,11,9,111,优,#00E400,#00E400,5,安吉城东,#FFFF00,28,优,优,优,330500,#00E400,119.6953,#00E400,13,优,0.3,优,#00E400,#00E400,330523002,优,#00E400,湖州市,#00E400,优,17,8,#00E400,24,2026-05-04 20:00:00
25,良,330683,87,29.5901,优,--,23,21,105,优,#00E400,#00E400,5,马寅初初中,#FFFF00,28,优,优,优,330600,#00E400,120.8249,#00E400,15,优,0.4,优,#00E400,#00E400,330683001,优,#00E400,绍兴市,#00E400,优,27,12,#00E400,24,2026-05-04 20:00:00
26,优,330727,45,29.039869,优,--,22,31,95,优,#00E400,#00E400,6,南园初中,#00E400,28,优,优,优,330700,#00E400,120.440622,#00E400,13,优,0.6,优,#00E400,#00E400,330727003,优,#00E400,金华市,#00E400,优,28,13,#00E400,24,2026-05-04 20:00:00
27,良,330783,60,29.27739,优,--,22,37,106,优,#00E400,#00E400,7,东阳环保大楼,#FFFF00,28,优,优,优,330700,#00E400,120.23692,#00E400,13,优,0.7,优,#00E400,#00E400,330783002,优,#00E400,金华市,#00E400,优,28,14,#00E400,24,2026-05-04 20:00:00
28,良,330822,84,28.9012,优,--,26,16,106,优,#00E400,#00E400,5,图书馆大楼,#FFFF00,28,优,优,优,330800,#00E400,118.5062,#00E400,17,优,0.4,优,#00E400,#00E400,330822002,优,#00E400,衢州市,#00E400,优,28,11,#00E400,24,2026-05-04 20:00:00
29,良,330922,70,30.7269,优,--,22,50,125,优,#00E400,#00E400,9,嵊泗菜园,#FFFF00,28,优,优,优,330900,#00E400,122.4464,#00E400,17,优,0.5,优,#00E400,#00E400,330922001,优,#00E400,舟山市,#00E400,优,28,13,#00E400,24,2026-05-04 20:00:00
30,优,331024,83,28.8589,优,--,29,10,96,优,#00E400,#00E400,8,仙居环监站,#00E400,28,优,优,优,331000,#00E400,120.7248,#00E400,11,优,0.4,优,#00E400,#00E400,331024001,优,#00E400,台州市,#00E400,优,28,15,#00E400,24,2026-05-04 20:00:00
31,优,331126,88,27.6211,优,--,21,6,93,优,#00E400,#00E400,4,庆元气象局,#00E400,28,优,优,优,331100,#00E400,119.0788,#00E400,7,优,0.5,优,#00E400,#00E400,331126002,优,#00E400,丽水市,#00E400,优,10,17,#00E400,24,2026-05-04 20:00:00
32,良,330122,82,29.7955,优,--,24,30,111,优,#00E400,#00E400,6,桐庐江南,#FFFF00,29,优,优,优,330100,#00E400,119.6874,#00E400,18,优,0.4,优,#00E400,#00E400,330122001,优,#00E400,杭州市,#00E400,优,29,16,#00E400,33,2026-05-04 20:00:00
33,良,330127,78,29.5995,优,--,17,19,112,优,#00E400,#00E400,10,淳安环保大楼,#FFFF00,29,优,优,优,330100,#00E400,119.0481,#00E400,17,优,0.6,优,#00E400,#00E400,330127001,优,#00E400,杭州市,#00E400,优,29,13,#00E400,33,2026-05-04 20:00:00
34,良,330723,92,28.896108,优,--,36,16,124,优,#00E400,#00E400,9,武义县政府,#FFFF00,29,优,优,优,330700,#00E400,119.811352,#00E400,9,优,0.5,优,#00E400,#00E400,330723001,优,#00E400,金华市,#00E400,优,22,20,#00E400,33,2026-05-04 20:00:00
35,良,330781,91,29.229931,优,--,25,15,106,优,#00E400,#00E400,7,兰溪八中,#FFFF00,29,优,优,优,330700,#00E400,119.475172,#00E400,5,优,0.4,优,#00E400,#00E400,330781002,优,#00E400,金华市,#00E400,优,27,14,#00E400,33,2026-05-04 20:00:00
36,良,330482,96,30.6937,优,--,29,28,127,优,#00E400,#00E400,9,平湖幼儿园,#FFFF00,30,优,优,优,330400,#00E400,121.0259,#00E400,15,优,0.4,优,#00E400,#00E400,330482001,优,#00E400,嘉兴市,#00E400,优,30,17,#00E400,37,2026-05-04 20:00:00
37,良,330681,71,29.6818,优,--,23,21,117,优,#00E400,#00E400,4,杨树畈,#FFFF00,30,优,优,优,330600,#00E400,120.2359,#00E400,8,优,0.5,优,#00E400,#00E400,330681001,优,#00E400,绍兴市,#00E400,优,30,12,#00E400,37,2026-05-04 20:00:00
38,优,331083,93,28.12715,优,--,22,16,97,优,#00E400,#00E400,9,玉环环监站,#00E400,30,优,优,优,331000,#00E400,121.2339,#00E400,20,优,0.6,优,#00E400,#00E400,331021001,优,#00E400,台州市,#00E400,优,12,19,#00E400,37,2026-05-04 20:00:00
39,良,331124,96,28.4516,优,--,29,11,107,优,#00E400,#00E400,6,和平水厂,#FFFF00,30,优,优,优,331100,#00E400,119.4699,#00E400,14,优,0.4,优,#00E400,#00E400,331124002,优,#00E400,丽水市,#00E400,优,21,18,#00E400,37,2026-05-04 20:00:00
40,良,330213,74,29.693,优,--,21,18,107,优,#00E400,#00E400,5,溪口政府大楼,#FFFF00,31,优,优,优,330200,#00E400,121.2774,#00E400,16,优,0.4,优,#00E400,#00E400,330283T_1,优,#00E400,宁波市,#00E400,优,31,12,#00E400,41,2026-05-04 20:00:00
41,优,330326,48,27.6653,优,--,28,26,86,优,#00E400,#00E400,7,平阳县政府,#00E400,31,优,优,优,330300,#00E400,120.5611,#00E400,15,优,0.6,优,#00E400,#00E400,330326002,优,#00E400,温州市,#00E400,优,31,17,#00E400,41,2026-05-04 20:00:00
42,良,330523,98,30.6422,优,--,10,22,116,优,#00E400,#00E400,8,安吉实验小学,#FFFF00,31,优,优,优,330500,#00E400,119.6768,#00E400,10,优,0.3,优,#00E400,#00E400,330523001,优,#00E400,湖州市,#00E400,优,12,10,#00E400,41,2026-05-04 20:00:00
43,良,330522,99,31.0143,优,--,22,26,123,优,#00E400,#00E400,6,职教中心,#FFFF00,31,优,优,优,330500,#00E400,119.8935,#00E400,7,优,0.3,优,#00E400,#00E400,330522001,优,#00E400,湖州市,#00E400,优,31,7,#00E400,41,2026-05-04 20:00:00
44,良,330683,97,29.5663,优,--,23,19,103,优,#00E400,#00E400,5,丽湖小区,#FFFF00,31,优,优,优,330600,#00E400,120.8173,#00E400,16,优,0.4,优,#00E400,#00E400,330683002,优,#00E400,绍兴市,#00E400,优,21,11,#00E400,41,2026-05-04 20:00:00
45,良,330782,62,29.305096,优,--,24,41,106,优,#00E400,#00E400,6,江东,#FFFF00,32,优,优,优,330700,#00E400,120.090442,#00E400,22,优,0.6,优,#00E400,#00E400,330782002,优,#00E400,金华市,#00E400,优,30,15,#00E400,46,2026-05-04 20:00:00
46,良,330825,100,29.0464,优,--,28,29,129,优,#00E400,#00E400,5,龙游二高,#FFFF00,32,优,优,优,330800,#00E400,119.204,#00E400,17,优,0.3,优,#00E400,#00E400,330825002,优,#00E400,衢州市,#00E400,优,30,17,#00E400,46,2026-05-04 20:00:00
47,优,330824,69,29.1343,优,--,23,9,99,优,#00E400,#00E400,5,开化气象局,#00E400,32,优,优,优,330800,#00E400,118.402,#00E400,12,优,0.3,优,#00E400,#00E400,330824001,优,#00E400,衢州市,#00E400,优,32,10,#00E400,46,2026-05-04 20:00:00
48,良,330329,78,27.557,优,--,19,10,104,优,#00E400,#00E400,5,罗阳,#FFFF00,33,优,优,优,330300,#00E400,119.7084,#00E400,23,优,0.6,优,#00E400,#00E400,330329001,优,#00E400,温州市,#00E400,优,28,16,#00E400,49,2026-05-04 20:00:00
49,良,330481,101,30.5137,优,--,25,19,118,优,#00E400,#00E400,9,硖石街道,#FFFF00,33,优,优,优,330400,#00E400,120.7082,#00E400,15,优,0.3,优,#00E400,#00E400,330481002,优,#00E400,嘉兴市,#00E400,优,33,14,#00E400,49,2026-05-04 20:00:00
50,良,330921,83,30.2669,优,--,24,45,118,优,#00E400,#00E400,7,岱山环保大楼,#FFFF00,33,优,优,优,330900,#00E400,122.2199,#00E400,18,优,0.5,优,#00E400,#00E400,330921001,优,#00E400,舟山市,#00E400,优,33,14,#00E400,49,2026-05-04 20:00:00
51,良,331082,101,28.873,优,--,30,22,107,优,#00E400,#00E400,7,临海环保大楼,#FFFF00,33,优,优,优,331000,#00E400,121.1769,#00E400,16,优,0.4,优,#00E400,#00E400,331082001,优,#00E400,台州市,#00E400,优,33,15,#00E400,49,2026-05-04 20:00:00
52,良,331122,103,28.6628,优,--,31,14,101,优,#00E400,#00E400,7,信访大楼,#FFFF00,33,优,优,优,331100,#00E400,120.0856,#00E400,20,优,0.6,优,#00E400,#00E400,331122002,优,#00E400,丽水市,#00E400,优,21,16,#00E400,49,2026-05-04 20:00:00
53,优,331127,66,27.9772,优,--,26,15,93,优,#00E400,#00E400,4,景宁县政府,#00E400,33,优,优,优,331100,#00E400,119.6311,#00E400,14,优,0.5,优,#00E400,#00E400,331127002,优,#00E400,丽水市,#00E400,优,33,13,#00E400,49,2026-05-04 20:00:00
54,良,330483,101,30.6355,优,--,27,18,120,优,#00E400,#00E400,10,文化中心,#FFFF00,33,优,优,优,330400,#00E400,120.5795,#00E400,17,优,0.5,优,#00E400,#00E400,330483003,优,#00E400,嘉兴市,#00E400,优,33,15,#00E400,49,2026-05-04 20:00:00
55,良,330482,104,30.7292,优,--,38,24,120,优,#00E400,#00E400,9,陆家桥村,#FFFF00,34,优,优,优,330400,#00E400,120.9953,#00E400,16,优,0.4,优,#00E400,#00E400,330482002,优,#00E400,嘉兴市,#00E400,优,34,18,#00E400,56,2026-05-04 20:00:00
56,良,330522,107,31.0263,优,--,16,22,126,优,#00E400,#00E400,5,龙山新区,#FFFF00,34,优,优,优,330500,#00E400,119.9046,#00E400,7,优,0.3,优,#00E400,#00E400,330522002,优,#00E400,湖州市,#00E400,优,23,7,#00E400,56,2026-05-04 20:00:00
57,良,330782,81,29.335473,优,--,25,36,118,优,#00E400,#00E400,5,北苑,#FFFF00,34,优,优,优,330700,#00E400,120.078609,#00E400,9,优,0.6,优,#00E400,#00E400,330782001,优,#00E400,金华市,#00E400,优,34,13,#00E400,56,2026-05-04 20:00:00
58,良,331124,89,28.4505,优,--,27,14,101,优,#00E400,#00E400,4,松阳监测楼,#FFFF00,34,优,优,优,331100,#00E400,119.4799,#00E400,21,优,0.4,优,#00E400,#00E400,331124001,优,#00E400,丽水市,#00E400,优,34,19,#00E400,56,2026-05-04 20:00:00
59,良,330681,87,29.7257,优,--,27,24,134,优,#00E400,#00E400,7,城新小学,#FFFF00,35,优,优,优,330600,#00E400,120.272,#00E400,16,优,0.5,优,#00E400,#00E400,330681505,优,#00E400,绍兴市,#00E400,优,35,16,#00E400,60,2026-05-04 20:00:00
60,良,330182,58,29.4638,优,--,22,54,110,优,#00E400,#00E400,4,第二中学,#FFFF00,35,优,优,优,330100,#00E400,119.2821,#00E400,20,优,0.6,优,#00E400,#00E400,330182002,优,#00E400,杭州市,#00E400,优,35,14,#00E400,60,2026-05-04 20:00:00
61,良,330327,64,27.503889,优,--,28,15,101,优,#00E400,#00E400,9,灵溪,#FFFF00,35,优,优,优,330300,#00E400,120.395278,#00E400,19,优,0.5,优,#00E400,#00E400,330327001,优,#00E400,温州市,#00E400,优,35,18,#00E400,60,2026-05-04 20:00:00
62,良,330481,111,30.5261,优,--,27,14,122,优,#00E400,#00E400,8,海宁监测大楼,#FFFF00,35,优,优,优,330400,#00E400,120.6739,#00E400,16,优,0.3,优,#00E400,#00E400,330481001,优,#00E400,嘉兴市,#00E400,优,31,16,#00E400,60,2026-05-04 20:00:00
63,良,330421,102,30.836,优,--,28,25,124,优,#00E400,#00E400,6,嘉善监测大楼,#FFFF00,35,优,优,优,330400,#00E400,120.9226,#00E400,15,优,0.4,优,#00E400,#00E400,330421001,优,#00E400,嘉兴市,#00E400,优,35,16,#00E400,60,2026-05-04 20:00:00
64,良,330784,111,28.8854,优,--,34,9,106,优,#00E400,#00E400,7,永康一中,#FFFF00,35,优,优,优,330700,#00E400,120.0439,#00E400,17,优,0.4,优,#00E400,#00E400,330784001,优,#00E400,金华市,#00E400,优,28,20,#00E400,60,2026-05-04 20:00:00
65,良,331121,88,28.1341,优,--,39,11,105,优,#00E400,#00E400,5,塔山小学,#FFFF00,35,优,优,优,331100,#00E400,120.2936,#00E400,19,优,0.5,优,#00E400,#00E400,331121001,优,#00E400,丽水市,#00E400,优,35,21,#00E400,60,2026-05-04 20:00:00
66,良,331122,110,28.6574,优,--,28,13,108,优,#00E400,#00E400,8,缙云中学,#FFFF00,35,优,优,优,331100,#00E400,120.0696,#00E400,13,优,0.5,优,#00E400,#00E400,331122001,优,#00E400,丽水市,#00E400,优,24,17,#00E400,60,2026-05-04 20:00:00
67,良,330521,47,30.548493,优,--,19,51,115,优,#00E400,#00E400,5,春晖小学,#FFFF00,35,优,优,优,330500,#00E400,119.9505,#00E400,16,优,0.4,优,#00E400,#00E400,330521003,优,#00E400,湖州市,#00E400,优,35,9,#00E400,60,2026-05-04 20:00:00
68,良,330803,114,28.9844,优,--,27,21,134,优,#00E400,#00E400,8,衢州三中（市）,#FFFF00,36,优,优,优,330800,#00E400,118.9628,#00E400,19,优,0.5,优,#00E400,#00E400,330803704,优,#00E400,衢州市,#00E400,优,32,16,#00E400,69,2026-05-04 20:00:00
69,良,330225,110,29.2003,优,--,36,18,124,优,#00E400,#00E400,6,石浦新港小学,#FFFF00,36,优,优,优,330200,#00E400,121.934,#00E400,22,优,0.5,优,#00E400,#00E400,330225002,优,#00E400,宁波市,#00E400,优,36,21,#00E400,69,2026-05-04 20:00:00
70,优,330381,45,27.782284,优,--,33,44,94,优,#00E400,#00E400,11,安阳新区,#00E400,36,优,优,优,330300,#00E400,120.650915,#00E400,21,优,0.6,优,#00E400,#00E400,330381002,优,#00E400,温州市,#00E400,优,36,21,#00E400,69,2026-05-04 20:00:00
71,优,330383,58,27.5812,优,--,31,46,98,优,#00E400,#00E400,8,龙港,#00E400,36,优,优,优,330300,#00E400,120.5489,#00E400,25,优,0.5,优,#00E400,#00E400,330327002,优,#00E400,温州市,#00E400,优,31,22,#00E400,69,2026-05-04 20:00:00
72,良,330424,113,30.5042,优,--,29,21,123,优,#00E400,#00E400,7,高级中学,#FFFF00,36,优,优,优,330400,#00E400,120.9413,#00E400,12,优,0.3,优,#00E400,#00E400,330424001,优,#00E400,嘉兴市,#00E400,优,26,15,#00E400,69,2026-05-04 20:00:00
73,良,330825,114,29.0392,优,--,31,22,135,优,#00E400,#00E400,6,建设大楼,#FFFF00,36,优,优,优,330800,#00E400,119.1675,#00E400,11,优,0.4,优,#00E400,#00E400,330825001,优,#00E400,衢州市,#00E400,优,33,16,#00E400,69,2026-05-04 20:00:00
74,良,331121,93,28.1094,优,--,40,12,105,优,#00E400,#00E400,4,青田中学,#FFFF00,36,优,优,优,331100,#00E400,120.3161,#00E400,22,优,0.4,优,#00E400,#00E400,331121002,优,#00E400,丽水市,#00E400,优,36,20,#00E400,69,2026-05-04 20:00:00
75,良,330483,113,30.7369,优,--,27,19,135,优,#00E400,#00E400,10,植材小学,#FFFF00,36,优,优,优,330400,#00E400,120.4902,#00E400,10,优,0.5,优,#00E400,#00E400,330483509,优,#00E400,嘉兴市,#00E400,优,25,11,#00E400,69,2026-05-04 20:00:00
76,良,330382,98,28.0297,优,--,37,24,114,优,#00E400,#00E400,5,柳市,#FFFF00,37,优,优,优,330300,#00E400,120.891,#00E400,15,优,0.3,优,#00E400,#00E400,330382002,优,#00E400,温州市,#00E400,优,37,23,#00E400,77,2026-05-04 20:00:00
77,良,330881,108,28.7282,优,--,36,16,122,优,#00E400,#00E400,7,人民医院,#FFFF00,37,优,优,优,330800,#00E400,118.6227,#00E400,19,优,0.5,优,#00E400,#00E400,330881002,优,#00E400,衢州市,#00E400,优,37,22,#00E400,77,2026-05-04 20:00:00
78,良,331022,84,29.1028,优,--,29,19,106,优,#00E400,#00E400,6,心湖站,#FFFF00,37,优,优,优,331000,#00E400,121.3918,#00E400,21,优,0.5,优,#00E400,#00E400,331022002,优,#00E400,台州市,#00E400,优,37,17,#00E400,77,2026-05-04 20:00:00
79,良,330481,116,30.5524,优,--,27,9,130,优,#00E400,#00E400,8,胜利社区,#FFFF00,37,优,优,优,330400,#00E400,120.6713,#00E400,12,优,0.4,优,#00E400,#00E400,330481003,优,#00E400,嘉兴市,#00E400,优,28,15,#00E400,77,2026-05-04 20:00:00
80,良,330281,92,30.0358,优,--,22,29,114,优,#00E400,#00E400,7,姚江小学,#FFFF00,38,优,优,优,330200,#00E400,121.1221,#00E400,22,优,0.5,优,#00E400,#00E400,330281002,优,#00E400,宁波市,#00E400,优,38,13,#00E400,81,2026-05-04 20:00:00
81,优,330381,11,27.791645,优,--,31,73,84,优,#00E400,#00E400,7,花园桥,#00E400,38,优,优,优,330300,#00E400,120.62372,#00E400,20,优,0.5,优,#00E400,#00E400,330381001,优,#00E400,温州市,#00E400,优,38,20,#00E400,81,2026-05-04 20:00:00
82,--,330782,86,29.2637,优,--,--,19,--,优,#00E400,#00E400,6,儿童公园,--,38,优,优,--,330700,#00E400,120.0321,#00E400,17,优,0.9,优,#00E400,--,330782004,--,#00E400,金华市,#00E400,优,38,--,--,81,2026-05-04 20:00:00
83,良,330212,97,29.7736,优,--,28,18,116,优,#00E400,#00E400,5,钱湖水厂,#FFFF00,38,优,优,优,330200,#00E400,121.6330,#00E400,21,优,0.5,优,#00E400,#00E400,2013302120001,优,#00E400,宁波市,#00E400,优,38,17,#00E400,81,2026-05-04 20:00:00
84,良,330424,122,30.5299,优,--,29,14,125,优,#00E400,#00E400,5,海盐商贸学校,#FFFF00,39,优,优,优,330400,#00E400,120.9293,#00E400,14,优,0.3,优,#00E400,#00E400,330424002,优,#00E400,嘉兴市,#00E400,优,31,16,#00E400,85,2026-05-04 20:00:00
85,优,330784,85,28.90016,优,--,42,14,84,优,#00E400,#00E400,6,西城供电所,#00E400,39,优,优,优,330700,#00E400,120.01452,#00E400,27,优,0.3,优,#00E400,#00E400,330784002,优,#00E400,金华市,#00E400,优,33,24,#00E400,85,2026-05-04 20:00:00
86,良,330881,97,28.7465,优,--,36,19,121,优,#00E400,#00E400,7,江山环保大楼,#FFFF00,39,优,优,优,330800,#00E400,118.6301,#00E400,25,优,0.6,优,#00E400,#00E400,330881001,优,#00E400,衢州市,#00E400,优,39,22,#00E400,85,2026-05-04 20:00:00
87,优,331023,86,29.1342,优,--,23,21,100,优,#00E400,#00E400,6,天台实验中学,#00E400,39,优,优,优,331000,#00E400,121.0349,#00E400,27,优,0.5,优,#00E400,#00E400,331023002,优,#00E400,台州市,#00E400,优,32,16,#00E400,85,2026-05-04 20:00:00
88,良,330483,105,30.6488,优,--,31,23,119,优,#00E400,#00E400,5,茅盾小学,#FFFF00,41,优,优,优,330400,#00E400,120.5498,#00E400,19,优,0.4,优,#00E400,#00E400,330483001,优,#00E400,嘉兴市,#00E400,优,41,15,#00E400,89,2026-05-04 20:00:00
89,良,330726,85,29.439787,优,--,24,29,110,优,#00E400,#00E400,4,浦江中学,#FFFF00,43,优,优,优,330700,#00E400,119.924638,#00E400,11,优,0.5,优,#00E400,#00E400,330726002,优,#00E400,金华市,#00E400,优,43,10,#00E400,90,2026-05-04 20:00:00
90,良,330383,87,27.5617,优,--,28,37,116,优,#00E400,#00E400,10,龙港实验中学,#FFFF00,43,优,优,优,330300,#00E400,120.5355,#00E400,24,优,0.5,优,#00E400,#00E400,330303101,优,#00E400,温州市,#00E400,优,43,19,#00E400,90,2026-05-04 20:00:00
91,良,330822,64,28.901,优,--,26,39,105,优,#00E400,#00E400,6,常山环保大楼,#FFFF00,44,优,优,优,330800,#00E400,118.5196,#00E400,20,优,0.6,优,#00E400,#00E400,330822001,优,#00E400,衢州市,#00E400,优,44,11,#00E400,92,2026-05-04 20:00:00
92,良,330921,78,30.2517,优,--,24,35,112,优,#00E400,#00E400,9,岱山高亭,#FFFF00,44,优,优,优,330900,#00E400,122.1958,#00E400,25,优,0.3,优,#00E400,#00E400,330921002,优,#00E400,舟山市,#00E400,优,44,14,#00E400,92,2026-05-04 20:00:00
93,良,330213,111,29.6506,优,--,26,16,115,优,#00E400,#00E400,8,奉化教育局,#FFFF00,45,优,优,优,330200,#00E400,121.4042,#00E400,27,优,0.4,优,#00E400,#00E400,330283005,优,#00E400,宁波市,#00E400,优,45,17,#00E400,94,2026-05-04 20:00:00
94,良,330282,125,30.1786,优,--,32,19,126,优,#00E400,#00E400,6,慈溪实验小学,#FFFF00,45,优,优,优,330200,#00E400,121.2525,#00E400,22,优,0.5,优,#00E400,#00E400,330282002,优,#00E400,宁波市,#00E400,优,45,20,#00E400,94,2026-05-04 20:00:00
95,优,330624,51,29.4938,优,--,24,31,92,优,#00E400,#00E400,4,城东站,#00E400,45,优,优,优,330600,#00E400,120.9109,#00E400,30,优,0.6,优,#00E400,#00E400,330624002,优,#00E400,绍兴市,#00E400,优,45,15,#00E400,94,2026-05-04 20:00:00
96,良,330781,97,29.216166,优,--,21,23,114,优,#00E400,#00E400,7,兰溪监测站,#FFFF00,45,优,优,优,330700,#00E400,119.459992,#00E400,31,优,0.5,优,#00E400,#00E400,330781001,优,#00E400,金华市,#00E400,优,35,16,#00E400,94,2026-05-04 20:00:00
97,良,330281,106,30.0497,优,--,24,21,115,优,#00E400,#00E400,7,龙山公园,#FFFF00,46,优,优,优,330200,#00E400,121.1475,#00E400,28,优,0.5,优,#00E400,#00E400,330281001,优,#00E400,宁波市,#00E400,优,46,15,#00E400,98,2026-05-04 20:00:00
98,良,330282,122,30.1636,优,--,32,22,125,优,#00E400,#00E400,6,慈溪环保大楼,#FFFF00,46,优,优,优,330200,#00E400,121.2677,#00E400,26,优,0.5,优,#00E400,#00E400,330282001,优,#00E400,宁波市,#00E400,优,46,19,#00E400,98,2026-05-04 20:00:00
99,良,331022,100,29.11779,优,--,28,18,104,优,#00E400,#00E400,7,三门环监楼,#FFFF00,46,优,优,优,331000,#00E400,121.382189,#00E400,28,优,0.6,优,#00E400,#00E400,331022001,优,#00E400,台州市,#00E400,优,46,18,#00E400,98,2026-05-04 20:00:00
100,良,330421,100,30.8307,优,--,29,32,133,优,#00E400,#00E400,8,气象观测台,#FFFF00,48,优,优,优,330400,#00E400,120.9356,#00E400,30,优,0.4,优,#00E400,#00E400,330421002,优,#00E400,嘉兴市,#00E400,优,48,17,#00E400,101,2026-05-04 20:00:00
101,良,330521,112,30.5231,优,--,15,13,120,优,#00E400,#00E400,7,地信科创园,#FFFF00,48,优,优,优,330500,#00E400,119.9781,#00E400,13,优,0.3,优,#00E400,#00E400,330521001,优,#00E400,湖州市,#00E400,优,48,9,#00E400,101,2026-05-04 20:00:00
102,优,330324,74,28.044335,优,--,40,37,99,优,#00E400,#00E400,8,瓯北,#00E400,49,优,优,优,330300,#00E400,120.654963,#00E400,27,优,0.6,优,#00E400,#00E400,330324002,优,#00E400,温州市,#00E400,优,49,22,#00E400,103,2026-05-04 20:00:00
103,良,330783,56,29.30093,优,--,28,45,104,优,#00E400,#00E400,6,广厦学院,#FFFF00,49,优,优,优,330700,#00E400,120.24157,#00E400,21,优,0.7,优,#00E400,#00E400,330783001,优,#00E400,金华市,#00E400,优,49,14,#00E400,103,2026-05-04 20:00:00
104,良,331082,98,28.84326,优,--,30,20,106,优,#00E400,#00E400,5,巾山实验小学,#FFFF00,50,优,优,优,331000,#00E400,121.136,#00E400,24,优,0.5,优,#00E400,#00E400,331082002,优,#00E400,台州市,#00E400,优,50,16,#00E400,105,2026-05-04 20:00:00
105,良,330324,71,28.158269,优,PM₁₀,37,32,101,优,#FFFF00,#00E400,6,上塘,#FFFF00,52,优,良,优,330300,#00E400,120.694244,#00E400,26,良,0.6,优,#00E400,#00E400,330324001,优,#FFFF00,温州市,#00E400,优,52,21,#00E400,106,2026-05-04 20:00:00
106,良,330483,87,30.625,优,PM₁₀,28,40,117,优,#FFFF00,#00E400,5,振东新六中站,#FFFF00,52,优,良,优,330400,#00E400,120.5613,#00E400,27,良,0.5,优,#00E400,#00E400,330483002,优,#FFFF00,嘉兴市,#00E400,优,52,16,#00E400,106,2026-05-04 20:00:00
107,良,330226,126,29.2878,优,PM₁₀,26,17,119,优,#FFFF00,#00E400,7,宁海城南站,#FFFF00,54,优,良,优,330200,#00E400,121.4201,#00E400,34,良,0.4,优,#00E400,#00E400,330226002,优,#FFFF00,宁波市,#00E400,优,55,17,#00E400,108,2026-05-04 20:00:00
108,良,330681,82,29.726389,优,PM₁₀,24,33,133,优,#FFFF00,#00E400,7,青少年宫,#FFFF00,55,优,良,优,330600,#00E400,120.199722,#00E400,27,良,0.5,优,#00E400,#00E400,330681002,优,#FFFF00,绍兴市,#00E400,优,56,14,#00E400,109,2026-05-04 20:00:00
109,良,330110,72,30.2635,优,PM₁₀,23,48,120,优,#FFFF00,#00E400,7,海辰小学,#FFFF00,57,优,良,优,330100,#00E400,119.9842,#00E400,28,良,0.7,优,#00E400,#00E400,2013301100001,优,#FFFF00,杭州市,#00E400,优,59,11,#00E400,110,2026-05-04 20:00:00
110,良,330226,129,29.3125,优,PM₁₀,30,21,120,优,#FFFF00,#00E400,7,宁海水利局,#FFFF00,58,优,良,优,330200,#00E400,121.4306,#00E400,33,良,0.5,优,#00E400,#00E400,330226001,优,#FFFF00,宁波市,#00E400,优,60,16,#00E400,111,2026-05-04 20:00:00
111,良,330782,26,29.3686,优,PM₁₀,31,77,111,优,#FFFF00,#00E400,7,第五中学,#FFFF00,59,优,良,优,330700,#00E400,120.1345,#00E400,22,良,0.6,优,#00E400,#00E400,330782003,优,#FFFF00,金华市,#00E400,优,62,14,#00E400,112,2026-05-04 20:00:00
112,良,330127,91,29.605,优,PM₂.₅,22,18,120,优,#FFFF00,#FFFF00,14,老年活动中心,#FFFF00,60,优,良,优,330100,#00E400,119.0372,#00E400,40,良,0.8,良,#00E400,#00E400,330127T_4,优,#FFFF00,杭州市,#00E400,优,58,14,#00E400,113,2026-05-04 20:00:00
113,良,330122,95,29.8058,优,PM₂.₅,29,19,115,优,#FFFF00,#FFFF00,5,桐庐江北,#FFFF00,62,优,良,优,330100,#00E400,119.669,#00E400,41,良,0.5,良,#00E400,#00E400,330122002,优,#FFFF00,杭州市,#00E400,优,55,16,#00E400,114,2026-05-04 20:00:00
114,良,330225,111,29.4767,优,PM₁₀,42,15,110,优,#FFFF00,#00E400,8,文峰小学,#FFFF00,72,优,良,优,330200,#00E400,121.8864,#00E400,28,良,0.5,优,#00E400,#00E400,330225001,优,#FFFF00,宁波市,#00E400,优,80,16,#00E400,115,2026-05-04 20:00:00
115,--,330213,--,29.6774,--,--,--,--,--,--,--,--,--,大桥市场,--,--,--,--,--,330200,--,121.4237,--,--,--,--,--,--,--,330213001,--,--,宁波市,--,--,--,--,--,116,2026-05-04 20:00:00
116,优,331081,--,28.37558,优,--,29,--,89,--,#00E400,#00E400,--,温岭环监站,#00E400,--,--,--,优,331000,--,121.36579,--,10,优,0.4,优,#00E400,#00E400,331081001,优,--,台州市,--,--,27,16,#00E400,116,2026-05-04 20:00:00
117,良,330723,109,28.9178,优,--,31,--,126,优,#00E400,#00E400,7,武义北岭幼儿园,#FFFF00,--,--,--,优,330700,#00E400,119.8022,--,15,优,0.4,优,#00E400,#00E400,330723003,优,--,金华市,#00E400,优,19,22,#00E400,116,2026-05-04 20:00:00
