,O3H8_level,regioncode,O3,latitude,CO_level,SYWRW,PM10H24,NO2,O3H8,O3_level,PM10_color,PM25_color,SO2,sitename,O3H8_color,AQI,NO2_level,AQI_level,PM10H24_level,districtcode,SO2_color,longitude,NO2_color,PM25,PM10_level,CO,PM25_level,CO_color,PM25H24_color,sitecode,PM25H24_level,AQI_color,districtname,O3_color,SO2_level,PM10,PM25H24,PM10H24_color,sort,time
0,优,330381,42,27.791645,优,--,27,17,55,优,#00E400,#00E400,6,花园桥,#00E400,14,优,优,优,330300,#00E400,120.62372,#00E400,6,优,0.4,优,#00E400,#00E400,330381001,优,#00E400,温州市,#00E400,优,11,14,#00E400,1,2026-06-13 06:00:00
1,优,331083,35,28.12715,优,--,19,12,71,优,#00E400,#00E400,10,玉环环监站,#00E400,15,优,优,优,331000,#00E400,121.2339,#00E400,8,优,0.7,优,#00E400,#00E400,331021001,优,#00E400,台州市,#00E400,优,15,9,#00E400,2,2026-06-13 06:00:00
2,优,331081,54,28.37558,优,--,20,7,68,优,#00E400,#00E400,6,温岭环监站,#00E400,17,优,优,优,331000,#00E400,121.36579,#00E400,9,优,0.5,优,#00E400,#00E400,331081001,优,#00E400,台州市,#00E400,优,12,12,#00E400,3,2026-06-13 06:00:00
3,优,330382,57,28.1209,优,--,23,7,65,优,#00E400,#00E400,2,乐成,#00E400,18,优,优,优,330300,#00E400,120.9659,#00E400,6,优,0.5,优,#00E400,#00E400,330382001,优,#00E400,温州市,#00E400,优,8,14,#00E400,4,2026-06-13 06:00:00
4,优,330328,10,27.804722,优,--,27,8,24,优,#00E400,#00E400,8,文成中学,#00E400,19,优,优,优,330300,#00E400,120.077222,#00E400,10,优,0.2,优,#00E400,#00E400,330328002,优,#00E400,温州市,#00E400,优,19,15,#00E400,5,2026-06-13 06:00:00
5,优,330326,30,27.6653,优,--,27,16,58,优,#00E400,#00E400,7,平阳县政府,#00E400,19,优,优,优,330300,#00E400,120.5611,#00E400,8,优,0.5,优,#00E400,#00E400,330326002,优,#00E400,温州市,#00E400,优,19,15,#00E400,5,2026-06-13 06:00:00
6,优,330381,41,27.782284,优,--,19,13,62,优,#00E400,#00E400,9,安阳新区,#00E400,20,优,优,优,330300,#00E400,120.650915,#00E400,14,优,0.5,优,#00E400,#00E400,330381002,优,#00E400,温州市,#00E400,优,12,20,#00E400,7,2026-06-13 06:00:00
7,优,330328,21,27.7838,优,--,27,8,20,优,#00E400,#00E400,6,大峃,#00E400,20,优,优,优,330300,#00E400,120.085,#00E400,11,优,0.4,优,#00E400,#00E400,330328001,优,#00E400,温州市,#00E400,优,20,15,#00E400,7,2026-06-13 06:00:00
8,优,330326,24,27.6593,优,--,25,9,48,优,#00E400,#00E400,9,平阳监测站,#00E400,20,优,优,优,330300,#00E400,120.5705,#00E400,11,优,0.4,优,#00E400,#00E400,330326001,优,#00E400,温州市,#00E400,优,20,15,#00E400,7,2026-06-13 06:00:00
9,优,330329,41,27.5438,优,--,21,8,54,优,#00E400,#00E400,6,泰顺实验中学,#00E400,20,优,优,优,330300,#00E400,119.716111,#00E400,13,优,0.4,优,#00E400,#00E400,330329002,优,#00E400,温州市,#00E400,优,20,11,#00E400,7,2026-06-13 06:00:00
10,优,330327,37,27.522222,优,--,29,11,56,优,#00E400,#00E400,8,苍南中学,#00E400,20,优,优,优,330300,#00E400,120.416111,#00E400,14,优,0.5,优,#00E400,#00E400,330327004,优,#00E400,温州市,#00E400,优,20,18,#00E400,7,2026-06-13 06:00:00
11,优,331083,63,28.2221,优,--,22,12,81,优,#00E400,#00E400,6,楚门中心小学,#00E400,20,优,优,优,331000,#00E400,121.2846,#00E400,9,优,0.5,优,#00E400,#00E400,331021002,优,#00E400,台州市,#00E400,优,14,12,#00E400,7,2026-06-13 06:00:00
12,优,330329,65,27.557,优,--,19,8,67,优,#00E400,#00E400,5,罗阳,#00E400,21,优,优,优,330300,#00E400,119.7084,#00E400,7,优,0.4,优,#00E400,#00E400,330329001,优,#00E400,温州市,#00E400,优,14,11,#00E400,13,2026-06-13 06:00:00
13,优,331081,67,28.39136,优,--,22,11,80,优,#00E400,#00E400,3,之江高级中学,#00E400,21,优,优,优,331000,#00E400,121.37696,#00E400,7,优,0.3,优,#00E400,#00E400,331081002,优,#00E400,台州市,#00E400,优,12,14,#00E400,13,2026-06-13 06:00:00
14,优,331126,36,27.629585,优,--,16,10,51,优,#00E400,#00E400,5,庆元监测楼,#00E400,21,优,优,优,331100,#00E400,119.054809,#00E400,14,优,0.6,优,#00E400,#00E400,331126001,优,#00E400,丽水市,#00E400,优,21,8,#00E400,13,2026-06-13 06:00:00
15,优,330213,25,29.693,优,--,33,34,28,优,#00E400,#00E400,4,溪口政府大楼,#00E400,22,优,优,优,330200,#00E400,121.2774,#00E400,14,优,0.4,优,#00E400,#00E400,330283T_1,优,#00E400,宁波市,#00E400,优,22,20,#00E400,16,2026-06-13 06:00:00
16,优,330824,22,29.1343,优,--,31,8,23,优,#00E400,#00E400,7,开化气象局,#00E400,22,优,优,优,330800,#00E400,118.402,#00E400,12,优,0.3,优,#00E400,#00E400,330824001,优,#00E400,衢州市,#00E400,优,22,13,#00E400,16,2026-06-13 06:00:00
17,优,331125,24,28.1173,优,--,22,11,44,优,#00E400,#00E400,7,云和监测楼,#00E400,22,优,优,优,331100,#00E400,119.5626,#00E400,15,优,0.5,优,#00E400,#00E400,331125001,优,#00E400,丽水市,#00E400,优,21,13,#00E400,16,2026-06-13 06:00:00
18,优,331127,22,27.9772,优,--,18,11,30,优,#00E400,#00E400,4,景宁县政府,#00E400,22,优,优,优,331100,#00E400,119.6311,#00E400,12,优,0.4,优,#00E400,#00E400,331127002,优,#00E400,丽水市,#00E400,优,22,11,#00E400,16,2026-06-13 06:00:00
19,优,330624,15,29.4938,优,--,36,29,51,优,#00E400,#00E400,4,城东站,#00E400,23,优,优,优,330600,#00E400,120.9109,#00E400,15,优,0.5,优,#00E400,#00E400,330624002,优,#00E400,绍兴市,#00E400,优,23,20,#00E400,20,2026-06-13 06:00:00
20,优,330727,32,29.051486,优,--,16,27,46,优,#00E400,#00E400,9,国税大楼,#00E400,23,优,优,优,330700,#00E400,120.438346,#00E400,12,优,0.4,优,#00E400,#00E400,330727002,优,#00E400,金华市,#00E400,优,23,12,#00E400,20,2026-06-13 06:00:00
21,优,330727,28,29.039869,优,--,22,29,37,优,#00E400,#00E400,7,南园初中,#00E400,23,优,优,优,330700,#00E400,120.440622,#00E400,11,优,0.6,优,#00E400,#00E400,330727003,优,#00E400,金华市,#00E400,优,23,10,#00E400,20,2026-06-13 06:00:00
22,优,330922,71,30.7269,优,--,19,5,68,优,#00E400,#00E400,8,嵊泗菜园,#00E400,23,优,优,优,330900,#00E400,122.4464,#00E400,10,优,0.3,优,#00E400,#00E400,330922001,优,#00E400,舟山市,#00E400,优,18,10,#00E400,20,2026-06-13 06:00:00
23,优,330327,22,27.503889,优,--,27,14,44,优,#00E400,#00E400,9,灵溪,#00E400,24,优,优,优,330300,#00E400,120.395278,#00E400,12,优,0.5,优,#00E400,#00E400,330327001,优,#00E400,温州市,#00E400,优,24,16,#00E400,24,2026-06-13 06:00:00
24,优,330482,75,30.6937,优,--,31,22,78,优,#00E400,#00E400,9,平湖幼儿园,#00E400,24,优,优,优,330400,#00E400,121.0259,#00E400,16,优,0.4,优,#00E400,#00E400,330482001,优,#00E400,嘉兴市,#00E400,优,23,18,#00E400,24,2026-06-13 06:00:00
25,优,330424,76,30.5299,优,--,35,17,86,优,#00E400,#00E400,6,海盐商贸学校,#00E400,24,优,优,优,330400,#00E400,120.9293,#00E400,16,优,0.3,优,#00E400,#00E400,330424002,优,#00E400,嘉兴市,#00E400,优,23,22,#00E400,24,2026-06-13 06:00:00
26,优,330783,42,29.30093,优,--,51,27,46,优,#00E400,#00E400,7,广厦学院,#00E400,24,优,优,良,330700,#00E400,120.24157,#00E400,15,优,0.6,优,#00E400,#00E400,330783001,优,#00E400,金华市,#00E400,优,24,21,#FFFF00,24,2026-06-13 06:00:00
27,优,330921,75,30.2517,优,--,24,13,81,优,#00E400,#00E400,8,岱山高亭,#00E400,24,优,优,优,330900,#00E400,122.1958,#00E400,13,优,0.4,优,#00E400,#00E400,330921002,优,#00E400,舟山市,#00E400,优,24,10,#00E400,24,2026-06-13 06:00:00
28,优,331123,14,28.5839,优,--,27,13,31,优,#00E400,#00E400,7,遂昌中学,#00E400,24,优,优,优,331100,#00E400,119.2656,#00E400,12,优,0.5,优,#00E400,#00E400,331123002,优,#00E400,丽水市,#00E400,优,24,14,#00E400,24,2026-06-13 06:00:00
29,优,331181,27,28.076,优,--,26,7,37,优,#00E400,#00E400,9,粮食大楼,#00E400,24,优,优,优,331100,#00E400,119.1217,#00E400,13,优,0.5,优,#00E400,#00E400,331181002,优,#00E400,丽水市,#00E400,优,24,15,#00E400,24,2026-06-13 06:00:00
30,优,330383,75,27.5617,优,--,28,12,82,优,#00E400,#00E400,7,龙港实验中学,#00E400,24,优,优,优,330300,#00E400,120.5355,#00E400,13,优,0.4,优,#00E400,#00E400,330303101,优,#00E400,温州市,#00E400,优,21,18,#00E400,24,2026-06-13 06:00:00
31,优,330212,74,29.7736,优,--,19,4,72,优,#00E400,#00E400,4,钱湖水厂,#00E400,24,优,优,优,330200,#00E400,121.6330,#00E400,13,优,0.4,优,#00E400,#00E400,2013302120001,优,#00E400,宁波市,#00E400,优,20,15,#00E400,24,2026-06-13 06:00:00
32,优,331127,19,28.002222,优,--,21,10,34,优,#00E400,#00E400,4,红星小学,#00E400,25,优,优,优,331100,#00E400,119.636389,#00E400,15,优,0.4,优,#00E400,#00E400,331127003,优,#00E400,丽水市,#00E400,优,25,11,#00E400,33,2026-06-13 06:00:00
33,优,330305,80,27.8342,优,--,17,8,86,优,#00E400,#00E400,7,洞头气象局,#00E400,25,优,优,优,330300,#00E400,121.1502,#00E400,6,优,0.5,优,#00E400,#00E400,330305001,优,#00E400,温州市,#00E400,优,12,9,#00E400,33,2026-06-13 06:00:00
34,优,330921,77,30.2669,优,--,22,19,84,优,#00E400,#00E400,6,岱山环保大楼,#00E400,25,优,优,优,330900,#00E400,122.2199,#00E400,17,优,0.5,优,#00E400,#00E400,330921001,优,#00E400,舟山市,#00E400,优,24,12,#00E400,33,2026-06-13 06:00:00
35,优,331024,34,28.7403,优,--,22,13,39,优,#00E400,#00E400,6,新生中学,#00E400,25,优,优,优,331000,#00E400,120.4728,#00E400,15,优,0.5,优,#00E400,#00E400,331024002,优,#00E400,台州市,#00E400,优,25,13,#00E400,33,2026-06-13 06:00:00
36,优,331126,54,27.6211,优,--,18,7,80,优,#00E400,#00E400,5,庆元气象局,#00E400,25,优,优,优,331100,#00E400,119.0788,#00E400,17,优,0.6,优,#00E400,#00E400,331126002,优,#00E400,丽水市,#00E400,优,24,12,#00E400,33,2026-06-13 06:00:00
37,优,330383,48,27.5812,优,--,27,14,79,优,#00E400,#00E400,7,龙港,#00E400,26,优,优,优,330300,#00E400,120.5489,#00E400,16,优,0.5,优,#00E400,#00E400,330327002,优,#00E400,温州市,#00E400,优,26,17,#00E400,38,2026-06-13 06:00:00
38,优,330421,80,30.836,优,--,38,16,78,优,#00E400,#00E400,7,嘉善监测大楼,#00E400,26,优,优,优,330400,#00E400,120.9226,#00E400,17,优,0.3,优,#00E400,#00E400,330421001,优,#00E400,嘉兴市,#00E400,优,26,21,#00E400,38,2026-06-13 06:00:00
39,优,330825,72,29.0392,优,--,50,14,75,优,#00E400,#00E400,6,建设大楼,#00E400,26,优,优,优,330800,#00E400,119.1675,#00E400,16,优,0.4,优,#00E400,#00E400,330825001,优,#00E400,衢州市,#00E400,优,26,32,#00E400,38,2026-06-13 06:00:00
40,优,331123,18,28.5991,优,--,27,12,24,优,#00E400,#00E400,6,遂昌民政局,#00E400,26,优,优,优,331100,#00E400,119.2622,#00E400,17,优,0.6,优,#00E400,#00E400,331123001,优,#00E400,丽水市,#00E400,优,26,16,#00E400,38,2026-06-13 06:00:00
41,优,330213,61,29.6506,优,--,32,11,66,优,#00E400,#00E400,8,奉化教育局,#00E400,27,优,优,优,330200,#00E400,121.4042,#00E400,14,优,0.4,优,#00E400,#00E400,330283005,优,#00E400,宁波市,#00E400,优,27,17,#00E400,42,2026-06-13 06:00:00
42,优,330225,84,29.4767,优,--,22,5,79,优,#00E400,#00E400,8,文峰小学,#00E400,27,优,优,优,330200,#00E400,121.8864,#00E400,12,优,0.4,优,#00E400,#00E400,330225001,优,#00E400,宁波市,#00E400,优,17,12,#00E400,42,2026-06-13 06:00:00
43,优,330382,62,28.0297,优,--,29,22,86,优,#00E400,#00E400,5,柳市,#00E400,27,优,优,优,330300,#00E400,120.891,#00E400,16,优,0.5,优,#00E400,#00E400,330382002,优,#00E400,温州市,#00E400,优,27,15,#00E400,42,2026-06-13 06:00:00
44,优,331022,30,29.1028,优,--,32,14,46,优,#00E400,#00E400,5,心湖站,#00E400,27,优,优,优,331000,#00E400,121.3918,#00E400,17,优,0.4,优,#00E400,#00E400,331022002,优,#00E400,台州市,#00E400,优,27,20,#00E400,42,2026-06-13 06:00:00
45,优,330226,21,29.2878,优,--,30,17,25,优,#00E400,#00E400,6,宁海城南站,#00E400,28,优,优,优,330200,#00E400,121.4201,#00E400,19,优,0.4,优,#00E400,#00E400,330226002,优,#00E400,宁波市,#00E400,优,25,20,#00E400,46,2026-06-13 06:00:00
46,优,330822,33,28.901,优,--,35,31,32,优,#00E400,#00E400,5,常山环保大楼,#00E400,28,优,优,优,330800,#00E400,118.5196,#00E400,19,优,0.7,优,#00E400,#00E400,330822001,优,#00E400,衢州市,#00E400,优,26,16,#00E400,46,2026-06-13 06:00:00
47,优,331124,40,28.4516,优,--,27,28,53,优,#00E400,#00E400,5,和平水厂,#00E400,28,优,优,优,331100,#00E400,119.4699,#00E400,17,优,0.6,优,#00E400,#00E400,331124002,优,#00E400,丽水市,#00E400,优,28,15,#00E400,46,2026-06-13 06:00:00
48,优,330127,30,29.5995,优,--,32,9,39,优,#00E400,#00E400,8,淳安环保大楼,#00E400,29,优,优,优,330100,#00E400,119.0481,#00E400,20,优,0.6,优,#00E400,#00E400,330127001,优,#00E400,杭州市,#00E400,优,29,21,#00E400,49,2026-06-13 06:00:00
49,优,330226,20,29.3125,优,--,30,19,41,优,#00E400,#00E400,5,宁海水利局,#00E400,29,优,优,优,330200,#00E400,121.4306,#00E400,20,优,0.5,优,#00E400,#00E400,330226001,优,#00E400,宁波市,#00E400,优,28,18,#00E400,49,2026-06-13 06:00:00
50,优,330324,32,28.044335,优,--,32,35,55,优,#00E400,#00E400,9,瓯北,#00E400,29,优,优,优,330300,#00E400,120.654963,#00E400,18,优,0.5,优,#00E400,#00E400,330324002,优,#00E400,温州市,#00E400,优,29,16,#00E400,49,2026-06-13 06:00:00
51,优,330424,75,30.5042,优,--,41,13,87,优,#00E400,#00E400,6,高级中学,#00E400,29,优,优,优,330400,#00E400,120.9413,#00E400,18,优,0.4,优,#00E400,#00E400,330424001,优,#00E400,嘉兴市,#00E400,优,29,23,#00E400,49,2026-06-13 06:00:00
52,优,330624,25,29.5036,优,--,37,25,50,优,#00E400,#00E400,4,钟楼站,#00E400,29,优,优,优,330600,#00E400,120.8938,#00E400,17,优,0.4,优,#00E400,#00E400,330624001,优,#00E400,绍兴市,#00E400,优,29,19,#00E400,49,2026-06-13 06:00:00
53,优,330723,55,28.896108,优,--,36,17,56,优,#00E400,#00E400,8,武义县政府,#00E400,29,优,优,优,330700,#00E400,119.811352,#00E400,20,优,0.5,优,#00E400,#00E400,330723001,优,#00E400,金华市,#00E400,优,29,22,#00E400,49,2026-06-13 06:00:00
54,优,330782,62,29.3686,优,--,50,18,56,优,#00E400,#00E400,9,第五中学,#00E400,29,优,优,优,330700,#00E400,120.1345,#00E400,11,优,0.5,优,#00E400,#00E400,330782003,优,#00E400,金华市,#00E400,优,29,20,#00E400,49,2026-06-13 06:00:00
55,优,330281,70,30.0497,优,--,35,22,81,优,#00E400,#00E400,6,龙山公园,#00E400,30,优,优,优,330200,#00E400,121.1475,#00E400,21,优,0.5,优,#00E400,#00E400,330281001,优,#00E400,宁波市,#00E400,优,30,22,#00E400,56,2026-06-13 06:00:00
56,优,330225,95,29.2003,优,--,16,10,89,优,#00E400,#00E400,8,石浦新港小学,#00E400,30,优,优,优,330200,#00E400,121.934,#00E400,8,优,0.4,优,#00E400,#00E400,330225002,优,#00E400,宁波市,#00E400,优,14,9,#00E400,56,2026-06-13 06:00:00
57,优,330521,70,30.5231,优,--,37,11,69,优,#00E400,#00E400,8,地信科创园,#00E400,30,优,优,优,330500,#00E400,119.9781,#00E400,21,优,0.5,优,#00E400,#00E400,330521001,优,#00E400,湖州市,#00E400,优,27,23,#00E400,56,2026-06-13 06:00:00
58,优,330681,48,29.726389,优,--,50,32,30,优,#00E400,#00E400,7,青少年宫,#00E400,30,优,优,优,330600,#00E400,120.199722,#00E400,21,优,0.4,优,#00E400,#00E400,330681002,优,#00E400,绍兴市,#00E400,优,30,32,#00E400,56,2026-06-13 06:00:00
59,优,330822,39,28.9012,优,--,34,32,49,优,#00E400,#00E400,5,图书馆大楼,#00E400,30,优,优,优,330800,#00E400,118.5062,#00E400,20,优,0.4,优,#00E400,#00E400,330822002,优,#00E400,衢州市,#00E400,优,30,16,#00E400,56,2026-06-13 06:00:00
60,优,330213,64,29.6774,优,--,33,12,71,优,#00E400,#00E400,6,大桥市场,#00E400,31,优,优,优,330200,#00E400,121.4237,#00E400,18,优,0.6,优,#00E400,#00E400,330213001,优,#00E400,宁波市,#00E400,优,31,18,#00E400,61,2026-06-13 06:00:00
61,优,330726,53,29.465746,优,--,31,10,76,优,#00E400,#00E400,4,浦江实验中学,#00E400,31,优,优,优,330700,#00E400,119.875227,#00E400,20,优,0.6,优,#00E400,#00E400,330726001,优,#00E400,金华市,#00E400,优,31,20,#00E400,61,2026-06-13 06:00:00
62,优,331024,34,28.8589,优,--,29,33,54,优,#00E400,#00E400,8,仙居环监站,#00E400,31,优,优,优,331000,#00E400,120.7248,#00E400,18,优,0.6,优,#00E400,#00E400,331024001,优,#00E400,台州市,#00E400,优,31,15,#00E400,61,2026-06-13 06:00:00
63,优,331082,34,28.873,优,--,29,29,51,优,#00E400,#00E400,5,临海环保大楼,#00E400,31,优,优,优,331000,#00E400,121.1769,#00E400,18,优,0.5,优,#00E400,#00E400,331082001,优,#00E400,台州市,#00E400,优,31,16,#00E400,61,2026-06-13 06:00:00
64,优,330723,52,28.9178,优,--,39,11,46,优,#00E400,#00E400,9,武义北岭幼儿园,#00E400,31,优,优,优,330700,#00E400,119.8022,#00E400,17,优,0.5,优,#00E400,#00E400,330723003,优,#00E400,金华市,#00E400,优,31,21,#00E400,61,2026-06-13 06:00:00
65,优,330521,22,30.548493,优,--,42,35,50,优,#00E400,#00E400,8,春晖小学,#00E400,31,优,优,优,330500,#00E400,119.9505,#00E400,21,优,0.5,优,#00E400,#00E400,330521003,优,#00E400,湖州市,#00E400,优,31,27,#00E400,61,2026-06-13 06:00:00
66,优,330282,68,30.1786,优,--,34,14,85,优,#00E400,#00E400,6,慈溪实验小学,#00E400,32,优,优,优,330200,#00E400,121.2525,#00E400,17,优,0.5,优,#00E400,#00E400,330282002,优,#00E400,宁波市,#00E400,优,32,18,#00E400,67,2026-06-13 06:00:00
67,优,330482,80,30.7292,优,--,33,12,82,优,#00E400,#00E400,8,陆家桥村,#00E400,32,优,优,优,330400,#00E400,120.9953,#00E400,13,优,0.5,优,#00E400,#00E400,330482002,优,#00E400,嘉兴市,#00E400,优,32,20,#00E400,67,2026-06-13 06:00:00
68,优,331022,44,29.11779,优,--,34,22,56,优,#00E400,#00E400,6,三门环监楼,#00E400,32,优,优,优,331000,#00E400,121.382189,#00E400,22,优,0.6,优,#00E400,#00E400,331022001,优,#00E400,台州市,#00E400,优,31,22,#00E400,67,2026-06-13 06:00:00
69,优,331124,35,28.4505,优,--,26,33,58,优,#00E400,#00E400,5,松阳监测楼,#00E400,32,优,优,优,331100,#00E400,119.4799,#00E400,16,优,0.4,优,#00E400,#00E400,331124001,优,#00E400,丽水市,#00E400,优,32,17,#00E400,67,2026-06-13 06:00:00
70,优,330803,19,28.9844,优,--,43,33,46,优,#00E400,#00E400,5,衢州三中（市）,#00E400,33,优,优,优,330800,#00E400,118.9628,#00E400,23,优,0.6,优,#00E400,#00E400,330803704,优,#00E400,衢州市,#00E400,优,33,29,#00E400,71,2026-06-13 06:00:00
71,优,330281,47,30.0358,优,--,33,37,69,优,#00E400,#00E400,6,姚江小学,#00E400,33,优,优,优,330200,#00E400,121.1221,#00E400,23,优,0.5,优,#00E400,#00E400,330281002,优,#00E400,宁波市,#00E400,优,29,23,#00E400,71,2026-06-13 06:00:00
72,优,330681,23,29.6818,优,--,40,30,36,优,#00E400,#00E400,6,杨树畈,#00E400,33,优,优,优,330600,#00E400,120.2359,#00E400,23,优,0.5,优,#00E400,#00E400,330681001,优,#00E400,绍兴市,#00E400,优,31,28,#00E400,71,2026-06-13 06:00:00
73,优,331023,10,29.1504,优,--,34,35,49,优,#00E400,#00E400,6,育青中学,#00E400,33,优,优,优,331000,#00E400,121.0091,#00E400,21,优,0.5,优,#00E400,#00E400,331023001,优,#00E400,台州市,#00E400,优,33,19,#00E400,71,2026-06-13 06:00:00
74,优,331181,22,28.08007,优,--,38,10,30,优,#00E400,#00E400,8,龙泉环保大楼,#00E400,33,优,优,优,331100,#00E400,119.1328,#00E400,14,优,0.4,优,#00E400,#00E400,331181001,优,#00E400,丽水市,#00E400,优,33,17,#00E400,71,2026-06-13 06:00:00
75,优,330523,56,30.6422,优,--,35,13,56,优,#00E400,#00E400,13,安吉实验小学,#00E400,34,优,优,优,330500,#00E400,119.6768,#00E400,21,优,0.5,优,#00E400,#00E400,330523001,优,#00E400,湖州市,#00E400,优,34,21,#00E400,76,2026-06-13 06:00:00
76,优,331121,14,28.1094,优,--,47,14,24,优,#00E400,#00E400,5,青田中学,#00E400,34,优,优,优,331100,#00E400,120.3161,#00E400,21,优,0.4,优,#00E400,#00E400,331121002,优,#00E400,丽水市,#00E400,优,34,26,#00E400,76,2026-06-13 06:00:00
77,优,330481,86,30.5524,优,--,41,15,95,优,#00E400,#00E400,8,胜利社区,#00E400,34,优,优,优,330400,#00E400,120.6713,#00E400,20,优,0.5,优,#00E400,#00E400,330481003,优,#00E400,嘉兴市,#00E400,优,34,23,#00E400,76,2026-06-13 06:00:00
78,优,330282,64,30.1636,优,--,45,17,79,优,#00E400,#00E400,5,慈溪环保大楼,#00E400,36,优,优,优,330200,#00E400,121.2677,#00E400,19,优,0.5,优,#00E400,#00E400,330282001,优,#00E400,宁波市,#00E400,优,36,20,#00E400,79,2026-06-13 06:00:00
79,优,330781,29,29.216166,优,--,43,26,51,优,#00E400,#00E400,7,兰溪监测站,#00E400,36,优,优,优,330700,#00E400,119.459992,#00E400,19,优,0.8,优,#00E400,#00E400,330781001,优,#00E400,金华市,#00E400,优,36,23,#00E400,79,2026-06-13 06:00:00
80,优,330782,47,29.335473,优,--,42,23,61,优,#00E400,#00E400,4,北苑,#00E400,36,优,优,优,330700,#00E400,120.078609,#00E400,22,优,0.6,优,#00E400,#00E400,330782001,优,#00E400,金华市,#00E400,优,36,22,#00E400,79,2026-06-13 06:00:00
81,优,330824,15,29.1478,优,--,28,9,15,优,#00E400,#00E400,8,开化监测大楼,#00E400,36,优,优,优,330800,#00E400,118.4108,#00E400,25,优,0.4,优,#00E400,#00E400,330824002,优,#00E400,衢州市,#00E400,优,34,18,#00E400,79,2026-06-13 06:00:00
82,优,331122,63,28.6628,优,--,33,27,63,优,#00E400,#00E400,6,信访大楼,#00E400,36,优,优,优,331100,#00E400,120.0856,#00E400,24,优,0.6,优,#00E400,#00E400,331122002,优,#00E400,丽水市,#00E400,优,36,17,#00E400,79,2026-06-13 06:00:00
83,优,330483,72,30.6355,优,--,44,16,78,优,#00E400,#00E400,9,文化中心,#00E400,36,优,优,优,330400,#00E400,120.5795,#00E400,23,优,0.5,优,#00E400,#00E400,330483003,优,#00E400,嘉兴市,#00E400,优,36,27,#00E400,79,2026-06-13 06:00:00
84,优,330483,69,30.7369,优,--,40,29,75,优,#00E400,#00E400,6,植材小学,#00E400,36,优,优,优,330400,#00E400,120.4902,#00E400,25,优,0.8,优,#00E400,#00E400,330483509,优,#00E400,嘉兴市,#00E400,优,35,24,#00E400,79,2026-06-13 06:00:00
85,优,330481,78,30.5261,优,--,42,18,86,优,#00E400,#00E400,7,海宁监测大楼,#00E400,37,优,优,优,330400,#00E400,120.6739,#00E400,24,优,0.3,优,#00E400,#00E400,330481001,优,#00E400,嘉兴市,#00E400,优,37,26,#00E400,86,2026-06-13 06:00:00
86,优,331121,22,28.1341,优,--,42,36,37,优,#00E400,#00E400,4,塔山小学,#00E400,38,优,优,优,331100,#00E400,120.2936,#00E400,26,优,0.4,优,#00E400,#00E400,331121001,优,#00E400,丽水市,#00E400,优,37,25,#00E400,87,2026-06-13 06:00:00
87,优,331125,35,28.1062,优,--,38,9,42,优,#00E400,#00E400,6,云和三中,#00E400,38,优,优,优,331100,#00E400,119.5728,#00E400,15,优,0.6,优,#00E400,#00E400,331125002,优,#00E400,丽水市,#00E400,优,38,16,#00E400,87,2026-06-13 06:00:00
88,优,330110,63,30.2635,优,--,46,26,85,优,#00E400,#00E400,10,海辰小学,#00E400,39,优,优,优,330100,#00E400,119.9842,#00E400,25,优,0.7,优,#00E400,#00E400,2013301100001,优,#00E400,杭州市,#00E400,优,39,26,#00E400,89,2026-06-13 06:00:00
89,优,330782,64,29.2637,优,--,48,13,48,优,#00E400,#00E400,6,儿童公园,#00E400,39,优,优,优,330700,#00E400,120.0321,#00E400,19,优,0.5,优,#00E400,#00E400,330782004,优,#00E400,金华市,#00E400,优,39,20,#00E400,89,2026-06-13 06:00:00
90,优,330122,37,29.7955,优,--,43,35,44,优,#00E400,#00E400,5,桐庐江南,#00E400,40,优,优,优,330100,#00E400,119.6874,#00E400,25,优,0.6,优,#00E400,#00E400,330122001,优,#00E400,杭州市,#00E400,优,40,25,#00E400,91,2026-06-13 06:00:00
91,优,330182,26,29.4769,优,--,40,16,43,优,#00E400,#00E400,6,建德监测大楼,#00E400,40,优,优,优,330100,#00E400,119.2711,#00E400,27,优,0.6,优,#00E400,#00E400,330182T_2,优,#00E400,杭州市,#00E400,优,40,23,#00E400,91,2026-06-13 06:00:00
92,优,330483,78,30.6488,优,--,49,22,79,优,#00E400,#00E400,9,茅盾小学,#00E400,40,优,优,优,330400,#00E400,120.5498,#00E400,22,优,0.5,优,#00E400,#00E400,330483001,优,#00E400,嘉兴市,#00E400,优,40,28,#00E400,91,2026-06-13 06:00:00
93,优,330683,29,29.5901,优,--,34,31,59,优,#00E400,#00E400,6,马寅初初中,#00E400,40,优,优,优,330600,#00E400,120.8249,#00E400,27,优,0.6,优,#00E400,#00E400,330683001,优,#00E400,绍兴市,#00E400,优,40,20,#00E400,91,2026-06-13 06:00:00
94,优,330726,50,29.439787,优,--,37,15,56,优,#00E400,#00E400,3,浦江中学,#00E400,40,优,优,优,330700,#00E400,119.924638,#00E400,27,优,0.5,优,#00E400,#00E400,330726002,优,#00E400,金华市,#00E400,优,40,22,#00E400,91,2026-06-13 06:00:00
95,优,330782,47,29.305096,优,--,32,21,59,优,#00E400,#00E400,6,江东,#00E400,40,优,优,优,330700,#00E400,120.090442,#00E400,20,优,0.6,优,#00E400,#00E400,330782002,优,#00E400,金华市,#00E400,优,40,17,#00E400,91,2026-06-13 06:00:00
96,优,330681,40,29.7257,优,--,40,29,52,优,#00E400,#00E400,7,城新小学,#00E400,41,优,优,优,330600,#00E400,120.272,#00E400,27,优,0.3,优,#00E400,#00E400,330681505,优,#00E400,绍兴市,#00E400,优,41,25,#00E400,97,2026-06-13 06:00:00
97,优,330881,44,28.7465,优,--,49,6,61,优,#00E400,#00E400,5,江山环保大楼,#00E400,41,优,优,优,330800,#00E400,118.6301,#00E400,27,优,0.7,优,#00E400,#00E400,330881001,优,#00E400,衢州市,#00E400,优,41,30,#00E400,97,2026-06-13 06:00:00
98,优,330825,58,29.0464,优,--,54,15,56,优,#00E400,#00E400,7,龙游二高,#00E400,41,优,优,良,330800,#00E400,119.204,#00E400,26,优,0.5,优,#00E400,#00E400,330825002,优,#00E400,衢州市,#00E400,优,41,30,#FFFF00,97,2026-06-13 06:00:00
99,优,330483,75,30.625,优,--,48,23,76,优,#00E400,#00E400,6,振东新六中站,#00E400,43,优,优,优,330400,#00E400,120.5613,#00E400,25,优,0.5,优,#00E400,#00E400,330483002,优,#00E400,嘉兴市,#00E400,优,43,29,#00E400,100,2026-06-13 06:00:00
100,优,330781,28,29.229931,优,--,41,26,43,优,#00E400,#00E400,7,兰溪八中,#00E400,44,优,优,优,330700,#00E400,119.475172,#00E400,26,优,0.7,优,#00E400,#00E400,330781002,优,#00E400,金华市,#00E400,优,44,24,#00E400,101,2026-06-13 06:00:00
101,优,330182,27,29.4638,优,--,44,34,30,优,#00E400,#00E400,3,第二中学,#00E400,45,优,优,优,330100,#00E400,119.2821,#00E400,29,优,0.6,优,#00E400,#00E400,330182002,优,#00E400,杭州市,#00E400,优,45,25,#00E400,102,2026-06-13 06:00:00
102,优,330122,33,29.8058,优,--,48,29,36,优,#00E400,#00E400,5,桐庐江北,#00E400,47,优,优,优,330100,#00E400,119.669,#00E400,28,优,0.7,优,#00E400,#00E400,330122002,优,#00E400,杭州市,#00E400,优,47,26,#00E400,103,2026-06-13 06:00:00
103,优,330324,22,28.158269,优,--,36,35,31,优,#00E400,#00E400,9,上塘,#00E400,47,优,优,优,330300,#00E400,120.694244,#00E400,23,优,0.6,优,#00E400,#00E400,330324001,优,#00E400,温州市,#00E400,优,47,18,#00E400,103,2026-06-13 06:00:00
104,优,330522,37,31.0143,优,--,42,35,61,优,#00E400,#00E400,8,职教中心,#00E400,48,优,优,优,330500,#00E400,119.8935,#00E400,33,优,0.5,优,#00E400,#00E400,330522001,优,#00E400,湖州市,#00E400,优,41,27,#00E400,105,2026-06-13 06:00:00
105,优,331023,34,29.1342,优,--,34,20,52,优,#00E400,#00E400,7,天台实验中学,#00E400,48,优,优,优,331000,#00E400,121.0349,#00E400,17,优,0.5,优,#00E400,#00E400,331023002,优,#00E400,台州市,#00E400,优,48,19,#00E400,105,2026-06-13 06:00:00
106,优,330522,45,31.0263,优,--,49,28,70,优,#00E400,#00E400,10,龙山新区,#00E400,50,优,优,优,330500,#00E400,119.9046,#00E400,32,优,0.5,优,#00E400,#00E400,330522002,优,#00E400,湖州市,#00E400,优,50,27,#00E400,107,2026-06-13 06:00:00
107,优,330683,26,29.5663,优,--,31,44,58,优,#00E400,#00E400,4,丽湖小区,#00E400,50,优,优,优,330600,#00E400,120.8173,#00E400,35,优,0.5,优,#00E400,#00E400,330683002,优,#00E400,绍兴市,#00E400,优,34,24,#00E400,107,2026-06-13 06:00:00
108,优,330784,49,28.90016,优,--,37,22,78,优,#00E400,#00E400,8,西城供电所,#00E400,50,优,优,优,330700,#00E400,120.01452,#00E400,27,优,0.6,优,#00E400,#00E400,330784002,优,#00E400,金华市,#00E400,优,50,18,#00E400,107,2026-06-13 06:00:00
109,优,330881,54,28.7282,优,PM₂.₅,44,14,66,优,#00E400,#FFFF00,8,人民医院,#00E400,52,优,良,优,330800,#00E400,118.6227,#00E400,36,优,0.6,良,#00E400,#00E400,330881002,优,#FFFF00,衢州市,#00E400,优,45,29,#00E400,110,2026-06-13 06:00:00
110,优,330783,33,29.27739,优,PM₁₀,43,34,50,优,#FFFF00,#00E400,9,东阳环保大楼,#00E400,53,优,良,优,330700,#00E400,120.23692,#00E400,35,良,0.6,优,#00E400,#00E400,330783002,优,#FFFF00,金华市,#00E400,优,54,25,#00E400,111,2026-06-13 06:00:00
111,优,330784,39,28.8854,优,PM₁₀,34,27,75,优,#FFFF00,#00E400,7,永康一中,#00E400,57,优,良,优,330700,#00E400,120.0439,#00E400,27,良,0.6,优,#00E400,#00E400,330784001,优,#FFFF00,金华市,#00E400,优,59,19,#00E400,112,2026-06-13 06:00:00
112,优,331122,43,28.6574,优,PM₂.₅,32,48,55,优,#FFFF00,#FFFF00,7,缙云中学,#00E400,64,优,良,优,331100,#00E400,120.0696,#00E400,42,良,0.7,良,#00E400,#00E400,331122001,优,#FFFF00,丽水市,#00E400,优,55,20,#00E400,113,2026-06-13 06:00:00
113,优,330127,39,29.605,优,--,28,8,52,优,#00E400,#00E400,--,老年活动中心,#00E400,--,优,--,优,330100,--,119.0372,#00E400,18,优,0.6,优,#00E400,#00E400,330127T_4,优,--,杭州市,#00E400,--,24,19,#00E400,114,2026-06-13 06:00:00
114,优,330481,73,30.5137,优,--,41,15,86,优,#00E400,#00E400,--,硖石街道,#00E400,--,优,--,优,330400,--,120.7082,#00E400,20,优,0.5,优,#00E400,#00E400,330481002,优,--,嘉兴市,#00E400,--,33,22,#00E400,114,2026-06-13 06:00:00
115,优,330421,70,30.8307,优,--,37,29,79,优,#00E400,#00E400,--,气象观测台,#00E400,--,优,--,优,330400,--,120.9356,#00E400,22,优,0.5,优,#00E400,#00E400,330421002,优,--,嘉兴市,#00E400,--,33,19,#00E400,114,2026-06-13 06:00:00
116,--,330523,--,30.5974,--,--,--,--,--,--,--,--,--,安吉城东,--,--,--,--,--,330500,--,119.6953,--,--,--,--,--,--,--,330523002,--,--,湖州市,--,--,--,--,--,114,2026-06-13 06:00:00
117,优,331082,40,28.84326,优,--,32,17,46,优,#00E400,--,4,巾山实验小学,#00E400,--,优,--,优,331000,#00E400,121.136,#00E400,--,优,0.4,--,#00E400,#00E400,331082002,优,--,台州市,#00E400,优,26,18,#00E400,114,2026-06-13 06:00:00
