,O3H8_level,regioncode,O3,latitude,CO_level,SYWRW,PM10H24,NO2,O3H8,O3_level,PM10_color,PM25_color,SO2,sitename,O3H8_color,AQI,NO2_level,AQI_level,PM10H24_level,districtcode,SO2_color,longitude,NO2_color,PM25,PM10_level,CO,PM25_level,CO_color,PM25H24_color,sitecode,PM25H24_level,AQI_color,districtname,O3_color,SO2_level,PM10,PM25H24,PM10H24_color,sort,time
0,优,330328,46,27.7838,优,--,44,10,41,优,#00E400,#00E400,4,大峃,#00E400,15,优,优,优,330300,#00E400,120.085,#00E400,7,优,0.5,优,#00E400,#00E400,330328001,优,#00E400,温州市,#00E400,优,12,25,#00E400,1,2026-05-03 16:00:00
1,优,330328,49,27.804722,优,--,37,6,38,优,#00E400,#00E400,7,文成中学,#00E400,16,优,优,优,330300,#00E400,120.077222,#00E400,3,优,0.4,优,#00E400,#00E400,330328002,优,#00E400,温州市,#00E400,优,11,22,#00E400,2,2026-05-03 16:00:00
2,优,331081,63,28.37558,优,--,31,20,58,优,#00E400,#00E400,5,温岭环监站,#00E400,20,优,优,优,331000,#00E400,121.36579,#00E400,14,优,0.6,优,#00E400,#00E400,331081001,优,#00E400,台州市,#00E400,优,16,24,#00E400,3,2026-05-03 16:00:00
3,优,330324,65,28.044335,优,--,44,24,56,优,#00E400,#00E400,9,瓯北,#00E400,21,优,优,优,330300,#00E400,120.654963,#00E400,6,优,0.7,优,#00E400,#00E400,330324002,优,#00E400,温州市,#00E400,优,14,21,#00E400,4,2026-05-03 16:00:00
4,优,331081,65,28.39136,优,--,33,13,62,优,#00E400,#00E400,3,之江高级中学,#00E400,21,优,优,优,331000,#00E400,121.37696,#00E400,9,优,0.6,优,#00E400,#00E400,331081002,优,#00E400,台州市,#00E400,优,13,19,#00E400,4,2026-05-03 16:00:00
5,优,331125,68,28.1173,优,--,20,10,52,优,#00E400,#00E400,7,云和监测楼,#00E400,22,优,优,优,331100,#00E400,119.5626,#00E400,5,优,0.6,优,#00E400,#00E400,331125001,优,#00E400,丽水市,#00E400,优,7,15,#00E400,6,2026-05-03 16:00:00
6,优,330381,66,27.791645,优,--,47,14,50,优,#00E400,#00E400,6,花园桥,#00E400,23,优,优,优,330300,#00E400,120.62372,#00E400,15,优,0.5,优,#00E400,#00E400,330381001,优,#00E400,温州市,#00E400,优,23,27,#00E400,7,2026-05-03 16:00:00
7,优,330324,72,28.158269,优,--,38,12,56,优,#00E400,#00E400,6,上塘,#00E400,23,优,优,优,330300,#00E400,120.694244,#00E400,4,优,0.6,优,#00E400,#00E400,330324001,优,#00E400,温州市,#00E400,优,9,20,#00E400,7,2026-05-03 16:00:00
8,优,331083,73,28.2221,优,--,33,14,68,优,#00E400,#00E400,5,楚门中心小学,#00E400,23,优,优,优,331000,#00E400,121.2846,#00E400,5,优,0.7,优,#00E400,#00E400,331021002,优,#00E400,台州市,#00E400,优,9,18,#00E400,7,2026-05-03 16:00:00
9,优,330329,74,27.5438,优,--,26,9,71,优,#00E400,#00E400,6,泰顺实验中学,#00E400,24,优,优,优,330300,#00E400,119.716111,#00E400,2,优,0.4,优,#00E400,#00E400,330329002,优,#00E400,温州市,#00E400,优,3,18,#00E400,10,2026-05-03 16:00:00
10,优,331127,79,28.002222,优,--,22,6,57,优,#00E400,#00E400,5,红星小学,#00E400,25,优,优,优,331100,#00E400,119.636389,#00E400,3,优,0.6,优,#00E400,#00E400,331127003,优,#00E400,丽水市,#00E400,优,4,16,#00E400,11,2026-05-03 16:00:00
11,优,330381,79,27.782284,优,--,38,15,59,优,#00E400,#00E400,9,安阳新区,#00E400,25,优,优,优,330300,#00E400,120.650915,#00E400,16,优,0.6,优,#00E400,#00E400,330381002,优,#00E400,温州市,#00E400,优,24,22,#00E400,11,2026-05-03 16:00:00
12,优,330329,79,27.557,优,--,30,9,78,优,#00E400,#00E400,6,罗阳,#00E400,25,优,优,优,330300,#00E400,119.7084,#00E400,8,优,0.6,优,#00E400,#00E400,330329001,优,#00E400,温州市,#00E400,优,15,18,#00E400,11,2026-05-03 16:00:00
13,优,331121,80,28.1094,优,--,49,6,61,优,#00E400,#00E400,4,青田中学,#00E400,25,优,优,优,331100,#00E400,120.3161,#00E400,4,优,0.5,优,#00E400,#00E400,331121002,优,#00E400,丽水市,#00E400,优,8,26,#00E400,11,2026-05-03 16:00:00
14,优,331126,80,27.629585,优,--,28,5,70,优,#00E400,#00E400,6,庆元监测楼,#00E400,25,优,优,优,331100,#00E400,119.054809,#00E400,8,优,0.6,优,#00E400,#00E400,331126001,优,#00E400,丽水市,#00E400,优,12,22,#00E400,11,2026-05-03 16:00:00
15,优,331127,77,27.9772,优,--,13,5,57,优,#00E400,#00E400,4,景宁县政府,#00E400,25,优,优,优,331100,#00E400,119.6311,#00E400,4,优,0.6,优,#00E400,#00E400,331127002,优,#00E400,丽水市,#00E400,优,6,16,#00E400,11,2026-05-03 16:00:00
16,优,331126,82,27.6211,优,--,23,4,71,优,#00E400,#00E400,4,庆元气象局,#00E400,26,优,优,优,331100,#00E400,119.0788,#00E400,4,优,0.7,优,#00E400,#00E400,331126002,优,#00E400,丽水市,#00E400,优,7,16,#00E400,17,2026-05-03 16:00:00
17,优,331121,85,28.1341,优,--,55,7,64,优,#00E400,#00E400,5,塔山小学,#00E400,27,优,优,良,331100,#00E400,120.2936,#00E400,5,优,0.5,优,#00E400,#00E400,331121001,优,#00E400,丽水市,#00E400,优,10,25,#FFFF00,18,2026-05-03 16:00:00
18,优,330305,86,27.8342,优,--,33,11,82,优,#00E400,#00E400,7,洞头气象局,#00E400,28,优,优,优,330300,#00E400,121.1502,#00E400,19,优,0.9,优,#00E400,#00E400,330305001,优,#00E400,温州市,#00E400,优,26,21,#00E400,19,2026-05-03 16:00:00
19,优,330382,66,28.1209,优,--,37,17,50,优,#00E400,#00E400,5,乐成,#00E400,28,优,优,优,330300,#00E400,120.9659,#00E400,19,优,0.8,优,#00E400,#00E400,330382001,优,#00E400,温州市,#00E400,优,23,26,#00E400,19,2026-05-03 16:00:00
20,优,330781,89,29.229931,优,--,40,5,75,优,#00E400,#00E400,9,兰溪八中,#00E400,28,优,优,优,330700,#00E400,119.475172,#00E400,15,优,0.4,优,#00E400,#00E400,330781002,优,#00E400,金华市,#00E400,优,22,30,#00E400,19,2026-05-03 16:00:00
21,优,330681,90,29.6818,优,--,38,3,79,优,#00E400,#00E400,5,杨树畈,#00E400,29,优,优,优,330600,#00E400,120.2359,#00E400,16,优,0.6,优,#00E400,#00E400,330681001,优,#00E400,绍兴市,#00E400,优,19,28,#00E400,22,2026-05-03 16:00:00
22,优,330783,92,29.27739,优,--,57,7,71,优,#00E400,#00E400,7,东阳环保大楼,#00E400,29,优,优,良,330700,#00E400,120.23692,#00E400,14,优,0.7,优,#00E400,#00E400,330783002,优,#00E400,金华市,#00E400,优,20,31,#FFFF00,22,2026-05-03 16:00:00
23,优,330881,92,28.7282,优,--,28,10,80,优,#00E400,#00E400,7,人民医院,#00E400,29,优,优,优,330800,#00E400,118.6227,#00E400,20,优,0.6,优,#00E400,#00E400,330881002,优,#00E400,衢州市,#00E400,优,27,20,#00E400,22,2026-05-03 16:00:00
24,优,330824,91,29.1478,优,--,18,7,81,优,#00E400,#00E400,7,开化监测大楼,#00E400,29,优,优,优,330800,#00E400,118.4108,#00E400,12,优,0.4,优,#00E400,#00E400,330824002,优,#00E400,衢州市,#00E400,优,21,12,#00E400,22,2026-05-03 16:00:00
25,优,330481,95,30.5261,优,--,47,6,97,优,#00E400,#00E400,6,海宁监测大楼,#00E400,30,优,优,优,330400,#00E400,120.6739,#00E400,21,优,0.4,优,#00E400,#00E400,330481001,优,#00E400,嘉兴市,#00E400,优,28,26,#00E400,26,2026-05-03 16:00:00
26,优,330481,96,30.5137,优,--,42,7,92,优,#00E400,#00E400,7,硖石街道,#00E400,30,优,优,优,330400,#00E400,120.7082,#00E400,19,优,0.4,优,#00E400,#00E400,330481002,优,#00E400,嘉兴市,#00E400,优,26,28,#00E400,26,2026-05-03 16:00:00
27,优,330624,94,29.4938,优,--,27,9,86,优,#00E400,#00E400,4,城东站,#00E400,30,优,优,优,330600,#00E400,120.9109,#00E400,12,优,0.6,优,#00E400,#00E400,330624002,优,#00E400,绍兴市,#00E400,优,15,19,#00E400,26,2026-05-03 16:00:00
28,优,330726,95,29.465746,优,--,35,5,75,优,#00E400,#00E400,5,浦江实验中学,#00E400,30,优,优,优,330700,#00E400,119.875227,#00E400,16,优,0.5,优,#00E400,#00E400,330726001,优,#00E400,金华市,#00E400,优,27,21,#00E400,26,2026-05-03 16:00:00
29,优,330726,94,29.439787,优,--,37,4,71,优,#00E400,#00E400,3,浦江中学,#00E400,30,优,优,优,330700,#00E400,119.924638,#00E400,18,优,0.5,优,#00E400,#00E400,330726002,优,#00E400,金华市,#00E400,优,20,30,#00E400,26,2026-05-03 16:00:00
30,优,330781,93,29.216166,优,--,36,7,79,优,#00E400,#00E400,7,兰溪监测站,#00E400,30,优,优,优,330700,#00E400,119.459992,#00E400,13,优,0.6,优,#00E400,#00E400,330781001,优,#00E400,金华市,#00E400,优,16,22,#00E400,26,2026-05-03 16:00:00
31,优,330782,96,29.335473,优,--,45,9,75,优,#00E400,#00E400,4,北苑,#00E400,30,优,优,优,330700,#00E400,120.078609,#00E400,13,优,0.5,优,#00E400,#00E400,330782001,优,#00E400,金华市,#00E400,优,24,26,#00E400,26,2026-05-03 16:00:00
32,优,330784,96,28.90016,优,--,58,5,67,优,#00E400,#00E400,6,西城供电所,#00E400,30,优,优,良,330700,#00E400,120.01452,#00E400,13,优,0.4,优,#00E400,#00E400,330784002,优,#00E400,金华市,#00E400,优,30,25,#FFFF00,26,2026-05-03 16:00:00
33,优,330822,96,28.9012,优,--,25,4,84,优,#00E400,#00E400,5,图书馆大楼,#00E400,30,优,优,优,330800,#00E400,118.5062,#00E400,12,优,0.3,优,#00E400,#00E400,330822002,优,#00E400,衢州市,#00E400,优,21,11,#00E400,26,2026-05-03 16:00:00
34,优,330881,93,28.7465,优,--,28,4,77,优,#00E400,#00E400,7,江山环保大楼,#00E400,30,优,优,优,330800,#00E400,118.6301,#00E400,18,优,0.7,优,#00E400,#00E400,330881001,优,#00E400,衢州市,#00E400,优,27,19,#00E400,26,2026-05-03 16:00:00
35,优,330824,88,29.1343,优,--,25,4,79,优,#00E400,#00E400,5,开化气象局,#00E400,30,优,优,优,330800,#00E400,118.402,#00E400,16,优,0.3,优,#00E400,#00E400,330824001,优,#00E400,衢州市,#00E400,优,30,12,#00E400,26,2026-05-03 16:00:00
36,优,331082,93,28.873,优,--,28,8,82,优,#00E400,#00E400,5,临海环保大楼,#00E400,30,优,优,优,331000,#00E400,121.1769,#00E400,6,优,0.6,优,#00E400,#00E400,331082001,优,#00E400,台州市,#00E400,优,10,15,#00E400,26,2026-05-03 16:00:00
37,优,331082,96,28.84326,优,--,32,12,72,优,#00E400,#00E400,4,巾山实验小学,#00E400,30,优,优,优,331000,#00E400,121.136,#00E400,11,优,0.5,优,#00E400,#00E400,331082002,优,#00E400,台州市,#00E400,优,15,18,#00E400,26,2026-05-03 16:00:00
38,优,331123,93,28.5991,优,--,20,5,78,优,#00E400,#00E400,4,遂昌民政局,#00E400,30,优,优,优,331100,#00E400,119.2622,#00E400,15,优,0.5,优,#00E400,#00E400,331123001,优,#00E400,丽水市,#00E400,优,19,14,#00E400,26,2026-05-03 16:00:00
39,优,331181,94,28.08007,优,--,23,3,70,优,#00E400,#00E400,7,龙泉环保大楼,#00E400,30,优,优,优,331100,#00E400,119.1328,#00E400,6,优,0.5,优,#00E400,#00E400,331181001,优,#00E400,丽水市,#00E400,优,9,16,#00E400,26,2026-05-03 16:00:00
40,优,330182,97,29.4769,优,--,25,2,95,优,#00E400,#00E400,6,建德监测大楼,#00E400,31,优,优,优,330100,#00E400,119.2711,#00E400,15,优,0.6,优,#00E400,#00E400,330182T_2,优,#00E400,杭州市,#00E400,优,22,18,#00E400,41,2026-05-03 16:00:00
41,优,330127,99,29.605,优,--,26,5,100,优,#00E400,#00E400,12,老年活动中心,#00E400,31,优,优,优,330100,#00E400,119.0372,#00E400,14,优,0.7,优,#00E400,#00E400,330127T_4,优,#00E400,杭州市,#00E400,优,23,17,#00E400,41,2026-05-03 16:00:00
42,优,330683,98,29.5901,优,--,32,10,89,优,#00E400,#00E400,4,马寅初初中,#00E400,31,优,优,优,330600,#00E400,120.8249,#00E400,12,优,0.6,优,#00E400,#00E400,330683001,优,#00E400,绍兴市,#00E400,优,15,20,#00E400,41,2026-05-03 16:00:00
43,优,330822,97,28.901,优,--,33,5,88,优,#00E400,#00E400,5,常山环保大楼,#00E400,31,优,优,优,330800,#00E400,118.5196,#00E400,7,优,0.5,优,#00E400,#00E400,330822001,优,#00E400,衢州市,#00E400,优,18,16,#00E400,41,2026-05-03 16:00:00
44,优,331024,99,28.8589,优,--,29,8,77,优,#00E400,#00E400,8,仙居环监站,#00E400,31,优,优,优,331000,#00E400,120.7248,#00E400,10,优,0.5,优,#00E400,#00E400,331024001,优,#00E400,台州市,#00E400,优,14,21,#00E400,41,2026-05-03 16:00:00
45,优,331023,98,29.1504,优,--,29,8,87,优,#00E400,#00E400,3,育青中学,#00E400,31,优,优,优,331000,#00E400,121.0091,#00E400,21,优,0.5,优,#00E400,#00E400,331023001,优,#00E400,台州市,#00E400,优,16,19,#00E400,41,2026-05-03 16:00:00
46,优,331023,97,29.1342,优,--,31,7,86,优,#00E400,#00E400,5,天台实验中学,#00E400,31,优,优,优,331000,#00E400,121.0349,#00E400,8,优,0.6,优,#00E400,#00E400,331023002,优,#00E400,台州市,#00E400,优,15,14,#00E400,41,2026-05-03 16:00:00
47,优,331022,97,29.11779,优,--,32,7,84,优,#00E400,#00E400,6,三门环监楼,#00E400,31,优,优,优,331000,#00E400,121.382189,#00E400,9,优,0.6,优,#00E400,#00E400,331022001,优,#00E400,台州市,#00E400,优,12,20,#00E400,41,2026-05-03 16:00:00
48,优,331124,99,28.4505,优,--,28,10,88,优,#00E400,#00E400,4,松阳监测楼,#00E400,31,优,优,优,331100,#00E400,119.4799,#00E400,8,优,0.5,优,#00E400,#00E400,331124001,优,#00E400,丽水市,#00E400,优,17,12,#00E400,41,2026-05-03 16:00:00
49,优,331181,99,28.076,优,--,25,5,81,优,#00E400,#00E400,8,粮食大楼,#00E400,31,优,优,优,331100,#00E400,119.1217,#00E400,8,优,0.4,优,#00E400,#00E400,331181002,优,#00E400,丽水市,#00E400,优,12,15,#00E400,41,2026-05-03 16:00:00
50,优,330782,98,29.2637,优,--,53,9,76,优,#00E400,#00E400,6,儿童公园,#00E400,31,优,优,良,330700,#00E400,120.0321,#00E400,18,优,0.8,优,#00E400,#00E400,330782004,优,#00E400,金华市,#00E400,优,26,29,#FFFF00,41,2026-05-03 16:00:00
51,优,330483,100,30.6488,优,--,39,11,96,优,#00E400,#00E400,4,茅盾小学,#00E400,32,优,优,优,330400,#00E400,120.5498,#00E400,19,优,0.5,优,#00E400,#00E400,330483001,优,#00E400,嘉兴市,#00E400,优,32,26,#00E400,52,2026-05-03 16:00:00
52,优,330782,101,29.305096,优,--,46,7,78,优,#00E400,#00E400,5,江东,#00E400,32,优,优,优,330700,#00E400,120.090442,#00E400,14,优,0.6,优,#00E400,#00E400,330782002,优,#00E400,金华市,#00E400,优,22,23,#00E400,52,2026-05-03 16:00:00
53,优,330783,96,29.30093,优,--,43,9,71,优,#00E400,#00E400,5,广厦学院,#00E400,32,优,优,优,330700,#00E400,120.24157,#00E400,22,优,0.7,优,#00E400,#00E400,330783001,优,#00E400,金华市,#00E400,优,22,17,#00E400,52,2026-05-03 16:00:00
54,优,331122,97,28.6574,优,--,22,25,84,优,#00E400,#00E400,8,缙云中学,#00E400,32,优,优,优,331100,#00E400,120.0696,#00E400,16,优,0.6,优,#00E400,#00E400,331122001,优,#00E400,丽水市,#00E400,优,32,15,#00E400,52,2026-05-03 16:00:00
55,优,331123,101,28.5839,优,--,18,6,88,优,#00E400,#00E400,7,遂昌中学,#00E400,32,优,优,优,331100,#00E400,119.2656,#00E400,13,优,0.5,优,#00E400,#00E400,331123002,优,#00E400,丽水市,#00E400,优,20,15,#00E400,52,2026-05-03 16:00:00
56,优,330110,102,30.2635,优,--,40,10,100,优,#00E400,#00E400,6,海辰小学,#00E400,32,优,优,优,330100,#00E400,119.9842,#00E400,16,优,0.8,优,#00E400,#00E400,2013301100001,优,#00E400,杭州市,#00E400,优,25,24,#00E400,52,2026-05-03 16:00:00
57,优,330483,100,30.6355,优,--,36,2,91,优,#00E400,#00E400,9,文化中心,#00E400,32,优,优,优,330400,#00E400,120.5795,#00E400,20,优,0.7,优,#00E400,#00E400,330483003,优,#00E400,嘉兴市,#00E400,优,27,26,#00E400,52,2026-05-03 16:00:00
58,优,330122,103,29.7955,优,--,32,8,99,优,#00E400,#00E400,6,桐庐江南,#00E400,33,优,优,优,330100,#00E400,119.6874,#00E400,14,优,0.7,优,#00E400,#00E400,330122001,优,#00E400,杭州市,#00E400,优,19,21,#00E400,59,2026-05-03 16:00:00
59,优,330281,103,30.0497,优,--,33,11,97,优,#00E400,#00E400,5,龙山公园,#00E400,33,优,优,优,330200,#00E400,121.1475,#00E400,21,优,0.5,优,#00E400,#00E400,330281001,优,#00E400,宁波市,#00E400,优,26,23,#00E400,59,2026-05-03 16:00:00
60,优,330225,103,29.2003,优,--,25,10,90,优,#00E400,#00E400,6,石浦新港小学,#00E400,33,优,优,优,330200,#00E400,121.934,#00E400,9,优,0.6,优,#00E400,#00E400,330225002,优,#00E400,宁波市,#00E400,优,14,14,#00E400,59,2026-05-03 16:00:00
61,良,330424,105,30.5042,优,--,43,9,102,优,#00E400,#00E400,7,高级中学,#FFFF00,33,优,优,优,330400,#00E400,120.9413,#00E400,23,优,0.5,优,#00E400,#00E400,330424001,优,#00E400,嘉兴市,#00E400,优,32,30,#00E400,59,2026-05-03 16:00:00
62,优,330523,105,30.6422,优,--,31,10,92,优,#00E400,#00E400,7,安吉实验小学,#00E400,33,优,优,优,330500,#00E400,119.6768,#00E400,17,优,0.4,优,#00E400,#00E400,330523001,优,#00E400,湖州市,#00E400,优,21,29,#00E400,59,2026-05-03 16:00:00
63,优,330521,105,30.5231,优,--,36,6,99,优,#00E400,#00E400,6,地信科创园,#00E400,33,优,优,优,330500,#00E400,119.9781,#00E400,16,优,0.5,优,#00E400,#00E400,330521001,优,#00E400,湖州市,#00E400,优,23,24,#00E400,59,2026-05-03 16:00:00
64,优,330681,105,29.726389,优,--,45,3,92,优,#00E400,#00E400,8,青少年宫,#00E400,33,优,优,优,330600,#00E400,120.199722,#00E400,13,优,0.5,优,#00E400,#00E400,330681002,优,#00E400,绍兴市,#00E400,优,22,30,#00E400,59,2026-05-03 16:00:00
65,优,331024,104,28.7403,优,--,26,9,76,优,#00E400,#00E400,6,新生中学,#00E400,33,优,优,优,331000,#00E400,120.4728,#00E400,11,优,0.5,优,#00E400,#00E400,331024002,优,#00E400,台州市,#00E400,优,18,15,#00E400,59,2026-05-03 16:00:00
66,优,331022,103,29.1028,优,--,34,4,83,优,#00E400,#00E400,5,心湖站,#00E400,33,优,优,优,331000,#00E400,121.3918,#00E400,8,优,0.5,优,#00E400,#00E400,331022002,优,#00E400,台州市,#00E400,优,10,21,#00E400,59,2026-05-03 16:00:00
67,优,331122,103,28.6628,优,--,35,6,85,优,#00E400,#00E400,7,信访大楼,#00E400,33,优,优,优,331100,#00E400,120.0856,#00E400,14,优,0.7,优,#00E400,#00E400,331122002,优,#00E400,丽水市,#00E400,优,33,16,#00E400,59,2026-05-03 16:00:00
68,优,331124,104,28.4516,优,--,19,8,90,优,#00E400,#00E400,5,和平水厂,#00E400,33,优,优,优,331100,#00E400,119.4699,#00E400,7,优,0.5,优,#00E400,#00E400,331124002,优,#00E400,丽水市,#00E400,优,12,14,#00E400,59,2026-05-03 16:00:00
69,良,330481,105,30.5524,优,--,45,3,101,优,#00E400,#00E400,7,胜利社区,#FFFF00,33,优,优,优,330400,#00E400,120.6713,#00E400,19,优,0.6,优,#00E400,#00E400,330481003,优,#00E400,嘉兴市,#00E400,优,27,27,#00E400,59,2026-05-03 16:00:00
70,优,330782,103,29.3686,优,--,58,5,77,优,#00E400,#00E400,6,第五中学,#00E400,33,优,优,良,330700,#00E400,120.1345,#00E400,12,优,0.6,优,#00E400,#00E400,330782003,优,#00E400,金华市,#00E400,优,21,29,#FFFF00,59,2026-05-03 16:00:00
71,良,330122,107,29.8058,优,--,32,9,103,优,#00E400,#00E400,4,桐庐江北,#FFFF00,34,优,优,优,330100,#00E400,119.669,#00E400,13,优,0.7,优,#00E400,#00E400,330122002,优,#00E400,杭州市,#00E400,优,21,19,#00E400,72,2026-05-03 16:00:00
72,优,330326,73,27.6653,优,--,41,15,64,优,#00E400,#00E400,6,平阳县政府,#00E400,34,优,优,优,330300,#00E400,120.5611,#00E400,23,优,0.7,优,#00E400,#00E400,330326002,优,#00E400,温州市,#00E400,优,34,23,#00E400,72,2026-05-03 16:00:00
73,优,330383,92,27.5812,优,--,59,16,62,优,#00E400,#00E400,8,龙港,#00E400,34,优,优,良,330300,#00E400,120.5489,#00E400,17,优,0.5,优,#00E400,#00E400,330327002,优,#00E400,温州市,#00E400,优,34,28,#FFFF00,72,2026-05-03 16:00:00
74,优,330482,106,30.7292,优,--,46,6,98,优,#00E400,#00E400,8,陆家桥村,#00E400,34,优,优,优,330400,#00E400,120.9953,#00E400,22,优,0.7,优,#00E400,#00E400,330482002,优,#00E400,嘉兴市,#00E400,优,29,32,#00E400,72,2026-05-03 16:00:00
75,良,330483,106,30.625,优,--,49,12,101,优,#00E400,#00E400,4,振东新六中站,#FFFF00,34,优,优,优,330400,#00E400,120.5613,#00E400,18,优,0.6,优,#00E400,#00E400,330483002,优,#00E400,嘉兴市,#00E400,优,26,27,#00E400,72,2026-05-03 16:00:00
76,良,330424,107,30.5299,优,--,39,6,101,优,#00E400,#00E400,4,海盐商贸学校,#FFFF00,34,优,优,优,330400,#00E400,120.9293,#00E400,23,优,0.4,优,#00E400,#00E400,330424002,优,#00E400,嘉兴市,#00E400,优,32,32,#00E400,72,2026-05-03 16:00:00
77,优,330523,108,30.5974,优,--,34,4,97,优,#00E400,#00E400,5,安吉城东,#00E400,34,优,优,优,330500,#00E400,119.6953,#00E400,15,优,0.4,优,#00E400,#00E400,330523002,优,#00E400,湖州市,#00E400,优,24,22,#00E400,72,2026-05-03 16:00:00
78,优,330683,106,29.5663,优,--,31,9,99,优,#00E400,#00E400,4,丽湖小区,#00E400,34,优,优,优,330600,#00E400,120.8173,#00E400,10,优,0.6,优,#00E400,#00E400,330683002,优,#00E400,绍兴市,#00E400,优,20,18,#00E400,72,2026-05-03 16:00:00
79,优,330624,107,29.5036,优,--,29,7,97,优,#00E400,#00E400,5,钟楼站,#00E400,34,优,优,优,330600,#00E400,120.8938,#00E400,10,优,0.5,优,#00E400,#00E400,330624001,优,#00E400,绍兴市,#00E400,优,14,17,#00E400,72,2026-05-03 16:00:00
80,优,330784,106,28.8854,优,--,37,6,75,优,#00E400,#00E400,7,永康一中,#00E400,34,优,优,优,330700,#00E400,120.0439,#00E400,10,优,0.6,优,#00E400,#00E400,330784001,优,#00E400,金华市,#00E400,优,23,18,#00E400,72,2026-05-03 16:00:00
81,优,330825,108,29.0464,优,--,46,2,87,优,#00E400,#00E400,4,龙游二高,#00E400,34,优,优,优,330800,#00E400,119.204,#00E400,12,优,0.4,优,#00E400,#00E400,330825002,优,#00E400,衢州市,#00E400,优,16,28,#00E400,72,2026-05-03 16:00:00
82,优,330922,107,30.7269,优,--,32,15,91,优,#00E400,#00E400,7,嵊泗菜园,#00E400,34,优,优,优,330900,#00E400,122.4464,#00E400,23,优,0.6,优,#00E400,#00E400,330922001,优,#00E400,舟山市,#00E400,优,24,22,#00E400,72,2026-05-03 16:00:00
83,优,330521,106,30.548493,优,--,34,4,98,优,#00E400,#00E400,5,春晖小学,#00E400,34,优,优,优,330500,#00E400,119.9505,#00E400,19,优,0.6,优,#00E400,#00E400,330521003,优,#00E400,湖州市,#00E400,优,27,24,#00E400,72,2026-05-03 16:00:00
84,优,330681,109,29.7257,优,--,40,2,91,优,#00E400,#00E400,8,城新小学,#00E400,35,优,优,优,330600,#00E400,120.272,#00E400,17,优,0.5,优,#00E400,#00E400,330681505,优,#00E400,绍兴市,#00E400,优,23,25,#00E400,85,2026-05-03 16:00:00
85,优,330803,111,28.9844,优,--,33,4,95,优,#00E400,#00E400,7,衢州三中（市）,#00E400,35,优,优,优,330800,#00E400,118.9628,#00E400,14,优,0.5,优,#00E400,#00E400,330803704,优,#00E400,衢州市,#00E400,优,23,21,#00E400,85,2026-05-03 16:00:00
86,良,330182,110,29.4638,优,--,27,3,110,优,#00E400,#00E400,4,第二中学,#FFFF00,35,优,优,优,330100,#00E400,119.2821,#00E400,15,优,0.6,优,#00E400,#00E400,330182002,优,#00E400,杭州市,#00E400,优,20,19,#00E400,85,2026-05-03 16:00:00
87,良,330281,112,30.0358,优,--,31,17,109,优,#00E400,#00E400,7,姚江小学,#FFFF00,35,优,优,优,330200,#00E400,121.1221,#00E400,23,优,0.5,优,#00E400,#00E400,330281002,优,#00E400,宁波市,#00E400,优,31,25,#00E400,85,2026-05-03 16:00:00
88,良,330282,109,30.1636,优,--,40,10,108,优,#00E400,#00E400,4,慈溪环保大楼,#FFFF00,35,优,优,优,330200,#00E400,121.2677,#00E400,23,优,0.6,优,#00E400,#00E400,330282001,优,#00E400,宁波市,#00E400,优,30,22,#00E400,85,2026-05-03 16:00:00
89,优,330723,112,28.896108,优,--,45,7,90,优,#00E400,#00E400,9,武义县政府,#00E400,35,优,优,优,330700,#00E400,119.811352,#00E400,19,优,0.6,优,#00E400,#00E400,330723001,优,#00E400,金华市,#00E400,优,22,31,#00E400,85,2026-05-03 16:00:00
90,优,330727,110,29.051486,优,--,30,11,81,优,#00E400,#00E400,8,国税大楼,#00E400,35,优,优,优,330700,#00E400,120.438346,#00E400,17,优,0.6,优,#00E400,#00E400,330727002,优,#00E400,金华市,#00E400,优,22,21,#00E400,85,2026-05-03 16:00:00
91,优,330727,109,29.039869,优,--,22,7,81,优,#00E400,#00E400,6,南园初中,#00E400,35,优,优,优,330700,#00E400,120.440622,#00E400,14,优,0.7,优,#00E400,#00E400,330727003,优,#00E400,金华市,#00E400,优,20,14,#00E400,85,2026-05-03 16:00:00
92,优,330723,109,28.9178,优,--,41,8,88,优,#00E400,#00E400,8,武义北岭幼儿园,#00E400,35,优,优,优,330700,#00E400,119.8022,#00E400,13,优,0.6,优,#00E400,#00E400,330723003,优,#00E400,金华市,#00E400,优,23,22,#00E400,85,2026-05-03 16:00:00
93,优,330213,113,29.693,优,--,28,9,100,优,#00E400,#00E400,5,溪口政府大楼,#00E400,36,优,优,优,330200,#00E400,121.2774,#00E400,17,优,0.4,优,#00E400,#00E400,330283T_1,优,#00E400,宁波市,#00E400,优,25,18,#00E400,94,2026-05-03 16:00:00
94,良,330282,110,30.1786,优,--,41,8,109,优,#00E400,#00E400,4,慈溪实验小学,#FFFF00,36,优,优,优,330200,#00E400,121.2525,#00E400,25,优,0.6,优,#00E400,#00E400,330282002,优,#00E400,宁波市,#00E400,优,32,22,#00E400,94,2026-05-03 16:00:00
95,优,330226,113,29.3125,优,--,32,12,90,优,#00E400,#00E400,6,宁海水利局,#00E400,36,优,优,优,330200,#00E400,121.4306,#00E400,12,优,0.5,优,#00E400,#00E400,330226001,优,#00E400,宁波市,#00E400,优,16,19,#00E400,94,2026-05-03 16:00:00
96,优,330226,114,29.2878,优,--,31,8,90,优,#00E400,#00E400,6,宁海城南站,#00E400,36,优,优,优,330200,#00E400,121.4201,#00E400,11,优,0.4,优,#00E400,#00E400,330226002,优,#00E400,宁波市,#00E400,优,14,20,#00E400,94,2026-05-03 16:00:00
97,优,330382,85,28.0297,优,--,37,21,72,优,#00E400,#00E400,4,柳市,#00E400,36,优,优,优,330300,#00E400,120.891,#00E400,25,优,0.5,优,#00E400,#00E400,330382002,优,#00E400,温州市,#00E400,优,32,22,#00E400,94,2026-05-03 16:00:00
98,优,330326,67,27.6593,优,--,40,12,59,优,#00E400,#00E400,9,平阳监测站,#00E400,36,优,优,优,330300,#00E400,120.5705,#00E400,25,优,0.8,优,#00E400,#00E400,330326001,优,#00E400,温州市,#00E400,优,31,26,#00E400,94,2026-05-03 16:00:00
99,良,330482,115,30.6937,优,--,45,10,104,优,#00E400,#00E400,7,平湖幼儿园,#FFFF00,36,优,优,优,330400,#00E400,121.0259,#00E400,22,优,0.5,优,#00E400,#00E400,330482001,优,#00E400,嘉兴市,#00E400,优,30,32,#00E400,94,2026-05-03 16:00:00
100,良,330421,114,30.836,优,--,48,8,103,优,#00E400,#00E400,4,嘉善监测大楼,#FFFF00,36,优,优,优,330400,#00E400,120.9226,#00E400,25,优,0.6,优,#00E400,#00E400,330421001,优,#00E400,嘉兴市,#00E400,优,32,34,#00E400,94,2026-05-03 16:00:00
101,--,331083,64,28.12715,优,--,32,25,--,优,#00E400,#00E400,9,玉环环监站,--,36,优,优,优,331000,#00E400,121.2339,#00E400,25,优,0.9,优,#00E400,#00E400,331021001,优,#00E400,台州市,#00E400,优,32,21,#00E400,94,2026-05-03 16:00:00
102,优,330383,105,27.5617,优,--,52,12,76,优,#00E400,#00E400,9,龙港实验中学,#00E400,36,优,优,良,330300,#00E400,120.5355,#00E400,25,优,0.6,优,#00E400,#00E400,330303101,优,#00E400,温州市,#00E400,优,35,33,#FFFF00,94,2026-05-03 16:00:00
103,优,330213,116,29.6506,优,--,29,10,97,优,#00E400,#00E400,7,奉化教育局,#00E400,37,优,优,优,330200,#00E400,121.4042,#00E400,21,优,0.4,优,#00E400,#00E400,330283005,优,#00E400,宁波市,#00E400,优,26,15,#00E400,104,2026-05-03 16:00:00
104,优,330225,118,29.4767,优,--,26,10,94,优,#00E400,#00E400,8,文峰小学,#00E400,37,优,优,优,330200,#00E400,121.8864,#00E400,21,优,0.6,优,#00E400,#00E400,330225001,优,#00E400,宁波市,#00E400,优,27,16,#00E400,104,2026-05-03 16:00:00
105,良,330522,116,31.0143,优,--,33,8,101,优,#00E400,#00E400,6,职教中心,#FFFF00,37,优,优,优,330500,#00E400,119.8935,#00E400,17,优,0.4,优,#00E400,#00E400,330522001,优,#00E400,湖州市,#00E400,优,25,25,#00E400,104,2026-05-03 16:00:00
106,良,330522,116,31.0263,优,--,32,10,101,优,#00E400,#00E400,4,龙山新区,#FFFF00,37,优,优,优,330500,#00E400,119.9046,#00E400,16,优,0.5,优,#00E400,#00E400,330522002,优,#00E400,湖州市,#00E400,优,24,24,#00E400,104,2026-05-03 16:00:00
107,良,330825,117,29.0392,优,--,44,6,102,优,#00E400,#00E400,5,建设大楼,#FFFF00,37,优,优,优,330800,#00E400,119.1675,#00E400,14,优,0.5,优,#00E400,#00E400,330825001,优,#00E400,衢州市,#00E400,优,20,29,#00E400,104,2026-05-03 16:00:00
108,良,330483,117,30.7369,优,--,42,3,103,优,#00E400,#00E400,10,植材小学,#FFFF00,37,优,优,优,330400,#00E400,120.4902,#00E400,22,优,0.7,优,#00E400,#00E400,330483509,优,#00E400,嘉兴市,#00E400,优,33,31,#00E400,104,2026-05-03 16:00:00
109,良,330421,121,30.8307,优,--,46,5,110,优,#00E400,#00E400,7,气象观测台,#FFFF00,38,优,优,优,330400,#00E400,120.9356,#00E400,20,优,0.5,优,#00E400,#00E400,330421002,优,#00E400,嘉兴市,#00E400,优,30,29,#00E400,110,2026-05-03 16:00:00
110,良,330213,122,29.6774,优,--,32,9,105,优,#00E400,#00E400,5,大桥市场,#FFFF00,39,优,优,优,330200,#00E400,121.4237,#00E400,21,优,0.5,优,#00E400,#00E400,330213001,优,#00E400,宁波市,#00E400,优,28,19,#00E400,111,2026-05-03 16:00:00
111,良,330921,122,30.2517,优,--,38,12,101,优,#00E400,#00E400,7,岱山高亭,#FFFF00,39,优,优,优,330900,#00E400,122.1958,#00E400,25,优,0.3,优,#00E400,#00E400,330921002,优,#00E400,舟山市,#00E400,优,34,23,#00E400,111,2026-05-03 16:00:00
112,良,330921,133,30.2669,优,--,35,10,108,优,#00E400,#00E400,7,岱山环保大楼,#FFFF00,42,优,优,优,330900,#00E400,122.2199,#00E400,26,优,0.6,优,#00E400,#00E400,330921001,优,#00E400,舟山市,#00E400,优,31,23,#00E400,113,2026-05-03 16:00:00
113,良,330212,134,29.7736,优,--,32,11,112,优,#00E400,#00E400,4,钱湖水厂,#FFFF00,42,优,优,优,330200,#00E400,121.6330,#00E400,28,优,0.5,优,#00E400,#00E400,2013302120001,优,#00E400,宁波市,#00E400,优,35,21,#00E400,113,2026-05-03 16:00:00
114,优,330327,80,27.522222,优,PM₂.₅,52,21,71,优,#FFFF00,#FFFF00,8,苍南中学,#00E400,84,优,良,良,330300,#00E400,120.416111,#00E400,52,良,0.7,良,#00E400,#00E400,330327004,优,#FFFF00,温州市,#00E400,优,70,29,#FFFF00,115,2026-05-03 16:00:00
115,优,330327,75,27.503889,优,PM₁₀,60,18,73,优,#FFFF00,#FFFF00,9,灵溪,#00E400,98,优,良,良,330300,#00E400,120.395278,#00E400,50,良,0.6,良,#00E400,#00E400,330327001,优,#FFFF00,温州市,#00E400,优,117,27,#FFFF00,116,2026-05-03 16:00:00
116,优,330127,89,29.5995,优,--,32,5,86,优,#00E400,#00E400,--,淳安环保大楼,#00E400,--,优,--,优,330100,--,119.0481,#00E400,17,优,0.6,优,#00E400,#00E400,330127001,优,--,杭州市,#00E400,--,20,21,#00E400,117,2026-05-03 16:00:00
117,优,331125,64,28.1062,--,--,43,17,50,优,#00E400,#00E400,6,云和三中,#00E400,--,优,--,优,331100,#00E400,119.5728,#00E400,7,优,--,优,--,#00E400,331125002,优,--,丽水市,#00E400,优,19,22,#00E400,117,2026-05-03 16:00:00
