,O3H8_level,regioncode,O3,latitude,CO_level,SYWRW,PM10H24,NO2,O3H8,O3_level,PM10_color,PM25_color,SO2,sitename,O3H8_color,AQI,NO2_level,AQI_level,PM10H24_level,districtcode,SO2_color,longitude,NO2_color,PM25,PM10_level,CO,PM25_level,CO_color,PM25H24_color,sitecode,PM25H24_level,AQI_color,districtname,O3_color,SO2_level,PM10,PM25H24,PM10H24_color,sort,time
0,良,330182,72,29.4769,优,--,24,7,102,优,#00E400,#00E400,8,建德监测大楼,#FFFF00,23,优,优,优,330100,#00E400,119.2711,#00E400,10,优,0.4,优,#00E400,#00E400,330182T_2,优,#00E400,杭州市,#00E400,优,22,12,#00E400,1,2026-05-16 21:00:00
1,良,330182,61,29.4638,优,--,23,34,102,优,#00E400,#00E400,3,第二中学,#FFFF00,24,优,优,优,330100,#00E400,119.2821,#00E400,10,优,0.4,优,#00E400,#00E400,330182002,优,#00E400,杭州市,#00E400,优,24,12,#00E400,2,2026-05-16 21:00:00
2,优,330381,76,27.782284,优,--,19,9,85,优,#00E400,#00E400,8,安阳新区,#00E400,24,优,优,优,330300,#00E400,120.650915,#00E400,8,优,0.4,优,#00E400,--,330381002,--,#00E400,温州市,#00E400,优,19,--,#00E400,2,2026-05-16 21:00:00
3,优,330328,56,27.804722,优,--,23,3,100,优,#00E400,#00E400,7,文成中学,#00E400,24,优,优,优,330300,#00E400,120.077222,#00E400,11,优,0.3,优,#00E400,#00E400,330328002,优,#00E400,温州市,#00E400,优,24,10,#00E400,2,2026-05-16 21:00:00
4,良,331121,76,28.1094,优,--,30,10,103,优,#00E400,#00E400,4,青田中学,#FFFF00,24,优,优,优,331100,#00E400,120.3161,#00E400,7,优,0.4,优,#00E400,#00E400,331121002,优,#00E400,丽水市,#00E400,优,24,13,#00E400,2,2026-05-16 21:00:00
5,优,330305,80,27.8342,优,--,24,8,90,优,#00E400,#00E400,7,洞头气象局,#00E400,25,优,优,优,330300,#00E400,121.1502,#00E400,5,优,0.4,优,#00E400,#00E400,330305001,优,#00E400,温州市,#00E400,优,23,9,#00E400,6,2026-05-16 21:00:00
6,优,330324,45,28.158269,优,--,24,18,83,优,#00E400,#00E400,7,上塘,#00E400,25,优,优,优,330300,#00E400,120.694244,#00E400,12,优,0.5,优,#00E400,#00E400,330324001,优,#00E400,温州市,#00E400,优,25,9,#00E400,6,2026-05-16 21:00:00
7,优,330326,75,27.6653,优,--,22,7,82,优,#00E400,#00E400,6,平阳县政府,#00E400,25,优,优,优,330300,#00E400,120.5611,#00E400,10,优,0.5,优,#00E400,#00E400,330326002,优,#00E400,温州市,#00E400,优,25,11,#00E400,6,2026-05-16 21:00:00
8,优,330624,79,29.5036,优,--,21,8,94,优,#00E400,#00E400,4,钟楼站,#00E400,25,优,优,优,330600,#00E400,120.8938,#00E400,8,优,0.4,优,#00E400,#00E400,330624001,优,#00E400,绍兴市,#00E400,优,23,10,#00E400,6,2026-05-16 21:00:00
9,优,330624,75,29.4938,优,--,21,9,90,优,#00E400,#00E400,4,城东站,#00E400,25,优,优,优,330600,#00E400,120.9109,#00E400,12,优,0.4,优,#00E400,#00E400,330624002,优,#00E400,绍兴市,#00E400,优,25,11,#00E400,6,2026-05-16 21:00:00
10,优,330781,78,29.229931,优,--,19,10,90,优,#00E400,#00E400,8,兰溪八中,#00E400,25,优,优,优,330700,#00E400,119.475172,#00E400,10,优,0.3,优,#00E400,#00E400,330781002,优,#00E400,金华市,#00E400,优,16,11,#00E400,6,2026-05-16 21:00:00
11,良,330824,77,29.1478,优,--,18,10,107,优,#00E400,#00E400,7,开化监测大楼,#FFFF00,25,优,优,优,330800,#00E400,118.4108,#00E400,10,优,0.3,优,#00E400,#00E400,330824002,优,#00E400,衢州市,#00E400,优,24,8,#00E400,6,2026-05-16 21:00:00
12,优,330824,68,29.1343,优,--,22,10,99,优,#00E400,#00E400,5,开化气象局,#00E400,25,优,优,优,330800,#00E400,118.402,#00E400,7,优,0.2,优,#00E400,#00E400,330824001,优,#00E400,衢州市,#00E400,优,25,6,#00E400,6,2026-05-16 21:00:00
13,良,330424,81,30.5299,优,--,25,21,110,优,#00E400,#00E400,5,海盐商贸学校,#FFFF00,26,优,优,优,330400,#00E400,120.9293,#00E400,11,优,0.3,优,#00E400,#00E400,330424002,优,#00E400,嘉兴市,#00E400,优,25,15,#00E400,14,2026-05-16 21:00:00
14,优,330683,81,29.5901,优,--,22,8,95,优,#00E400,#00E400,5,马寅初初中,#00E400,26,优,优,优,330600,#00E400,120.8249,#00E400,9,优,0.3,优,#00E400,#00E400,330683001,优,#00E400,绍兴市,#00E400,优,23,11,#00E400,14,2026-05-16 21:00:00
15,优,331024,72,28.7403,优,--,22,17,94,优,#00E400,#00E400,6,新生中学,#00E400,26,优,优,优,331000,#00E400,120.4728,#00E400,11,优,0.4,优,#00E400,#00E400,331024002,优,#00E400,台州市,#00E400,优,26,11,#00E400,14,2026-05-16 21:00:00
16,优,331023,82,29.1504,优,--,22,9,95,优,#00E400,#00E400,6,育青中学,#00E400,26,优,优,优,331000,#00E400,121.0091,#00E400,9,优,0.4,优,#00E400,#00E400,331023001,优,#00E400,台州市,#00E400,优,22,12,#00E400,14,2026-05-16 21:00:00
17,优,331023,83,29.1342,优,--,20,7,95,优,#00E400,#00E400,6,天台实验中学,#00E400,26,优,优,优,331000,#00E400,121.0349,#00E400,8,优,0.4,优,#00E400,#00E400,331023002,优,#00E400,台州市,#00E400,优,14,9,#00E400,14,2026-05-16 21:00:00
18,良,331125,81,28.1173,优,--,15,17,104,优,#00E400,#00E400,6,云和监测楼,#FFFF00,26,优,优,优,331100,#00E400,119.5626,#00E400,10,优,0.3,优,#00E400,#00E400,331125001,优,#00E400,丽水市,#00E400,优,19,8,#00E400,14,2026-05-16 21:00:00
19,良,330127,86,29.5995,优,--,25,7,105,优,#00E400,#00E400,9,淳安环保大楼,#FFFF00,27,优,优,优,330100,#00E400,119.0481,#00E400,9,优,0.6,优,#00E400,#00E400,330127001,优,#00E400,杭州市,#00E400,优,25,11,#00E400,20,2026-05-16 21:00:00
20,优,330213,85,29.693,优,--,26,8,100,优,#00E400,#00E400,6,溪口政府大楼,#00E400,27,优,优,优,330200,#00E400,121.2774,#00E400,14,优,0.3,优,#00E400,#00E400,330283T_1,优,#00E400,宁波市,#00E400,优,26,15,#00E400,20,2026-05-16 21:00:00
21,良,330282,85,30.1636,优,--,25,12,101,优,#00E400,#00E400,13,慈溪环保大楼,#FFFF00,27,优,优,优,330200,#00E400,121.2677,#00E400,9,优,0.4,优,#00E400,#00E400,330282001,优,#00E400,宁波市,#00E400,优,26,11,#00E400,20,2026-05-16 21:00:00
22,优,330326,70,27.6593,优,--,23,6,82,优,#00E400,#00E400,10,平阳监测站,#00E400,27,优,优,优,330300,#00E400,120.5705,#00E400,9,优,0.4,优,#00E400,#00E400,330326001,优,#00E400,温州市,#00E400,优,27,10,#00E400,20,2026-05-16 21:00:00
23,良,330421,85,30.8307,优,--,26,14,104,优,#00E400,#00E400,9,气象观测台,#FFFF00,27,优,优,优,330400,#00E400,120.9356,#00E400,7,优,0.4,优,#00E400,#00E400,330421002,优,#00E400,嘉兴市,#00E400,优,25,12,#00E400,20,2026-05-16 21:00:00
24,良,330726,86,29.465746,优,--,22,13,104,优,#00E400,#00E400,6,浦江实验中学,#FFFF00,27,优,优,优,330700,#00E400,119.875227,#00E400,10,优,0.4,优,#00E400,#00E400,330726001,优,#00E400,金华市,#00E400,优,22,10,#00E400,20,2026-05-16 21:00:00
25,良,330727,80,29.039869,优,--,22,16,107,优,#00E400,#00E400,6,南园初中,#FFFF00,27,优,优,优,330700,#00E400,120.440622,#00E400,11,优,0.4,优,#00E400,#00E400,330727003,优,#00E400,金华市,#00E400,优,27,10,#00E400,20,2026-05-16 21:00:00
26,优,331024,84,28.8589,优,--,21,12,95,优,#00E400,#00E400,8,仙居环监站,#00E400,27,优,优,优,331000,#00E400,120.7248,#00E400,6,优,0.5,优,#00E400,#00E400,331024001,优,#00E400,台州市,#00E400,优,20,10,#00E400,20,2026-05-16 21:00:00
27,优,331022,85,29.11779,优,--,23,9,90,优,#00E400,#00E400,6,三门环监楼,#00E400,27,优,优,优,331000,#00E400,121.382189,#00E400,10,优,0.4,优,#00E400,#00E400,331022001,优,#00E400,台州市,#00E400,优,27,10,#00E400,20,2026-05-16 21:00:00
28,良,331123,72,28.5839,优,--,22,13,103,优,#00E400,#00E400,7,遂昌中学,#FFFF00,27,优,优,优,331100,#00E400,119.2656,#00E400,9,优,0.4,优,#00E400,#00E400,331123002,优,#00E400,丽水市,#00E400,优,27,9,#00E400,20,2026-05-16 21:00:00
29,良,331127,72,27.9772,优,--,26,14,103,优,#00E400,#00E400,3,景宁县政府,#FFFF00,27,优,优,优,331100,#00E400,119.6311,#00E400,12,优,0.5,优,#00E400,#00E400,331127002,优,#00E400,丽水市,#00E400,优,27,9,#00E400,20,2026-05-16 21:00:00
30,优,330782,86,29.3686,优,--,26,12,96,优,#00E400,#00E400,8,第五中学,#00E400,27,优,优,优,330700,#00E400,120.1345,#00E400,11,优,0.4,优,#00E400,#00E400,330782003,优,#00E400,金华市,#00E400,优,24,13,#00E400,20,2026-05-16 21:00:00
31,优,331127,62,28.002222,优,--,21,18,100,优,#00E400,#00E400,5,红星小学,#00E400,28,优,优,优,331100,#00E400,119.636389,#00E400,13,优,0.4,优,#00E400,#00E400,331127003,优,#00E400,丽水市,#00E400,优,28,9,#00E400,32,2026-05-16 21:00:00
32,优,330213,88,29.6774,优,--,25,8,97,优,#00E400,#00E400,6,大桥市场,#00E400,28,优,优,优,330200,#00E400,121.4237,#00E400,10,优,0.4,优,#00E400,#00E400,330213001,优,#00E400,宁波市,#00E400,优,24,14,#00E400,32,2026-05-16 21:00:00
33,良,330282,87,30.1786,优,--,25,12,104,优,#00E400,#00E400,6,慈溪实验小学,#FFFF00,28,优,优,优,330200,#00E400,121.2525,#00E400,11,优,0.4,优,#00E400,#00E400,330282002,优,#00E400,宁波市,#00E400,优,27,12,#00E400,32,2026-05-16 21:00:00
34,良,330225,88,29.2003,优,--,27,9,106,优,#00E400,#00E400,7,石浦新港小学,#FFFF00,28,优,优,优,330200,#00E400,121.934,#00E400,12,优,0.3,优,#00E400,#00E400,330225002,优,#00E400,宁波市,#00E400,优,28,13,#00E400,32,2026-05-16 21:00:00
35,良,330329,87,27.5438,优,--,15,6,103,优,#00E400,#00E400,6,泰顺实验中学,#FFFF00,28,优,优,优,330300,#00E400,119.716111,#00E400,6,优,0.2,优,#00E400,#00E400,330329002,优,#00E400,温州市,#00E400,优,19,7,#00E400,32,2026-05-16 21:00:00
36,优,330482,78,30.7292,优,--,23,14,100,优,#00E400,#00E400,9,陆家桥村,#00E400,28,优,优,优,330400,#00E400,120.9953,#00E400,12,优,0.5,优,#00E400,#00E400,330482002,优,#00E400,嘉兴市,#00E400,优,28,14,#00E400,32,2026-05-16 21:00:00
37,优,330421,79,30.836,优,--,29,16,95,优,#00E400,#00E400,5,嘉善监测大楼,#00E400,28,优,优,优,330400,#00E400,120.9226,#00E400,10,优,0.3,优,#00E400,#00E400,330421001,优,#00E400,嘉兴市,#00E400,优,28,15,#00E400,32,2026-05-16 21:00:00
38,良,330424,67,30.5042,优,--,28,23,104,优,#00E400,#00E400,7,高级中学,#FFFF00,28,优,优,优,330400,#00E400,120.9413,#00E400,14,优,0.3,优,#00E400,#00E400,330424001,优,#00E400,嘉兴市,#00E400,优,28,17,#00E400,32,2026-05-16 21:00:00
39,优,330683,87,29.5663,优,--,20,13,99,优,#00E400,#00E400,4,丽湖小区,#00E400,28,优,优,优,330600,#00E400,120.8173,#00E400,13,优,0.4,优,#00E400,#00E400,330683002,优,#00E400,绍兴市,#00E400,优,22,11,#00E400,32,2026-05-16 21:00:00
40,良,330726,80,29.439787,优,--,24,23,101,优,#00E400,#00E400,4,浦江中学,#FFFF00,28,优,优,优,330700,#00E400,119.924638,#00E400,4,优,0.3,优,#00E400,#00E400,330726002,优,#00E400,金华市,#00E400,优,28,9,#00E400,32,2026-05-16 21:00:00
41,优,330781,79,29.216166,优,--,23,14,97,优,#00E400,#00E400,7,兰溪监测站,#00E400,28,优,优,优,330700,#00E400,119.459992,#00E400,11,优,0.4,优,#00E400,#00E400,330781001,优,#00E400,金华市,#00E400,优,28,11,#00E400,32,2026-05-16 21:00:00
42,优,330783,87,29.27739,优,--,21,7,97,优,#00E400,#00E400,5,东阳环保大楼,#00E400,28,优,优,优,330700,#00E400,120.23692,#00E400,6,优,0.4,优,#00E400,#00E400,330783002,优,#00E400,金华市,#00E400,优,12,12,#00E400,32,2026-05-16 21:00:00
43,优,330881,89,28.7282,优,--,23,10,96,优,#00E400,#00E400,7,人民医院,#00E400,28,优,优,优,330800,#00E400,118.6227,#00E400,10,优,0.3,优,#00E400,#00E400,330881002,优,#00E400,衢州市,#00E400,优,27,12,#00E400,32,2026-05-16 21:00:00
44,优,331083,89,28.2221,优,--,22,9,94,优,#00E400,#00E400,5,楚门中心小学,#00E400,28,优,优,优,331000,#00E400,121.2846,#00E400,11,优,0.6,优,#00E400,#00E400,331021002,优,#00E400,台州市,#00E400,优,27,10,#00E400,32,2026-05-16 21:00:00
45,优,331082,73,28.873,优,--,24,17,94,优,#00E400,#00E400,7,临海环保大楼,#00E400,28,优,优,优,331000,#00E400,121.1769,#00E400,12,优,0.4,优,#00E400,#00E400,331082001,优,#00E400,台州市,#00E400,优,28,12,#00E400,32,2026-05-16 21:00:00
46,优,331081,79,28.37558,优,--,24,11,82,优,#00E400,#00E400,5,温岭环监站,#00E400,28,优,优,优,331000,#00E400,121.36579,#00E400,14,优,0.3,优,#00E400,#00E400,331081001,优,#00E400,台州市,#00E400,优,28,10,#00E400,32,2026-05-16 21:00:00
47,优,331081,88,28.39136,优,--,21,3,96,优,#00E400,#00E400,3,之江高级中学,#00E400,28,优,优,优,331000,#00E400,121.37696,#00E400,10,优,0.4,优,#00E400,#00E400,331081002,优,#00E400,台州市,#00E400,优,23,12,#00E400,32,2026-05-16 21:00:00
48,优,330212,89,29.7736,优,--,20,10,99,优,#00E400,#00E400,4,钱湖水厂,#00E400,28,优,优,优,330200,#00E400,121.6330,#00E400,12,优,0.4,优,#00E400,#00E400,2013302120001,优,#00E400,宁波市,#00E400,优,26,11,#00E400,32,2026-05-16 21:00:00
49,良,330281,82,30.0358,优,--,26,15,103,优,#00E400,#00E400,5,姚江小学,#FFFF00,29,优,优,优,330200,#00E400,121.1221,#00E400,14,优,0.4,优,#00E400,#00E400,330281002,优,#00E400,宁波市,#00E400,优,29,14,#00E400,50,2026-05-16 21:00:00
50,优,330329,70,27.557,优,--,16,10,99,优,#00E400,#00E400,5,罗阳,#00E400,29,优,优,优,330300,#00E400,119.7084,#00E400,20,优,0.4,优,#00E400,#00E400,330329001,优,#00E400,温州市,#00E400,优,25,11,#00E400,50,2026-05-16 21:00:00
51,优,330327,79,27.503889,优,--,22,3,85,优,#00E400,#00E400,9,灵溪,#00E400,29,优,优,优,330300,#00E400,120.395278,#00E400,10,优,0.3,优,#00E400,#00E400,330327001,优,#00E400,温州市,#00E400,优,29,10,#00E400,50,2026-05-16 21:00:00
52,良,330482,77,30.6937,优,--,25,13,104,优,#00E400,#00E400,8,平湖幼儿园,#FFFF00,29,优,优,优,330400,#00E400,121.0259,#00E400,11,优,0.3,优,#00E400,#00E400,330482001,优,#00E400,嘉兴市,#00E400,优,29,13,#00E400,50,2026-05-16 21:00:00
53,良,330481,75,30.5137,优,--,29,9,102,优,#00E400,#00E400,8,硖石街道,#FFFF00,29,优,优,优,330400,#00E400,120.7082,#00E400,12,优,0.4,优,#00E400,#00E400,330481002,优,#00E400,嘉兴市,#00E400,优,29,14,#00E400,50,2026-05-16 21:00:00
54,良,330522,91,31.0263,优,--,23,16,121,优,#00E400,#00E400,6,龙山新区,#FFFF00,29,优,优,优,330500,#00E400,119.9046,#00E400,12,优,0.5,优,#00E400,#00E400,330522002,优,#00E400,湖州市,#00E400,优,29,12,#00E400,50,2026-05-16 21:00:00
55,优,330681,91,29.6818,优,--,20,5,99,优,#00E400,#00E400,7,杨树畈,#00E400,29,优,优,优,330600,#00E400,120.2359,#00E400,4,优,0.4,优,#00E400,--,330681001,--,#00E400,绍兴市,#00E400,优,13,--,#00E400,50,2026-05-16 21:00:00
56,优,330784,92,28.8854,优,--,21,13,100,优,#00E400,#00E400,7,永康一中,#00E400,29,优,优,优,330700,#00E400,120.0439,#00E400,8,优,0.4,优,#00E400,#00E400,330784001,优,#00E400,金华市,#00E400,优,18,11,#00E400,50,2026-05-16 21:00:00
57,优,330784,91,28.90016,优,--,29,5,90,优,#00E400,#00E400,8,西城供电所,#00E400,29,优,优,优,330700,#00E400,120.01452,#00E400,7,优,0.3,优,#00E400,#00E400,330784002,优,#00E400,金华市,#00E400,优,19,14,#00E400,50,2026-05-16 21:00:00
58,优,330922,79,30.7269,优,--,21,4,83,优,#00E400,#00E400,8,嵊泗菜园,#00E400,29,优,优,优,330900,#00E400,122.4464,#00E400,13,优,0.3,优,#00E400,#00E400,330922001,优,#00E400,舟山市,#00E400,优,29,11,#00E400,50,2026-05-16 21:00:00
59,优,330213,93,29.6506,优,--,24,5,100,优,#00E400,#00E400,9,奉化教育局,#00E400,30,优,优,优,330200,#00E400,121.4042,#00E400,11,优,0.4,优,#00E400,#00E400,330283005,优,#00E400,宁波市,#00E400,优,24,13,#00E400,60,2026-05-16 21:00:00
60,优,330226,96,29.3125,优,--,24,8,98,优,#00E400,#00E400,6,宁海水利局,#00E400,30,优,优,优,330200,#00E400,121.4306,#00E400,12,优,0.3,优,#00E400,#00E400,330226001,优,#00E400,宁波市,#00E400,优,30,10,#00E400,60,2026-05-16 21:00:00
61,优,330383,78,27.5812,优,--,25,10,84,优,#00E400,#00E400,8,龙港,#00E400,30,优,优,优,330300,#00E400,120.5489,#00E400,10,优,0.4,优,#00E400,#00E400,330327002,优,#00E400,温州市,#00E400,优,30,11,#00E400,60,2026-05-16 21:00:00
62,良,330782,93,29.305096,优,--,25,11,106,优,#00E400,#00E400,6,江东,#FFFF00,30,优,优,优,330700,#00E400,120.090442,#00E400,10,优,0.4,优,#00E400,#00E400,330782002,优,#00E400,金华市,#00E400,优,28,11,#00E400,60,2026-05-16 21:00:00
63,优,330783,90,29.30093,优,--,25,12,99,优,#00E400,#00E400,6,广厦学院,#00E400,30,优,优,优,330700,#00E400,120.24157,#00E400,11,优,0.5,优,#00E400,#00E400,330783001,优,#00E400,金华市,#00E400,优,30,11,#00E400,60,2026-05-16 21:00:00
64,优,331121,71,28.1341,优,--,33,16,99,优,#00E400,#00E400,6,塔山小学,#00E400,30,优,优,优,331100,#00E400,120.2936,#00E400,10,优,0.4,优,#00E400,#00E400,331121001,优,#00E400,丽水市,#00E400,优,30,15,#00E400,60,2026-05-16 21:00:00
65,良,331122,96,28.6574,优,--,20,15,105,优,#00E400,#00E400,8,缙云中学,#FFFF00,30,优,优,优,331100,#00E400,120.0696,#00E400,9,优,0.4,优,#00E400,#00E400,331122001,优,#00E400,丽水市,#00E400,优,19,9,#00E400,60,2026-05-16 21:00:00
66,优,331122,95,28.6628,优,--,25,19,100,优,#00E400,#00E400,7,信访大楼,#00E400,30,优,优,优,331100,#00E400,120.0856,#00E400,12,优,0.4,优,#00E400,#00E400,331122002,优,#00E400,丽水市,#00E400,优,20,12,#00E400,60,2026-05-16 21:00:00
67,良,331124,95,28.4505,优,--,19,15,107,优,#00E400,#00E400,5,松阳监测楼,#FFFF00,30,优,优,优,331100,#00E400,119.4799,#00E400,10,优,0.3,优,#00E400,#00E400,331124001,优,#00E400,丽水市,#00E400,优,14,10,#00E400,60,2026-05-16 21:00:00
68,良,331124,96,28.4516,优,--,19,12,103,优,#00E400,#00E400,6,和平水厂,#FFFF00,30,优,优,优,331100,#00E400,119.4699,#00E400,10,优,0.3,优,#00E400,#00E400,331124002,优,#00E400,丽水市,#00E400,优,22,10,#00E400,60,2026-05-16 21:00:00
69,良,330723,95,28.9178,优,--,18,15,108,优,#00E400,#00E400,8,武义北岭幼儿园,#FFFF00,30,优,优,优,330700,#00E400,119.8022,#00E400,13,优,0.4,优,#00E400,#00E400,330723003,优,#00E400,金华市,#00E400,优,17,12,#00E400,60,2026-05-16 21:00:00
70,良,330483,71,30.6355,优,--,29,12,108,优,#00E400,#00E400,9,文化中心,#FFFF00,30,优,优,优,330400,#00E400,120.5795,#00E400,11,优,0.5,优,#00E400,#00E400,330483003,优,#00E400,嘉兴市,#00E400,优,30,14,#00E400,60,2026-05-16 21:00:00
71,良,330803,97,28.9844,优,--,24,14,113,优,#00E400,#00E400,5,衢州三中（市）,#FFFF00,31,优,优,优,330800,#00E400,118.9628,#00E400,8,优,0.4,优,#00E400,#00E400,330803704,优,#00E400,衢州市,#00E400,优,27,11,#00E400,72,2026-05-16 21:00:00
72,优,330225,87,29.4767,优,--,25,5,96,优,#00E400,#00E400,8,文峰小学,#00E400,31,优,优,优,330200,#00E400,121.8864,#00E400,12,优,0.4,优,#00E400,#00E400,330225001,优,#00E400,宁波市,#00E400,优,31,11,#00E400,72,2026-05-16 21:00:00
73,良,330681,97,29.726389,优,--,21,7,106,优,#00E400,#00E400,6,青少年宫,#FFFF00,31,优,优,优,330600,#00E400,120.199722,#00E400,8,优,0.3,优,#00E400,#00E400,330681002,优,#00E400,绍兴市,#00E400,优,19,11,#00E400,72,2026-05-16 21:00:00
74,良,330723,97,28.896108,优,--,23,10,108,优,#00E400,#00E400,9,武义县政府,#FFFF00,31,优,优,优,330700,#00E400,119.811352,#00E400,5,优,0.4,优,#00E400,#00E400,330723001,优,#00E400,金华市,#00E400,优,19,10,#00E400,72,2026-05-16 21:00:00
75,良,330881,84,28.7465,优,--,27,15,101,优,#00E400,#00E400,5,江山环保大楼,#FFFF00,31,优,优,优,330800,#00E400,118.6301,#00E400,11,优,0.4,优,#00E400,#00E400,330881001,优,#00E400,衢州市,#00E400,优,31,12,#00E400,72,2026-05-16 21:00:00
76,优,331083,86,28.12715,优,--,24,4,90,优,#00E400,#00E400,9,玉环环监站,#00E400,31,优,优,优,331000,#00E400,121.2339,#00E400,10,优,0.7,优,#00E400,#00E400,331021001,优,#00E400,台州市,#00E400,优,31,10,#00E400,72,2026-05-16 21:00:00
77,良,331181,99,28.076,优,--,14,6,104,优,#00E400,#00E400,8,粮食大楼,#FFFF00,31,优,优,优,331100,#00E400,119.1217,#00E400,13,优,0.3,优,#00E400,#00E400,331181002,优,#00E400,丽水市,#00E400,优,23,8,#00E400,72,2026-05-16 21:00:00
78,良,330483,87,30.7369,优,--,30,15,126,优,#00E400,#00E400,8,植材小学,#FFFF00,31,优,优,优,330400,#00E400,120.4902,#00E400,11,优,0.5,优,#00E400,#00E400,330483509,优,#00E400,嘉兴市,#00E400,优,31,13,#00E400,72,2026-05-16 21:00:00
79,良,330681,100,29.7257,优,--,21,7,109,优,#00E400,#00E400,7,城新小学,#FFFF00,32,优,优,优,330600,#00E400,120.272,#00E400,10,优,0.2,优,#00E400,#00E400,330681505,优,#00E400,绍兴市,#00E400,优,20,12,#00E400,80,2026-05-16 21:00:00
80,良,330483,76,30.6488,优,--,31,22,107,优,#00E400,#00E400,4,茅盾小学,#FFFF00,32,优,优,优,330400,#00E400,120.5498,#00E400,13,优,0.3,优,#00E400,#00E400,330483001,优,#00E400,嘉兴市,#00E400,优,32,15,#00E400,80,2026-05-16 21:00:00
81,良,330727,101,29.051486,优,--,16,10,114,优,#00E400,#00E400,7,国税大楼,#FFFF00,32,优,优,优,330700,#00E400,120.438346,#00E400,5,优,0.5,优,#00E400,#00E400,330727002,优,#00E400,金华市,#00E400,优,9,7,#00E400,80,2026-05-16 21:00:00
82,良,330822,82,28.9012,优,--,26,24,102,优,#00E400,#00E400,5,图书馆大楼,#FFFF00,32,优,优,优,330800,#00E400,118.5062,#00E400,4,优,0.2,优,#00E400,#00E400,330822002,优,#00E400,衢州市,#00E400,优,32,9,#00E400,80,2026-05-16 21:00:00
83,良,331123,100,28.5991,优,--,22,8,115,优,#00E400,#00E400,5,遂昌民政局,#FFFF00,32,优,优,优,331100,#00E400,119.2622,#00E400,11,优,0.4,优,#00E400,#00E400,331123001,优,#00E400,丽水市,#00E400,优,23,9,#00E400,80,2026-05-16 21:00:00
84,良,331125,80,28.1062,优,--,28,19,108,优,#00E400,#00E400,6,云和三中,#FFFF00,32,优,优,优,331100,#00E400,119.5728,#00E400,13,优,0.3,优,#00E400,#00E400,331125002,优,#00E400,丽水市,#00E400,优,32,11,#00E400,80,2026-05-16 21:00:00
85,良,330110,100,30.2635,优,--,24,13,114,优,#00E400,#00E400,7,海辰小学,#FFFF00,32,优,优,优,330100,#00E400,119.9842,#00E400,12,优,0.4,优,#00E400,#00E400,2013301100001,优,#00E400,杭州市,#00E400,优,26,12,#00E400,80,2026-05-16 21:00:00
86,良,330782,94,29.2637,优,--,27,13,109,优,#00E400,#00E400,4,儿童公园,#FFFF00,32,优,优,优,330700,#00E400,120.0321,#00E400,10,优,0.3,优,#00E400,#00E400,330782004,优,#00E400,金华市,#00E400,优,32,10,#00E400,80,2026-05-16 21:00:00
87,良,330523,105,30.5974,优,--,18,12,122,优,#00E400,#00E400,6,安吉城东,#FFFF00,33,优,优,优,330500,#00E400,119.6953,#00E400,15,优,0.2,优,#00E400,#00E400,330523002,优,#00E400,湖州市,#00E400,优,25,12,#00E400,88,2026-05-16 21:00:00
88,良,330822,82,28.901,优,--,25,21,103,优,#00E400,#00E400,5,常山环保大楼,#FFFF00,33,优,优,优,330800,#00E400,118.5196,#00E400,13,优,0.4,优,#00E400,#00E400,330822001,优,#00E400,衢州市,#00E400,优,33,8,#00E400,88,2026-05-16 21:00:00
89,优,331022,76,29.1028,优,--,25,8,87,优,#00E400,#00E400,6,心湖站,#00E400,33,优,优,优,331000,#00E400,121.3918,#00E400,15,优,0.3,优,#00E400,#00E400,331022002,优,#00E400,台州市,#00E400,优,33,12,#00E400,88,2026-05-16 21:00:00
90,良,331181,103,28.08007,优,--,14,5,108,优,#00E400,#00E400,9,龙泉环保大楼,#FFFF00,33,优,优,优,331100,#00E400,119.1328,#00E400,10,优,0.3,优,#00E400,#00E400,331181001,优,#00E400,丽水市,#00E400,优,19,9,#00E400,88,2026-05-16 21:00:00
91,良,330281,82,30.0497,优,--,27,14,102,优,#00E400,#00E400,5,龙山公园,#FFFF00,34,优,优,优,330200,#00E400,121.1475,#00E400,17,优,0.4,优,#00E400,#00E400,330281001,优,#00E400,宁波市,#00E400,优,34,14,#00E400,92,2026-05-16 21:00:00
92,优,330382,84,28.0297,优,--,26,13,90,优,#00E400,#00E400,4,柳市,#00E400,35,优,优,优,330300,#00E400,120.891,#00E400,14,优,0.3,优,#00E400,#00E400,330382002,优,#00E400,温州市,#00E400,优,35,11,#00E400,93,2026-05-16 21:00:00
93,优,330381,69,27.791645,优,--,26,12,83,优,#00E400,#00E400,6,花园桥,#00E400,35,优,优,优,330300,#00E400,120.62372,#00E400,14,优,0.4,优,#00E400,#00E400,330381001,优,#00E400,温州市,#00E400,优,35,10,#00E400,93,2026-05-16 21:00:00
94,良,330522,93,31.0143,优,--,29,19,129,优,#00E400,#00E400,6,职教中心,#FFFF00,35,优,优,优,330500,#00E400,119.8935,#00E400,13,优,0.2,优,#00E400,#00E400,330522001,优,#00E400,湖州市,#00E400,优,35,12,#00E400,93,2026-05-16 21:00:00
95,良,330825,112,29.0464,优,--,26,9,115,优,#00E400,#00E400,5,龙游二高,#FFFF00,35,优,优,优,330800,#00E400,119.204,#00E400,7,优,0.3,优,#00E400,#00E400,330825002,优,#00E400,衢州市,#00E400,优,22,11,#00E400,93,2026-05-16 21:00:00
96,良,330481,77,30.5524,优,--,31,13,112,优,#00E400,#00E400,7,胜利社区,#FFFF00,35,优,优,优,330400,#00E400,120.6713,#00E400,15,优,0.4,优,#00E400,#00E400,330481003,优,#00E400,嘉兴市,#00E400,优,35,15,#00E400,93,2026-05-16 21:00:00
97,良,330782,76,29.335473,优,--,25,25,102,优,#00E400,#00E400,5,北苑,#FFFF00,36,优,优,优,330700,#00E400,120.078609,#00E400,15,优,0.4,优,#00E400,#00E400,330782001,优,#00E400,金华市,#00E400,优,36,13,#00E400,98,2026-05-16 21:00:00
98,优,330324,69,28.044335,优,--,26,23,79,优,#00E400,#00E400,6,瓯北,#00E400,37,优,优,优,330300,#00E400,120.654963,#00E400,12,优,0.5,优,#00E400,#00E400,330324002,优,#00E400,温州市,#00E400,优,37,10,#00E400,99,2026-05-16 21:00:00
99,优,330327,84,27.522222,优,--,26,9,93,优,#00E400,#00E400,9,苍南中学,#00E400,37,优,优,优,330300,#00E400,120.416111,#00E400,13,优,0.4,优,#00E400,#00E400,330327004,优,#00E400,温州市,#00E400,优,37,12,#00E400,99,2026-05-16 21:00:00
100,优,330383,84,27.5617,优,--,27,13,95,优,#00E400,#00E400,5,龙港实验中学,#00E400,37,优,优,优,330300,#00E400,120.5355,#00E400,13,优,0.4,优,#00E400,#00E400,330303101,优,#00E400,温州市,#00E400,优,37,11,#00E400,99,2026-05-16 21:00:00
101,优,330226,97,29.2878,优,--,24,7,98,优,#00E400,#00E400,6,宁海城南站,#00E400,38,优,优,优,330200,#00E400,121.4201,#00E400,17,优,0.3,优,#00E400,#00E400,330226002,优,#00E400,宁波市,#00E400,优,38,11,#00E400,102,2026-05-16 21:00:00
102,优,330921,65,30.2669,优,--,28,25,83,优,#00E400,#00E400,5,岱山环保大楼,#00E400,38,优,优,优,330900,#00E400,122.2199,#00E400,16,优,0.3,优,#00E400,#00E400,330921001,优,#00E400,舟山市,#00E400,优,38,13,#00E400,102,2026-05-16 21:00:00
103,良,330825,122,29.0392,优,--,23,8,122,优,#00E400,#00E400,5,建设大楼,#FFFF00,39,优,优,优,330800,#00E400,119.1675,#00E400,2,优,0.4,优,#00E400,#00E400,330825001,优,#00E400,衢州市,#00E400,优,22,9,#00E400,104,2026-05-16 21:00:00
104,良,330122,62,29.7955,优,--,27,50,114,优,#00E400,#00E400,6,桐庐江南,#FFFF00,40,优,优,优,330100,#00E400,119.6874,#00E400,24,优,0.4,优,#00E400,#00E400,330122001,优,#00E400,杭州市,#00E400,优,40,15,#00E400,105,2026-05-16 21:00:00
105,良,330483,76,30.625,优,--,37,24,108,优,#00E400,#00E400,5,振东新六中站,#FFFF00,40,优,优,优,330400,#00E400,120.5613,#00E400,14,优,0.4,优,#00E400,#00E400,330483002,优,#00E400,嘉兴市,#00E400,优,40,15,#00E400,105,2026-05-16 21:00:00
106,良,330521,84,30.5231,优,--,30,16,116,优,#00E400,#00E400,8,地信科创园,#FFFF00,40,优,优,优,330500,#00E400,119.9781,#00E400,20,优,0.4,优,#00E400,#00E400,330521001,优,#00E400,湖州市,#00E400,优,40,16,#00E400,105,2026-05-16 21:00:00
107,良,330521,88,30.548493,优,--,32,13,122,优,#00E400,#00E400,7,春晖小学,#FFFF00,41,优,优,优,330500,#00E400,119.9505,#00E400,19,优,0.5,优,#00E400,#00E400,330521003,优,#00E400,湖州市,#00E400,优,41,17,#00E400,108,2026-05-16 21:00:00
108,优,330382,76,28.1209,优,--,24,12,89,优,#00E400,#00E400,5,乐成,#00E400,42,优,优,优,330300,#00E400,120.9659,#00E400,21,优,0.3,优,#00E400,#00E400,330382001,优,#00E400,温州市,#00E400,优,42,10,#00E400,109,2026-05-16 21:00:00
109,优,331082,80,28.84326,优,--,30,17,96,优,#00E400,#00E400,4,巾山实验小学,#00E400,42,优,优,优,331000,#00E400,121.136,#00E400,16,优,0.4,优,#00E400,#00E400,331082002,优,#00E400,台州市,#00E400,优,42,14,#00E400,109,2026-05-16 21:00:00
110,良,330122,73,29.8058,优,--,30,42,123,优,#00E400,#00E400,4,桐庐江北,#FFFF00,45,优,优,优,330100,#00E400,119.669,#00E400,26,优,0.6,优,#00E400,#00E400,330122002,优,#00E400,杭州市,#00E400,优,45,16,#00E400,111,2026-05-16 21:00:00
111,良,330523,101,30.6422,优,--,30,14,122,优,#00E400,#00E400,8,安吉实验小学,#FFFF00,45,优,优,优,330500,#00E400,119.6768,#00E400,17,优,0.3,优,#00E400,#00E400,330523001,优,#00E400,湖州市,#00E400,优,45,15,#00E400,111,2026-05-16 21:00:00
112,优,330921,67,30.2517,优,--,31,16,92,优,#00E400,#00E400,6,岱山高亭,#00E400,45,优,优,优,330900,#00E400,122.1958,#00E400,19,优,0.6,优,#00E400,#00E400,330921002,优,#00E400,舟山市,#00E400,优,45,15,#00E400,111,2026-05-16 21:00:00
113,良,330127,81,29.605,优,--,22,22,119,优,#00E400,#00E400,12,老年活动中心,#FFFF00,46,优,优,优,330100,#00E400,119.0372,#00E400,26,优,0.8,优,#00E400,#00E400,330127T_4,优,#00E400,杭州市,#00E400,优,46,13,#00E400,114,2026-05-16 21:00:00
114,良,330481,76,30.5261,优,--,34,13,105,优,#00E400,#00E400,6,海宁监测大楼,#FFFF00,46,优,优,优,330400,#00E400,120.6739,#00E400,14,优,0.2,优,#00E400,#00E400,330481001,优,#00E400,嘉兴市,#00E400,优,46,16,#00E400,114,2026-05-16 21:00:00
115,优,330328,42,27.7838,优,--,25,--,97,优,#00E400,#00E400,8,大峃,#00E400,--,--,--,优,330300,#00E400,120.085,--,12,优,0.2,优,#00E400,#00E400,330328001,优,--,温州市,#00E400,优,43,10,#00E400,115,2026-05-16 21:00:00
116,优,331126,95,27.629585,优,--,9,5,97,优,#00E400,#00E400,--,庆元监测楼,#00E400,--,优,--,优,331100,--,119.054809,#00E400,3,优,0.3,优,#00E400,#00E400,331126001,优,--,丽水市,#00E400,--,8,5,#00E400,115,2026-05-16 21:00:00
117,良,331126,102,27.6211,优,--,13,3,102,优,#00E400,--,5,庆元气象局,#FFFF00,--,优,--,优,331100,#00E400,119.0788,#00E400,--,优,0.3,--,#00E400,--,331126002,--,--,丽水市,#00E400,优,17,--,#00E400,115,2026-05-16 21:00:00
