,O3H8_level,regioncode,O3,latitude,CO_level,SYWRW,PM10H24,NO2,O3H8,O3_level,PM10_color,PM25_color,SO2,sitename,O3H8_color,AQI,NO2_level,AQI_level,PM10H24_level,districtcode,SO2_color,longitude,NO2_color,PM25,PM10_level,CO,PM25_level,CO_color,PM25H24_color,sitecode,PM25H24_level,AQI_color,districtname,O3_color,SO2_level,PM10,PM25H24,PM10H24_color,sort,time
0,优,330381,78,27.782284,优,--,19,7,90,优,#00E400,#00E400,8,安阳新区,#00E400,25,优,优,优,330300,#00E400,120.650915,#00E400,10,优,0.4,优,#00E400,--,330381002,--,#00E400,温州市,#00E400,优,21,--,#00E400,1,2026-05-16 19:00:00
1,优,330326,79,27.6653,优,--,21,4,85,优,#00E400,#00E400,7,平阳县政府,#00E400,25,优,优,优,330300,#00E400,120.5611,#00E400,10,优,0.5,优,#00E400,#00E400,330326002,优,#00E400,温州市,#00E400,优,23,11,#00E400,1,2026-05-16 19:00:00
2,优,330324,81,28.158269,优,--,24,11,94,优,#00E400,#00E400,8,上塘,#00E400,26,优,优,优,330300,#00E400,120.694244,#00E400,9,优,0.4,优,#00E400,#00E400,330324001,优,#00E400,温州市,#00E400,优,23,9,#00E400,3,2026-05-16 19:00:00
3,优,330624,82,29.4938,优,--,21,9,95,优,#00E400,#00E400,4,城东站,#00E400,26,优,优,优,330600,#00E400,120.9109,#00E400,9,优,0.4,优,#00E400,#00E400,330624002,优,#00E400,绍兴市,#00E400,优,26,11,#00E400,3,2026-05-16 19:00:00
4,优,330305,83,27.8342,优,--,23,13,93,优,#00E400,#00E400,7,洞头气象局,#00E400,27,优,优,优,330300,#00E400,121.1502,#00E400,10,优,0.4,优,#00E400,#00E400,330305001,优,#00E400,温州市,#00E400,优,27,9,#00E400,5,2026-05-16 19:00:00
5,优,330327,84,27.503889,优,--,22,1,87,优,#00E400,#00E400,9,灵溪,#00E400,27,优,优,优,330300,#00E400,120.395278,#00E400,8,优,0.3,优,#00E400,#00E400,330327001,优,#00E400,温州市,#00E400,优,20,11,#00E400,5,2026-05-16 19:00:00
6,优,330683,88,29.5901,优,--,22,9,100,优,#00E400,#00E400,5,马寅初初中,#00E400,28,优,优,优,330600,#00E400,120.8249,#00E400,9,优,0.3,优,#00E400,#00E400,330683001,优,#00E400,绍兴市,#00E400,优,23,11,#00E400,7,2026-05-16 19:00:00
7,优,330624,88,29.5036,优,--,21,8,100,优,#00E400,#00E400,4,钟楼站,#00E400,28,优,优,优,330600,#00E400,120.8938,#00E400,8,优,0.4,优,#00E400,#00E400,330624001,优,#00E400,绍兴市,#00E400,优,24,10,#00E400,7,2026-05-16 19:00:00
8,优,331083,89,28.12715,优,--,24,3,92,优,#00E400,#00E400,9,玉环环监站,#00E400,28,优,优,优,331000,#00E400,121.2339,#00E400,9,优,0.7,优,#00E400,#00E400,331021001,优,#00E400,台州市,#00E400,优,28,10,#00E400,7,2026-05-16 19:00:00
9,优,330782,87,29.3686,优,--,25,14,99,优,#00E400,#00E400,8,第五中学,#00E400,28,优,优,优,330700,#00E400,120.1345,#00E400,14,优,0.4,优,#00E400,#00E400,330782003,优,#00E400,金华市,#00E400,优,24,12,#00E400,7,2026-05-16 19:00:00
10,良,330182,91,29.4769,优,--,24,7,111,优,#00E400,#00E400,8,建德监测大楼,#FFFF00,29,优,优,优,330100,#00E400,119.2711,#00E400,11,优,0.4,优,#00E400,#00E400,330182T_2,优,#00E400,杭州市,#00E400,优,26,12,#00E400,11,2026-05-16 19:00:00
11,良,330213,90,29.6774,优,--,25,9,102,优,#00E400,#00E400,6,大桥市场,#FFFF00,29,优,优,优,330200,#00E400,121.4237,#00E400,10,优,0.4,优,#00E400,#00E400,330213001,优,#00E400,宁波市,#00E400,优,22,15,#00E400,11,2026-05-16 19:00:00
12,优,330327,92,27.522222,优,--,25,5,96,优,#00E400,#00E400,8,苍南中学,#00E400,29,优,优,优,330300,#00E400,120.416111,#00E400,7,优,0.4,优,#00E400,#00E400,330327004,优,#00E400,温州市,#00E400,优,23,12,#00E400,11,2026-05-16 19:00:00
13,良,330683,92,29.5663,优,--,20,11,104,优,#00E400,#00E400,4,丽湖小区,#FFFF00,29,优,优,优,330600,#00E400,120.8173,#00E400,14,优,0.4,优,#00E400,#00E400,330683002,优,#00E400,绍兴市,#00E400,优,23,11,#00E400,11,2026-05-16 19:00:00
14,良,330726,90,29.439787,优,--,23,23,108,优,#00E400,#00E400,4,浦江中学,#FFFF00,29,优,优,优,330700,#00E400,119.924638,#00E400,3,优,0.3,优,#00E400,#00E400,330726002,优,#00E400,金华市,#00E400,优,27,10,#00E400,11,2026-05-16 19:00:00
15,优,330781,91,29.229931,优,--,19,8,94,优,#00E400,#00E400,8,兰溪八中,#00E400,29,优,优,优,330700,#00E400,119.475172,#00E400,12,优,0.3,优,#00E400,#00E400,330781002,优,#00E400,金华市,#00E400,优,18,12,#00E400,11,2026-05-16 19:00:00
16,优,330784,92,28.90016,优,--,29,3,89,优,#00E400,#00E400,7,西城供电所,#00E400,29,优,优,优,330700,#00E400,120.01452,#00E400,9,优,0.3,优,#00E400,#00E400,330784002,优,#00E400,金华市,#00E400,优,22,14,#00E400,11,2026-05-16 19:00:00
17,优,330922,80,30.7269,优,--,20,4,87,优,#00E400,#00E400,9,嵊泗菜园,#00E400,29,优,优,优,330900,#00E400,122.4464,#00E400,14,优,0.3,优,#00E400,#00E400,330922001,优,#00E400,舟山市,#00E400,优,29,11,#00E400,11,2026-05-16 19:00:00
18,优,331082,90,28.873,优,--,24,13,100,优,#00E400,#00E400,6,临海环保大楼,#00E400,29,优,优,优,331000,#00E400,121.1769,#00E400,11,优,0.4,优,#00E400,#00E400,331082001,优,#00E400,台州市,#00E400,优,24,12,#00E400,11,2026-05-16 19:00:00
19,良,330213,96,29.6506,优,--,24,7,105,优,#00E400,#00E400,8,奉化教育局,#FFFF00,30,优,优,优,330200,#00E400,121.4042,#00E400,14,优,0.4,优,#00E400,#00E400,330283005,优,#00E400,宁波市,#00E400,优,27,13,#00E400,20,2026-05-16 19:00:00
20,良,330282,94,30.1636,优,--,24,12,107,优,#00E400,#00E400,5,慈溪环保大楼,#FFFF00,30,优,优,优,330200,#00E400,121.2677,#00E400,11,优,0.4,优,#00E400,#00E400,330282001,优,#00E400,宁波市,#00E400,优,27,11,#00E400,20,2026-05-16 19:00:00
21,优,330225,96,29.4767,优,--,25,5,98,优,#00E400,#00E400,8,文峰小学,#00E400,30,优,优,优,330200,#00E400,121.8864,#00E400,12,优,0.4,优,#00E400,#00E400,330225001,优,#00E400,宁波市,#00E400,优,28,12,#00E400,20,2026-05-16 19:00:00
22,优,330382,85,28.1209,优,--,22,9,94,优,#00E400,#00E400,5,乐成,#00E400,30,优,优,优,330300,#00E400,120.9659,#00E400,14,优,0.3,优,#00E400,#00E400,330382001,优,#00E400,温州市,#00E400,优,30,9,#00E400,20,2026-05-16 19:00:00
23,优,330382,89,28.0297,优,--,26,10,94,优,#00E400,#00E400,4,柳市,#00E400,30,优,优,优,330300,#00E400,120.891,#00E400,11,优,0.3,优,#00E400,#00E400,330382002,优,#00E400,温州市,#00E400,优,30,11,#00E400,20,2026-05-16 19:00:00
24,优,330324,78,28.044335,优,--,24,16,84,优,#00E400,#00E400,6,瓯北,#00E400,30,优,优,优,330300,#00E400,120.654963,#00E400,9,优,0.5,优,#00E400,#00E400,330324002,优,#00E400,温州市,#00E400,优,30,10,#00E400,20,2026-05-16 19:00:00
25,优,330383,81,27.5812,优,--,23,9,88,优,#00E400,#00E400,8,龙港,#00E400,30,优,优,优,330300,#00E400,120.5489,#00E400,12,优,0.4,优,#00E400,#00E400,330327002,优,#00E400,温州市,#00E400,优,30,10,#00E400,20,2026-05-16 19:00:00
26,良,330481,93,30.5137,优,--,28,8,113,优,#00E400,#00E400,8,硖石街道,#FFFF00,30,优,优,优,330400,#00E400,120.7082,#00E400,11,优,0.4,优,#00E400,#00E400,330481002,优,#00E400,嘉兴市,#00E400,优,29,15,#00E400,20,2026-05-16 19:00:00
27,良,330421,94,30.836,优,--,30,11,101,优,#00E400,#00E400,8,嘉善监测大楼,#FFFF00,30,优,优,优,330400,#00E400,120.9226,#00E400,10,优,0.3,优,#00E400,#00E400,330421001,优,#00E400,嘉兴市,#00E400,优,25,16,#00E400,20,2026-05-16 19:00:00
28,良,330424,96,30.5042,优,--,28,15,114,优,#00E400,#00E400,7,高级中学,#FFFF00,30,优,优,优,330400,#00E400,120.9413,#00E400,12,优,0.3,优,#00E400,#00E400,330424001,优,#00E400,嘉兴市,#00E400,优,23,17,#00E400,20,2026-05-16 19:00:00
29,良,330783,94,29.30093,优,--,24,11,101,优,#00E400,#00E400,6,广厦学院,#FFFF00,30,优,优,优,330700,#00E400,120.24157,#00E400,12,优,0.5,优,#00E400,#00E400,330783001,优,#00E400,金华市,#00E400,优,28,11,#00E400,20,2026-05-16 19:00:00
30,优,330783,93,29.27739,优,--,21,9,100,优,#00E400,#00E400,5,东阳环保大楼,#00E400,30,优,优,优,330700,#00E400,120.23692,#00E400,6,优,0.4,优,#00E400,#00E400,330783002,优,#00E400,金华市,#00E400,优,11,12,#00E400,20,2026-05-16 19:00:00
31,优,330881,94,28.7282,优,--,22,12,100,优,#00E400,#00E400,9,人民医院,#00E400,30,优,优,优,330800,#00E400,118.6227,#00E400,11,优,0.3,优,#00E400,#00E400,330881002,优,#00E400,衢州市,#00E400,优,29,11,#00E400,20,2026-05-16 19:00:00
32,优,331083,94,28.2221,优,--,22,9,96,优,#00E400,#00E400,6,楚门中心小学,#00E400,30,优,优,优,331000,#00E400,121.2846,#00E400,15,优,0.6,优,#00E400,#00E400,331021002,优,#00E400,台州市,#00E400,优,29,10,#00E400,20,2026-05-16 19:00:00
33,优,331024,94,28.8589,优,--,20,11,98,优,#00E400,#00E400,8,仙居环监站,#00E400,30,优,优,优,331000,#00E400,120.7248,#00E400,10,优,0.5,优,#00E400,#00E400,331024001,优,#00E400,台州市,#00E400,优,25,10,#00E400,20,2026-05-16 19:00:00
34,优,331024,95,28.7403,优,--,21,11,99,优,#00E400,#00E400,6,新生中学,#00E400,30,优,优,优,331000,#00E400,120.4728,#00E400,13,优,0.4,优,#00E400,#00E400,331024002,优,#00E400,台州市,#00E400,优,25,11,#00E400,20,2026-05-16 19:00:00
35,优,331023,94,29.1504,优,--,22,8,99,优,#00E400,#00E400,5,育青中学,#00E400,30,优,优,优,331000,#00E400,121.0091,#00E400,11,优,0.3,优,#00E400,#00E400,331023001,优,#00E400,台州市,#00E400,优,24,12,#00E400,20,2026-05-16 19:00:00
36,优,331023,93,29.1342,优,--,20,8,98,优,#00E400,#00E400,5,天台实验中学,#00E400,30,优,优,优,331000,#00E400,121.0349,#00E400,10,优,0.4,优,#00E400,#00E400,331023002,优,#00E400,台州市,#00E400,优,17,9,#00E400,20,2026-05-16 19:00:00
37,优,331081,94,28.39136,优,--,21,4,98,优,#00E400,#00E400,3,之江高级中学,#00E400,30,优,优,优,331000,#00E400,121.37696,#00E400,14,优,0.4,优,#00E400,#00E400,331081002,优,#00E400,台州市,#00E400,优,24,12,#00E400,20,2026-05-16 19:00:00
38,良,331121,96,28.1094,优,--,30,11,112,优,#00E400,#00E400,4,青田中学,#FFFF00,30,优,优,优,331100,#00E400,120.3161,#00E400,7,优,0.4,优,#00E400,#00E400,331121002,优,#00E400,丽水市,#00E400,优,25,13,#00E400,20,2026-05-16 19:00:00
39,良,330282,98,30.1786,优,--,24,11,111,优,#00E400,#00E400,5,慈溪实验小学,#FFFF00,31,优,优,优,330200,#00E400,121.2525,#00E400,11,优,0.4,优,#00E400,#00E400,330282002,优,#00E400,宁波市,#00E400,优,26,12,#00E400,40,2026-05-16 19:00:00
40,优,330226,97,29.2878,优,--,23,6,100,优,#00E400,#00E400,6,宁海城南站,#00E400,31,优,优,优,330200,#00E400,121.4201,#00E400,9,优,0.2,优,#00E400,#00E400,330226002,优,#00E400,宁波市,#00E400,优,26,11,#00E400,40,2026-05-16 19:00:00
41,良,330482,99,30.6937,优,--,25,9,112,优,#00E400,#00E400,8,平湖幼儿园,#FFFF00,31,优,优,优,330400,#00E400,121.0259,#00E400,11,优,0.3,优,#00E400,#00E400,330482001,优,#00E400,嘉兴市,#00E400,优,26,13,#00E400,40,2026-05-16 19:00:00
42,良,330482,97,30.7292,优,--,24,9,107,优,#00E400,#00E400,9,陆家桥村,#FFFF00,31,优,优,优,330400,#00E400,120.9953,#00E400,12,优,0.4,优,#00E400,#00E400,330482002,优,#00E400,嘉兴市,#00E400,优,25,15,#00E400,40,2026-05-16 19:00:00
43,优,330681,97,29.6818,优,--,20,6,100,优,#00E400,#00E400,7,杨树畈,#00E400,31,优,优,优,330600,#00E400,120.2359,#00E400,4,优,0.3,优,#00E400,--,330681001,--,#00E400,绍兴市,#00E400,优,12,--,#00E400,40,2026-05-16 19:00:00
44,良,330781,97,29.216166,优,--,22,13,102,优,#00E400,#00E400,7,兰溪监测站,#FFFF00,31,优,优,优,330700,#00E400,119.459992,#00E400,13,优,0.4,优,#00E400,#00E400,330781001,优,#00E400,金华市,#00E400,优,27,11,#00E400,40,2026-05-16 19:00:00
45,良,330782,98,29.335473,优,--,24,14,109,优,#00E400,#00E400,5,北苑,#FFFF00,31,优,优,优,330700,#00E400,120.078609,#00E400,12,优,0.4,优,#00E400,#00E400,330782001,优,#00E400,金华市,#00E400,优,27,12,#00E400,40,2026-05-16 19:00:00
46,优,330921,68,30.2669,优,--,26,26,93,优,#00E400,#00E400,6,岱山环保大楼,#00E400,31,优,优,优,330900,#00E400,122.2199,#00E400,15,优,0.3,优,#00E400,#00E400,330921001,优,#00E400,舟山市,#00E400,优,31,12,#00E400,40,2026-05-16 19:00:00
47,良,331121,99,28.1341,优,--,33,6,109,优,#00E400,#00E400,6,塔山小学,#FFFF00,31,优,优,优,331100,#00E400,120.2936,#00E400,8,优,0.3,优,#00E400,#00E400,331121001,优,#00E400,丽水市,#00E400,优,26,15,#00E400,40,2026-05-16 19:00:00
48,良,330483,99,30.6355,优,--,29,7,119,优,#00E400,#00E400,9,文化中心,#FFFF00,31,优,优,优,330400,#00E400,120.5795,#00E400,10,优,0.5,优,#00E400,#00E400,330483003,优,#00E400,嘉兴市,#00E400,优,27,15,#00E400,40,2026-05-16 19:00:00
49,良,331127,102,28.002222,优,--,21,5,109,优,#00E400,#00E400,5,红星小学,#FFFF00,32,优,优,优,331100,#00E400,119.636389,#00E400,8,优,0.3,优,#00E400,#00E400,331127003,优,#00E400,丽水市,#00E400,优,19,9,#00E400,50,2026-05-16 19:00:00
50,良,330182,101,29.4638,优,--,23,12,113,优,#00E400,#00E400,4,第二中学,#FFFF00,32,优,优,优,330100,#00E400,119.2821,#00E400,9,优,0.4,优,#00E400,#00E400,330182002,优,#00E400,杭州市,#00E400,优,21,12,#00E400,50,2026-05-16 19:00:00
51,良,330213,99,29.693,优,--,26,7,104,优,#00E400,#00E400,6,溪口政府大楼,#FFFF00,32,优,优,优,330200,#00E400,121.2774,#00E400,19,优,0.3,优,#00E400,#00E400,330283T_1,优,#00E400,宁波市,#00E400,优,32,15,#00E400,50,2026-05-16 19:00:00
52,优,330381,79,27.791645,优,--,26,8,89,优,#00E400,#00E400,6,花园桥,#00E400,32,优,优,优,330300,#00E400,120.62372,#00E400,12,优,0.3,优,#00E400,#00E400,330381001,优,#00E400,温州市,#00E400,优,32,10,#00E400,50,2026-05-16 19:00:00
53,良,330424,102,30.5299,优,--,26,13,117,优,#00E400,#00E400,5,海盐商贸学校,#FFFF00,32,优,优,优,330400,#00E400,120.9293,#00E400,10,优,0.3,优,#00E400,#00E400,330424002,优,#00E400,嘉兴市,#00E400,优,25,16,#00E400,50,2026-05-16 19:00:00
54,良,330726,101,29.465746,优,--,23,14,110,优,#00E400,#00E400,6,浦江实验中学,#FFFF00,32,优,优,优,330700,#00E400,119.875227,#00E400,15,优,0.4,优,#00E400,#00E400,330726001,优,#00E400,金华市,#00E400,优,31,10,#00E400,50,2026-05-16 19:00:00
55,优,330784,100,28.8854,优,--,21,5,100,优,#00E400,#00E400,7,永康一中,#00E400,32,优,优,优,330700,#00E400,120.0439,#00E400,5,优,0.4,优,#00E400,#00E400,330784001,优,#00E400,金华市,#00E400,优,16,12,#00E400,50,2026-05-16 19:00:00
56,良,330822,102,28.9012,优,--,25,9,107,优,#00E400,#00E400,5,图书馆大楼,#FFFF00,32,优,优,优,330800,#00E400,118.5062,#00E400,11,优,0.2,优,#00E400,#00E400,330822002,优,#00E400,衢州市,#00E400,优,28,8,#00E400,50,2026-05-16 19:00:00
57,良,330824,101,29.1343,优,--,22,5,105,优,#00E400,#00E400,6,开化气象局,#FFFF00,32,优,优,优,330800,#00E400,118.402,#00E400,8,优,0.2,优,#00E400,#00E400,330824001,优,#00E400,衢州市,#00E400,优,29,6,#00E400,50,2026-05-16 19:00:00
58,良,331122,101,28.6628,优,--,27,17,101,优,#00E400,#00E400,7,信访大楼,#FFFF00,32,优,优,优,331100,#00E400,120.0856,#00E400,12,优,0.4,优,#00E400,#00E400,331122002,优,#00E400,丽水市,#00E400,优,16,12,#00E400,50,2026-05-16 19:00:00
59,良,331181,100,28.076,优,--,13,8,104,优,#00E400,#00E400,8,粮食大楼,#FFFF00,32,优,优,优,331100,#00E400,119.1217,#00E400,12,优,0.4,优,#00E400,#00E400,331181002,优,#00E400,丽水市,#00E400,优,19,8,#00E400,50,2026-05-16 19:00:00
60,良,330481,100,30.5524,优,--,31,12,124,优,#00E400,#00E400,7,胜利社区,#FFFF00,32,优,优,优,330400,#00E400,120.6713,#00E400,13,优,0.4,优,#00E400,#00E400,330481003,优,#00E400,嘉兴市,#00E400,优,31,16,#00E400,50,2026-05-16 19:00:00
61,良,330212,100,29.7736,优,--,20,8,102,优,#00E400,#00E400,4,钱湖水厂,#FFFF00,32,优,优,优,330200,#00E400,121.6330,#00E400,13,优,0.4,优,#00E400,#00E400,2013302120001,优,#00E400,宁波市,#00E400,优,24,12,#00E400,50,2026-05-16 19:00:00
62,良,330329,105,27.557,优,--,15,8,106,优,#00E400,#00E400,5,罗阳,#FFFF00,33,优,优,优,330300,#00E400,119.7084,#00E400,10,优,0.3,优,#00E400,#00E400,330329001,优,#00E400,温州市,#00E400,优,15,10,#00E400,63,2026-05-16 19:00:00
63,良,330329,103,27.5438,优,--,14,5,105,优,#00E400,#00E400,6,泰顺实验中学,#FFFF00,33,优,优,优,330300,#00E400,119.716111,#00E400,5,优,0.2,优,#00E400,#00E400,330329002,优,#00E400,温州市,#00E400,优,18,7,#00E400,63,2026-05-16 19:00:00
64,良,330421,103,30.8307,优,--,27,11,110,优,#00E400,#00E400,11,气象观测台,#FFFF00,33,优,优,优,330400,#00E400,120.9356,#00E400,6,优,0.4,优,#00E400,#00E400,330421002,优,#00E400,嘉兴市,#00E400,优,26,12,#00E400,63,2026-05-16 19:00:00
65,良,330782,98,29.305096,优,--,25,14,109,优,#00E400,#00E400,6,江东,#FFFF00,33,优,优,优,330700,#00E400,120.090442,#00E400,11,优,0.5,优,#00E400,#00E400,330782002,优,#00E400,金华市,#00E400,优,33,11,#00E400,63,2026-05-16 19:00:00
66,良,330822,103,28.901,优,--,24,10,108,优,#00E400,#00E400,5,常山环保大楼,#FFFF00,33,优,优,优,330800,#00E400,118.5196,#00E400,5,优,0.4,优,#00E400,#00E400,330822001,优,#00E400,衢州市,#00E400,优,29,7,#00E400,63,2026-05-16 19:00:00
67,优,331022,90,29.11779,优,--,22,8,93,优,#00E400,#00E400,5,三门环监楼,#00E400,33,优,优,优,331000,#00E400,121.382189,#00E400,14,优,0.4,优,#00E400,#00E400,331022001,优,#00E400,台州市,#00E400,优,33,11,#00E400,63,2026-05-16 19:00:00
68,良,331124,105,28.4516,优,--,18,10,101,优,#00E400,#00E400,6,和平水厂,#FFFF00,33,优,优,优,331100,#00E400,119.4699,#00E400,11,优,0.3,优,#00E400,#00E400,331124002,优,#00E400,丽水市,#00E400,优,22,9,#00E400,63,2026-05-16 19:00:00
69,良,330681,107,29.7257,优,--,21,8,109,优,#00E400,#00E400,7,城新小学,#FFFF00,34,优,优,优,330600,#00E400,120.272,#00E400,12,优,0.2,优,#00E400,#00E400,330681505,优,#00E400,绍兴市,#00E400,优,20,13,#00E400,70,2026-05-16 19:00:00
70,良,330225,101,29.2003,优,--,27,10,111,优,#00E400,#00E400,7,石浦新港小学,#FFFF00,34,优,优,优,330200,#00E400,121.934,#00E400,20,优,0.3,优,#00E400,#00E400,330225002,优,#00E400,宁波市,#00E400,优,34,13,#00E400,70,2026-05-16 19:00:00
71,良,330483,100,30.6488,优,--,32,15,117,优,#00E400,#00E400,5,茅盾小学,#FFFF00,34,优,优,优,330400,#00E400,120.5498,#00E400,12,优,0.3,优,#00E400,#00E400,330483001,优,#00E400,嘉兴市,#00E400,优,34,15,#00E400,70,2026-05-16 19:00:00
72,良,330681,106,29.726389,优,--,21,6,107,优,#00E400,#00E400,6,青少年宫,#FFFF00,34,优,优,优,330600,#00E400,120.199722,#00E400,9,优,0.3,优,#00E400,#00E400,330681002,优,#00E400,绍兴市,#00E400,优,20,11,#00E400,70,2026-05-16 19:00:00
73,良,330727,107,29.039869,优,--,22,8,114,优,#00E400,#00E400,7,南园初中,#FFFF00,34,优,优,优,330700,#00E400,120.440622,#00E400,12,优,0.3,优,#00E400,#00E400,330727003,优,#00E400,金华市,#00E400,优,26,10,#00E400,70,2026-05-16 19:00:00
74,良,331082,92,28.84326,优,--,30,15,102,优,#00E400,#00E400,4,巾山实验小学,#FFFF00,34,优,优,优,331000,#00E400,121.136,#00E400,13,优,0.4,优,#00E400,#00E400,331082002,优,#00E400,台州市,#00E400,优,34,14,#00E400,70,2026-05-16 19:00:00
75,良,331122,106,28.6574,优,--,20,14,108,优,#00E400,#00E400,7,缙云中学,#FFFF00,34,优,优,优,331100,#00E400,120.0696,#00E400,10,优,0.4,优,#00E400,#00E400,331122001,优,#00E400,丽水市,#00E400,优,18,9,#00E400,70,2026-05-16 19:00:00
76,良,331124,108,28.4505,优,--,18,11,108,优,#00E400,#00E400,4,松阳监测楼,#FFFF00,34,优,优,优,331100,#00E400,119.4799,#00E400,10,优,0.3,优,#00E400,#00E400,331124001,优,#00E400,丽水市,#00E400,优,17,10,#00E400,70,2026-05-16 19:00:00
77,良,330782,107,29.2637,优,--,27,8,112,优,#00E400,#00E400,3,儿童公园,#FFFF00,34,优,优,优,330700,#00E400,120.0321,#00E400,10,优,0.3,优,#00E400,#00E400,330782004,优,#00E400,金华市,#00E400,优,30,10,#00E400,70,2026-05-16 19:00:00
78,良,330803,112,28.9844,优,--,23,9,115,优,#00E400,#00E400,4,衢州三中（市）,#FFFF00,35,优,优,优,330800,#00E400,118.9628,#00E400,8,优,0.4,优,#00E400,#00E400,330803704,优,#00E400,衢州市,#00E400,优,23,11,#00E400,79,2026-05-16 19:00:00
79,优,330226,97,29.3125,优,--,23,7,100,优,#00E400,#00E400,6,宁海水利局,#00E400,35,优,优,优,330200,#00E400,121.4306,#00E400,15,优,0.4,优,#00E400,#00E400,330226001,优,#00E400,宁波市,#00E400,优,35,10,#00E400,79,2026-05-16 19:00:00
80,良,330824,112,29.1478,优,--,17,5,114,优,#00E400,#00E400,7,开化监测大楼,#FFFF00,35,优,优,优,330800,#00E400,118.4108,#00E400,8,优,0.2,优,#00E400,#00E400,330824002,优,#00E400,衢州市,#00E400,优,22,7,#00E400,79,2026-05-16 19:00:00
81,优,331081,79,28.37558,优,--,24,12,84,优,#00E400,#00E400,5,温岭环监站,#00E400,35,优,优,优,331000,#00E400,121.36579,#00E400,14,优,0.4,优,#00E400,#00E400,331081001,优,#00E400,台州市,#00E400,优,35,10,#00E400,79,2026-05-16 19:00:00
82,良,331125,110,28.1173,优,--,15,10,110,优,#00E400,#00E400,6,云和监测楼,#FFFF00,35,优,优,优,331100,#00E400,119.5626,#00E400,8,优,0.3,优,#00E400,#00E400,331125001,优,#00E400,丽水市,#00E400,优,18,8,#00E400,79,2026-05-16 19:00:00
83,良,331181,109,28.08007,优,--,14,4,106,优,#00E400,#00E400,8,龙泉环保大楼,#FFFF00,35,优,优,优,331100,#00E400,119.1328,#00E400,9,优,0.3,优,#00E400,#00E400,331181001,优,#00E400,丽水市,#00E400,优,19,9,#00E400,79,2026-05-16 19:00:00
84,良,330723,110,28.9178,优,--,18,12,110,优,#00E400,#00E400,8,武义北岭幼儿园,#FFFF00,35,优,优,优,330700,#00E400,119.8022,#00E400,14,优,0.4,优,#00E400,#00E400,330723003,优,#00E400,金华市,#00E400,优,18,12,#00E400,79,2026-05-16 19:00:00
85,良,330110,110,30.2635,优,--,26,16,118,优,#00E400,#00E400,7,海辰小学,#FFFF00,35,优,优,优,330100,#00E400,119.9842,#00E400,10,优,0.4,优,#00E400,#00E400,2013301100001,优,#00E400,杭州市,#00E400,优,26,13,#00E400,79,2026-05-16 19:00:00
86,优,330383,89,27.5617,优,--,26,11,100,优,#00E400,#00E400,5,龙港实验中学,#00E400,35,优,优,优,330300,#00E400,120.5355,#00E400,11,优,0.4,优,#00E400,#00E400,330303101,优,#00E400,温州市,#00E400,优,35,11,#00E400,79,2026-05-16 19:00:00
87,良,330281,94,30.0358,优,--,25,16,111,优,#00E400,#00E400,5,姚江小学,#FFFF00,36,优,优,优,330200,#00E400,121.1221,#00E400,18,优,0.4,优,#00E400,#00E400,330281002,优,#00E400,宁波市,#00E400,优,36,14,#00E400,88,2026-05-16 19:00:00
88,良,330521,115,30.5231,优,--,30,12,122,优,#00E400,#00E400,7,地信科创园,#FFFF00,36,优,优,优,330500,#00E400,119.9781,#00E400,14,优,0.4,优,#00E400,#00E400,330521001,优,#00E400,湖州市,#00E400,优,34,17,#00E400,88,2026-05-16 19:00:00
89,良,330723,114,28.896108,优,--,24,8,109,优,#00E400,#00E400,9,武义县政府,#FFFF00,36,优,优,优,330700,#00E400,119.811352,#00E400,9,优,0.4,优,#00E400,#00E400,330723001,优,#00E400,金华市,#00E400,优,21,11,#00E400,88,2026-05-16 19:00:00
90,良,330727,115,29.051486,优,--,16,8,116,优,#00E400,#00E400,8,国税大楼,#FFFF00,36,优,优,优,330700,#00E400,120.438346,#00E400,7,优,0.4,优,#00E400,#00E400,330727002,优,#00E400,金华市,#00E400,优,9,8,#00E400,88,2026-05-16 19:00:00
91,良,330825,114,29.0464,优,--,27,9,113,优,#00E400,#00E400,5,龙游二高,#FFFF00,36,优,优,优,330800,#00E400,119.204,#00E400,8,优,0.3,优,#00E400,#00E400,330825002,优,#00E400,衢州市,#00E400,优,21,11,#00E400,88,2026-05-16 19:00:00
92,良,331123,118,28.5991,优,--,22,5,116,优,#00E400,#00E400,5,遂昌民政局,#FFFF00,37,优,优,优,331100,#00E400,119.2622,#00E400,10,优,0.3,优,#00E400,#00E400,331123001,优,#00E400,丽水市,#00E400,优,23,9,#00E400,93,2026-05-16 19:00:00
93,良,331125,117,28.1062,优,--,26,7,117,优,#00E400,#00E400,6,云和三中,#FFFF00,37,优,优,优,331100,#00E400,119.5728,#00E400,19,优,0.2,优,#00E400,#00E400,331125002,优,#00E400,丽水市,#00E400,优,37,11,#00E400,93,2026-05-16 19:00:00
94,良,330483,117,30.7369,优,--,30,13,136,优,#00E400,#00E400,8,植材小学,#FFFF00,37,优,优,优,330400,#00E400,120.4902,#00E400,11,优,0.4,优,#00E400,#00E400,330483509,优,#00E400,嘉兴市,#00E400,优,33,14,#00E400,93,2026-05-16 19:00:00
95,良,330281,94,30.0497,优,--,26,13,110,优,#00E400,#00E400,5,龙山公园,#FFFF00,38,优,优,优,330200,#00E400,121.1475,#00E400,18,优,0.4,优,#00E400,#00E400,330281001,优,#00E400,宁波市,#00E400,优,38,13,#00E400,96,2026-05-16 19:00:00
96,良,330522,119,31.0263,优,--,23,14,125,优,#00E400,#00E400,6,龙山新区,#FFFF00,38,优,优,优,330500,#00E400,119.9046,#00E400,11,优,0.6,优,#00E400,#00E400,330522002,优,#00E400,湖州市,#00E400,优,25,12,#00E400,96,2026-05-16 19:00:00
97,良,330921,79,30.2517,优,--,30,13,103,优,#00E400,#00E400,7,岱山高亭,#FFFF00,38,优,优,优,330900,#00E400,122.1958,#00E400,16,优,0.6,优,#00E400,#00E400,330921002,优,#00E400,舟山市,#00E400,优,38,14,#00E400,96,2026-05-16 19:00:00
98,良,330521,119,30.548493,优,--,32,10,129,优,#00E400,#00E400,7,春晖小学,#FFFF00,38,优,优,优,330500,#00E400,119.9505,#00E400,15,优,0.4,优,#00E400,#00E400,330521003,优,#00E400,湖州市,#00E400,优,36,17,#00E400,96,2026-05-16 19:00:00
99,良,330127,122,29.605,优,--,20,7,124,优,#00E400,#00E400,12,老年活动中心,#FFFF00,39,优,优,优,330100,#00E400,119.0372,#00E400,10,优,0.5,优,#00E400,#00E400,330127T_4,优,#00E400,杭州市,#00E400,优,23,12,#00E400,100,2026-05-16 19:00:00
100,良,330523,122,30.5974,优,--,18,8,125,优,#00E400,#00E400,5,安吉城东,#FFFF00,39,优,优,优,330500,#00E400,119.6953,#00E400,14,优,0.2,优,#00E400,#00E400,330523002,优,#00E400,湖州市,#00E400,优,22,12,#00E400,100,2026-05-16 19:00:00
101,良,330825,124,29.0392,优,--,23,10,121,优,#00E400,#00E400,5,建设大楼,#FFFF00,39,优,优,优,330800,#00E400,119.1675,#00E400,3,优,0.4,优,#00E400,#00E400,330825001,优,#00E400,衢州市,#00E400,优,23,10,#00E400,100,2026-05-16 19:00:00
102,良,330122,126,29.7955,优,--,27,8,122,优,#00E400,#00E400,6,桐庐江南,#FFFF00,40,优,优,优,330100,#00E400,119.6874,#00E400,15,优,0.3,优,#00E400,#00E400,330122001,优,#00E400,杭州市,#00E400,优,26,15,#00E400,103,2026-05-16 19:00:00
103,良,330522,127,31.0143,优,--,29,13,135,优,#00E400,#00E400,4,职教中心,#FFFF00,40,优,优,优,330500,#00E400,119.8935,#00E400,12,优,0.2,优,#00E400,#00E400,330522001,优,#00E400,湖州市,#00E400,优,33,13,#00E400,103,2026-05-16 19:00:00
104,良,330881,95,28.7465,优,--,26,10,108,优,#00E400,#00E400,9,江山环保大楼,#FFFF00,40,优,优,优,330800,#00E400,118.6301,#00E400,13,优,0.4,优,#00E400,#00E400,330881001,优,#00E400,衢州市,#00E400,优,40,12,#00E400,103,2026-05-16 19:00:00
105,良,330122,130,29.8058,优,--,29,8,131,优,#00E400,#00E400,4,桐庐江北,#FFFF00,41,优,优,优,330100,#00E400,119.669,#00E400,13,优,0.4,优,#00E400,#00E400,330122002,优,#00E400,杭州市,#00E400,优,27,15,#00E400,106,2026-05-16 19:00:00
106,良,331127,107,27.9772,优,--,25,6,110,优,#00E400,#00E400,3,景宁县政府,#FFFF00,41,优,优,优,331100,#00E400,119.6311,#00E400,11,优,0.4,优,#00E400,#00E400,331127002,优,#00E400,丽水市,#00E400,优,41,9,#00E400,106,2026-05-16 19:00:00
107,优,331022,81,29.1028,优,--,25,10,92,优,#00E400,#00E400,5,心湖站,#00E400,42,优,优,优,331000,#00E400,121.3918,#00E400,20,优,0.3,优,#00E400,#00E400,331022002,优,#00E400,台州市,#00E400,优,42,12,#00E400,108,2026-05-16 19:00:00
108,良,330483,98,30.625,优,--,36,17,118,优,#00E400,#00E400,5,振东新六中站,#FFFF00,44,优,优,优,330400,#00E400,120.5613,#00E400,16,优,0.3,优,#00E400,#00E400,330483002,优,#00E400,嘉兴市,#00E400,优,44,15,#00E400,109,2026-05-16 19:00:00
109,良,330481,94,30.5261,优,--,32,12,115,优,#00E400,#00E400,6,海宁监测大楼,#FFFF00,49,优,优,优,330400,#00E400,120.6739,#00E400,12,优,0.2,优,#00E400,#00E400,330481001,优,#00E400,嘉兴市,#00E400,优,49,17,#00E400,110,2026-05-16 19:00:00
110,良,330523,129,30.6422,优,--,30,13,125,优,#00E400,#00E400,8,安吉实验小学,#FFFF00,49,优,优,优,330500,#00E400,119.6768,#00E400,14,优,0.3,优,#00E400,#00E400,330523001,优,#00E400,湖州市,#00E400,优,49,16,#00E400,110,2026-05-16 19:00:00
111,良,330127,105,29.5995,优,--,25,5,107,优,#00E400,#00E400,--,淳安环保大楼,#FFFF00,--,优,--,优,330100,--,119.0481,#00E400,6,优,0.5,优,#00E400,#00E400,330127001,优,--,杭州市,#00E400,--,19,12,#00E400,111,2026-05-16 19:00:00
112,良,330328,96,27.7838,优,--,25,5,106,优,#00E400,#00E400,--,大峃,#FFFF00,--,优,--,优,330300,--,120.085,#00E400,8,优,0.2,优,#00E400,#00E400,330328001,优,--,温州市,#00E400,--,25,10,#00E400,111,2026-05-16 19:00:00
113,良,330328,103,27.804722,--,--,23,1,110,优,#00E400,#00E400,8,文成中学,#FFFF00,--,优,--,优,330300,#00E400,120.077222,#00E400,9,优,--,优,--,#00E400,330328002,优,--,温州市,#00E400,优,23,10,#00E400,111,2026-05-16 19:00:00
114,优,330326,80,27.6593,优,--,23,4,86,优,#00E400,#00E400,--,平阳监测站,#00E400,--,优,--,优,330300,--,120.5705,#00E400,9,优,0.5,优,#00E400,#00E400,330326001,优,--,温州市,#00E400,--,26,10,#00E400,111,2026-05-16 19:00:00
115,良,331123,109,28.5839,优,--,21,6,106,优,#00E400,--,7,遂昌中学,#FFFF00,--,优,--,优,331100,#00E400,119.2656,#00E400,--,优,0.4,--,#00E400,#00E400,331123002,优,--,丽水市,#00E400,优,22,9,#00E400,111,2026-05-16 19:00:00
116,优,331126,95,27.629585,优,--,9,5,97,优,#00E400,#00E400,--,庆元监测楼,#00E400,--,优,--,优,331100,--,119.054809,#00E400,6,优,0.3,优,#00E400,#00E400,331126001,优,--,丽水市,#00E400,--,14,5,#00E400,111,2026-05-16 19:00:00
117,良,331126,103,27.6211,优,--,12,3,101,优,#00E400,--,5,庆元气象局,#FFFF00,--,优,--,优,331100,#00E400,119.0788,#00E400,--,优,0.3,--,#00E400,#00E400,331126002,优,--,丽水市,#00E400,优,19,7,#00E400,111,2026-05-16 19:00:00
