timepoint,stationcode,longitude,latitude,area,positionname,primarypollutant,aqi,pm10,pm10_24h,pm2_5,pm2_5_24h,o3,o3_24h,o3_8h,o3_8h_24h,no2,no2_24h,so2,so2_24h,co,co_24h
2026-03-20T0400,1128A,125.1695,43.83,长春市,岱山公园,,27,27,84,18,35,72,72,NA,NA,7,16,4,4,0.1,0.2
2026-03-20T0400,4281A,125.334645,43.916281,长春市,北亚泰大街1068号,,29,22,89,20,40,70,70,NA,NA,10,20,7,7,0.3,0.4
2026-03-20T0400,1335A,113.082,28.2421,长沙市,经开区环保局,,48,45,30,33,20,26,26,NA,NA,23,24,3,4,0.6,0.6
2026-03-20T0400,1336A,112.8873,28.2202,长沙市,高开区环保局,,49,42,38,34,27,43,43,NA,NA,13,31,4,9,0.8,0.9
2026-03-20T0400,1337A,113.0785,28.2012,长沙市,马坡岭,细颗粒物(PM2.5),54,43,30,37,24,17,17,NA,NA,27,26,4,5,0.8,0.9
2026-03-20T0400,1338A,112.9448,28.1894,长沙市,湖南师范大学,细颗粒物(PM2.5),64,42,37,42,29,37,37,NA,NA,17,32,4,4,1.0,1.1
2026-03-20T0400,1339A,113.0177,28.1322,长沙市,雨花区环保局,,50,45,32,35,22,30,30,NA,NA,19,28,3,3,0.9,0.9
2026-03-20T0400,1340A,112.9795,28.2593,长沙市,伍家岭,NA,NA,42,39,41,28,31,31,NA,NA,16,28,3,3,NA,0.8
2026-03-20T0400,1341A,113.002,28.1944,长沙市,火车新站,细颗粒物(PM2.5),54,41,34,37,25,30,30,NA,NA,24,33,4,4,0.7,0.8
2026-03-20T0400,1342A,112.9846,28.1177,长沙市,天心区环保局,细颗粒物(PM2.5),66,51,35,43,28,34,34,NA,NA,24,35,5,5,0.7,0.8
2026-03-20T0400,1343A,112.8906,28.1307,长沙市,湖南中医药大学,细颗粒物(PM2.5),52,42,40,36,30,41,41,NA,NA,12,29,5,6,0.7,0.9
2026-03-20T0400,1727A,113.1146,36.1547,长治市,清华站,颗粒物(PM10),85,99,69,42,30,12,12,NA,NA,46,22,8,9,0.7,0.7
2026-03-20T0400,1730A,113.0887,36.2126,长治市,审计局,细颗粒物(PM2.5),76,83,66,48,33,33,33,NA,NA,25,20,9,10,0.8,0.7
2026-03-20T0400,1731A,113.0845,36.1856,长治市,长治八中,颗粒物(PM10),83,96,88,46,36,40,40,NA,NA,14,17,11,11,0.8,0.7
2026-03-20T0400,2845A,113.1561,36.1912,长治市,德盛苑,颗粒物(PM10),65,70,66,35,31,71,71,NA,NA,14,14,10,11,0.8,0.6
2026-03-20T0400,3568A,113.0603,36.0464,长治市,向阳小学,颗粒物(PM10),87,101,100,40,31,44,44,NA,NA,18,22,11,13,0.8,0.7
2026-03-20T0400,3569A,112.8788,36.315,长治市,屯留一中,颗粒物(PM10),77,87,66,34,20,62,62,NA,NA,22,23,7,7,0.9,0.6
2026-03-20T0400,4189A,113.113092,36.199482,长治市,英华南巷50号,颗粒物(PM10),76,86,75,41,32,43,43,NA,NA,18,21,12,12,0.7,0.6
2026-03-20T0400,4190A,113.23666,36.33435,长治市,学府街1号,颗粒物(PM10),79,90,73,33,28,30,30,NA,NA,37,24,7,6,1.5,0.9
2026-03-20T0400,1854A,111.696,28.9725,常德市,市二中,细颗粒物(PM2.5),106,98,64,66,41,37,37,NA,NA,13,15,6,7,1.1,0.9
2026-03-20T0400,3138A,111.7152,29.0288,常德市,武陵区永安,细颗粒物(PM2.5),107,74,64,67,48,47,47,NA,NA,14,19,4,4,1.0,0.9
2026-03-20T0400,3139A,111.6891,28.9881,常德市,鼎城区玉霞,细颗粒物(PM2.5),101,83,61,61,43,45,45,NA,NA,15,17,8,8,1.0,0.9
2026-03-20T0400,3140A,111.6651,29.0526,常德市,武陵区长庚,细颗粒物(PM2.5),107,NA,57,67,50,60,60,NA,NA,9,14,8,7,1.1,1
2026-03-20T0400,1196A,119.9524,31.7586,常州市,市监测站,细颗粒物(PM2.5),80,74,86,50,62,15,15,NA,NA,53,41,8,8,0.7,0.8
2026-03-20T0400,1200A,119.9351,31.703,常州市,武进监测站,细颗粒物(PM2.5),108,92,90,68,67,8,8,NA,NA,62,39,9,7,0.8,0.7
2026-03-20T0400,3002A,119.9701,31.813,常州市,行政中心,NA,NA,84,95,50,60,15,15,NA,NA,56,41,6,5,NA,0.6
2026-03-20T0400,3003A,120.0434,31.7726,常州市,经开区,颗粒物(PM10),63,67,88,41,60,23,23,NA,NA,42,45,9,9,0.7,1
2026-03-20T0400,3010A,119.8919,31.7892,常州市,钟楼,细颗粒物(PM2.5),96,82,82,58,59,12,12,NA,NA,58,42,7,7,0.5,0.6
2026-03-20T0400,3429A,119.8595,31.706,常州市,武进经发区,细颗粒物(PM2.5),121,117,93,83,76,1,1,NA,NA,80,54,8,8,1.0,0.9
2026-03-20T0400,1224A,120.0625,30.2737,杭州市,西溪,细颗粒物(PM2.5),118,106,79,79,59,32,32,NA,NA,19,22,8,8,0.9,0.9
2026-03-20T0400,1226A,120.3417,30.315,杭州市,下沙,细颗粒物(PM2.5),106,88,85,66,59,56,56,NA,NA,29,28,8,8,0.5,0.7
2026-03-20T0400,1227A,120.1252,30.2465,杭州市,卧龙桥,细颗粒物(PM2.5),114,93,80,75,55,31,31,NA,NA,22,25,7,8,0.5,0.5
2026-03-20T0400,1228A,120.1902,30.2691,杭州市,浙江农大,细颗粒物(PM2.5),113,98,72,74,57,47,47,NA,NA,37,34,7,7,0.8,0.8
2026-03-20T0400,1230A,120.1195,30.3121,杭州市,和睦小学,细颗粒物(PM2.5),123,112,88,85,63,28,28,NA,NA,43,25,7,7,0.8,0.8
2026-03-20T0400,1231A,120.3076,30.4146,杭州市,临平镇,细颗粒物(PM2.5),104,90,81,64,63,44,44,NA,NA,42,26,6,7,0.6,0.7
2026-03-20T0400,1232A,120.2753,30.1839,杭州市,城厢镇,细颗粒物(PM2.5),110,97,71,71,53,56,56,NA,NA,23,23,10,9,0.8,0.8
2026-03-20T0400,1233A,120.0883,30.1808,杭州市,云栖,细颗粒物(PM2.5),90,88,67,55,46,16,16,NA,NA,34,29,4,5,0.7,0.7
2026-03-20T0400,3557A,119.9463,30.0496,杭州市,镇二中,细颗粒物(PM2.5),114,78,53,75,51,39,39,NA,NA,27,22,5,4,0.9,0.8
2026-03-20T0400,3558A,119.7184,30.2367,杭州市,市府大楼,细颗粒物(PM2.5),109,80,62,69,52,14,14,NA,NA,19,20,6,6,0.6,0.6
2026-03-20T0400,3656A,120.1554,30.2863,杭州市,消防大队,细颗粒物(PM2.5),116,103,87,77,64,36,36,NA,NA,41,27,8,8,0.7,0.8
2026-03-20T0400,1270A,117.1957,31.7845,合肥市,明珠广场,细颗粒物(PM2.5),131,107,102,94,88,64,64,NA,NA,16,22,6,5,1.2,1.2
2026-03-20T0400,1271A,117.307,31.8765,合肥市,三里街,细颗粒物(PM2.5),140,117,109,103,88,49,49,NA,NA,32,39,5,5,0.9,1
2026-03-20T0400,1272A,117.2587,31.8703,合肥市,琥珀山庄,细颗粒物(PM2.5),130,110,98,92,77,30,30,NA,NA,44,33,6,6,1.0,1
2026-03-20T0400,1275A,117.2593,31.9376,合肥市,庐阳区,细颗粒物(PM2.5),141,132,109,105,80,30,30,NA,NA,56,35,4,4,1.1,1.1
2026-03-20T0400,1276A,117.345251,31.861615,合肥市,瑶海区,细颗粒物(PM2.5),130,127,109,92,74,58,58,NA,NA,30,36,5,5,0.8,0.9
2026-03-20T0400,1277A,117.3033,31.7967,合肥市,包河区,细颗粒物(PM2.5),122,112,100,84,69,2,2,NA,NA,111,43,9,8,1.1,1.1
2026-03-20T0400,1278A,117.278,31.7392,合肥市,滨湖新区,细颗粒物(PM2.5),121,114,101,83,79,20,20,NA,NA,58,19,4,4,0.9,0.9
2026-03-20T0400,1279A,117.1324,31.8395,合肥市,高新区,细颗粒物(PM2.5),122,110,99,84,70,69,69,NA,NA,18,22,5,5,1.0,1
2026-03-20T0400,3464A,117.3802,31.9148,合肥市,高教基地,细颗粒物(PM2.5),96,102,97,58,71,22,22,NA,NA,33,31,7,7,0.8,0.8
2026-03-20T0400,4098A,117.2518,31.8404,合肥市,中国科学技术大学,细颗粒物(PM2.5),125,105,97,87,75,61,61,NA,NA,22,23,4,5,0.9,0.9
2026-03-20T0400,3614A,79.9241,37.0878,和田地区,地区环保局,颗粒物(PM10),135,210,261,57,58,56,56,NA,NA,18,18,2,2,0.5,0.5
2026-03-20T0400,3615A,79.9132,37.1137,和田地区,市环保局,颗粒物(PM10),132,202,231,59,61,58,58,NA,NA,20,24,1,2,0.6,0.7
2026-03-20T0400,2517A,108.0496,24.6957,河池市,市环保站,,45,45,44,30,27,21,21,NA,NA,7,9,5,7,0.6,0.6
2026-03-20T0400,4302A,108.0901,24.6945,河池市,上任中路54号,,49,49,46,33,27,27,27,NA,NA,9,10,6,7,0.7,0.7
2026-03-20T0400,1697A,114.6962,23.7538,河源市,东埔,,29,29,36,20,26,64,64,NA,NA,9,14,6,6,0.7,0.8
2026-03-20T0400,2568A,102.2503,31.8896,阿坝藏族羌族自治州,马师校,,24,24,22,3,8,64,64,NA,NA,3,7,5,5,0.3,0.3
2026-03-20T0400,3994A,102.2174,31.9016,阿坝藏族羌族自治州,马尔康中学西区,,21,8,19,3,8,65,65,NA,NA,5,7,2,2,0.3,0.3
2026-03-20T0400,2695A,80.2899,41.1684,阿克苏地区,电视台,颗粒物(PM10),133,204,235,92,112,52,52,NA,NA,24,23,3,3,0.9,0.8
2026-03-20T0400,2696A,80.2592,41.1541,阿克苏地区,艺术中心,颗粒物(PM10),140,222,224,96,88,11,11,NA,NA,61,30,4,4,0.2,0.7
2026-03-20T0400,2205A,105.699,38.8409,阿拉善盟,蒙二幼,颗粒物(PM10),65,71,79,15,17,89,89,NA,NA,3,6,8,8,0.5,0.5
2026-03-20T0400,2206A,105.7198,38.8508,阿拉善盟,环保局新楼,颗粒物(PM10),65,70,76,13,16,88,88,NA,NA,3,5,8,8,0.5,0.6
2026-03-20T0400,2708A,88.1266,47.8515,阿勒泰地区,市站,,32,19,19,3,3,100,100,NA,NA,2,11,5,6,0.1,0.2
2026-03-20T0400,4166A,88.1198,47.7931,阿勒泰地区,阿勒泰路33号,,31,23,20,3,3,97,97,NA,NA,4,11,5,6,0.2,0.3
2026-03-20T0400,2630A,80.1171,32.4999,阿里地区,阿里监测站,,25,6,10,3,3,80,80,NA,NA,2,4,9,9,0.3,0.3
2026-03-20T0400,3192A,80.0906,32.5029,阿里地区,阿里藏医院,,28,6,6,3,3,88,88,NA,NA,2,2,11,11,0.2,0.3
2026-03-20T0400,2644A,109.0088,32.6974,安康市,汉滨区检察院,颗粒物(PM10),58,61,69,25,28,13,13,NA,NA,22,26,4,4,0.5,0.5
2026-03-20T0400,4054A,109.0324,32.6913,安康市,市邮政管理局,颗粒物(PM10),66,72,78,31,31,13,13,NA,NA,23,23,6,6,0.6,0.7
2026-03-20T0400,2291A,117.0806,30.5181,安庆市,环科院,细颗粒物(PM2.5),123,103,76,85,59,43,43,NA,NA,18,15,7,7,0.9,0.8
2026-03-20T0400,2292A,117.0331,30.5118,安庆市,马山宾馆,细颗粒物(PM2.5),124,94,73,86,63,43,43,NA,NA,24,21,6,5,1.0,1
2026-03-20T0400,2294A,116.9897,30.6146,安庆市,安庆大学,细颗粒物(PM2.5),111,106,73,72,50,42,42,NA,NA,13,11,4,4,0.8,0.7
2026-03-20T0400,3173A,117.0598,30.5351,安庆市,市人大,细颗粒物(PM2.5),112,108,84,73,57,41,41,NA,NA,22,22,6,6,0.8,0.7
2026-03-20T0400,3123A,105.9408,26.2431,安顺市,凤凰山,,15,NA,20,8,15,45,45,NA,NA,8,9,9,11,0.6,0.7
2026-03-20T0400,3124A,105.9443,26.2567,安顺市,金钟山,,13,13,18,6,15,39,39,NA,NA,7,7,10,11,0.8,0.8
2026-03-20T0400,3125A,105.8983,26.248,安顺市,娄家坡,,14,10,23,6,17,42,42,NA,NA,8,10,11,12,0.7,0.8
2026-03-20T0400,1819A,114.3552,36.1017,安阳市,红庙街,细颗粒物(PM2.5),114,103,89,75,48,8,8,NA,NA,38,29,2,4,0.6,0.6
2026-03-20T0400,1820A,114.361,36.0681,安阳市,银杏小区,细颗粒物(PM2.5),114,95,93,75,53,4,4,NA,NA,40,32,2,4,0.4,0.3
2026-03-20T0400,3141A,114.3921,36.0879,安阳市,信访局,细颗粒物(PM2.5),128,105,91,90,54,13,13,NA,NA,33,30,2,4,0.3,0.1
2026-03-20T0400,3669A,114.4706,36.0634,安阳市,左辅环卫站,细颗粒物(PM2.5),107,126,112,67,55,22,22,NA,NA,23,20,3,4,0.5,0.4
2026-03-20T0400,4117A,114.2918,36.0769,安阳市,钢三路198号,细颗粒物(PM2.5),120,134,117,81,49,15,15,NA,NA,30,28,3,4,0.5,0.6
2026-03-20T0400,1748A,123.0441,41.1201,鞍山市,深沟寺,,29,29,65,19,36,60,60,NA,NA,22,26,10,12,0.7,1.1
2026-03-20T0400,1749A,123.011,41.0931,鞍山市,太阳城,,28,28,65,18,39,69,69,NA,NA,17,26,9,13,0.7,1.1
2026-03-20T0400,1750A,123.0483,41.1445,鞍山市,太平,,40,40,69,21,37,68,68,NA,NA,17,28,16,17,0.8,1.6
2026-03-20T0400,1751A,122.964,41.0968,鞍山市,铁西三道街,,34,34,72,16,41,65,65,NA,NA,23,33,20,14,1.4,1.2
2026-03-20T0400,1753A,123.0219,41.0822,鞍山市,明达新区,,27,27,63,16,36,70,70,NA,NA,14,24,8,14,0.6,1
2026-03-20T0400,4201A,122.944647,41.082639,鞍山市,兴盛南路290号,,25,25,76,15,40,73,73,NA,NA,18,32,6,11,0.7,1.2
2026-03-20T0400,2195A,107.4206,40.7609,巴彦淖尔市,附二中,颗粒物(PM10),55,57,55,22,23,43,43,NA,NA,25,19,8,10,0.4,0.4
2026-03-20T0400,2196A,107.37,40.7372,巴彦淖尔市,市环保大楼,颗粒物(PM10),52,52,56,19,22,45,45,NA,NA,17,18,6,7,0.5,0.5
2026-03-20T0400,1956A,86.1476,41.7529,巴音郭楞蒙古自治州,孔雀公园,颗粒物(PM10),132,201,236,73,75,0,0,NA,NA,80,36,10,10,0.8,0.7
2026-03-20T0400,1957A,86.1971,41.7166,巴音郭楞蒙古自治州,棉纺厂,颗粒物(PM10),154,257,288,70,80,4,4,NA,NA,57,26,/,/,/,/
2026-03-20T0400,1958A,86.236,41.7172,巴音郭楞蒙古自治州,经济开发区,颗粒物(PM10),125,183,229,80,86,34,34,NA,NA,25,21,7,17,0.3,0.5
2026-03-20T0400,3181A,106.776805,31.852614,巴中市,市五中,,31,31,35,18,18,4,4,NA,NA,14,18,8,7,0.7,0.7
2026-03-20T0400,3183A,106.7419,31.8654,巴中市,圣泉水务公司,,27,27,30,15,14,1,1,NA,NA,19,17,9,9,0.7,0.7
2026-03-20T0400,3616A,106.7617,31.8343,巴中市,市中心医院,,32,32,32,21,16,3,3,NA,NA,17,19,10,9,0.8,0.7
2026-03-20T0400,2235A,122.7909,45.608,白城市,洮北区环保局,细颗粒物(PM2.5),152,150,109,116,74,56,56,NA,NA,23,17,6,4,0.8,0.5
2026-03-20T0400,2236A,122.8741,45.5725,白城市,市环保局,细颗粒物(PM2.5),145,144,104,109,71,32,32,NA,NA,25,12,4,5,0.7,0.5
2026-03-20T0400,2231A,126.4219,41.9172,白山市,喜丰,NA,NA,61,63,13,15,84,84,NA,NA,5,13,6,10,NA,0.7
2026-03-20T0400,2232A,126.4082,41.9416,白山市,环保局,,41,41,42,16,18,85,85,NA,NA,6,10,9,10,0.6,0.8
2026-03-20T0400,2647A,104.1727,36.5448,白银市,第三小学,颗粒物(PM10),105,131,138,43,40,36,36,NA,NA,30,19,7,7,0.4,0.6
2026-03-20T0400,2648A,104.1467,36.5482,白银市,动力公司,颗粒物(PM10),161,271,145,43,36,3,3,NA,NA,48,19,2,5,0.5,0.5
2026-03-20T0400,2512A,106.6102,23.901,百色市,市监测站,细颗粒物(PM2.5),62,52,53,41,33,38,38,NA,NA,16,13,16,17,0.6,0.7
2026-03-20T0400,2513A,106.6524,23.8842,百色市,市中心血站,颗粒物(PM10),53,53,56,36,37,54,54,NA,NA,14,15,15,16,0.6,0.7
2026-03-20T0400,4133A,106.6273,23.8798,百色市,龙景西路,颗粒物(PM10),60,63,58,35,36,49,49,NA,NA,13,12,25,18,0.6,0.6
2026-03-20T0400,2270A,117.396,32.9389,蚌埠市,工人疗养院,细颗粒物(PM2.5),155,136,121,118,98,75,75,NA,NA,24,24,5,4,NA,0.9
2026-03-20T0400,2271A,117.3606,32.9428,蚌埠市,百货大楼,细颗粒物(PM2.5),144,134,116,108,89,83,83,NA,NA,17,22,5,4,0.9,0.7
2026-03-20T0400,2273A,117.4183,32.8909,蚌埠市,蚌埠学院,细颗粒物(PM2.5),142,114,97,106,91,72,72,NA,NA,18,17,3,4,0.7,0.7
2026-03-20T0400,2274A,117.3534,32.9672,蚌埠市,淮上区政府,细颗粒物(PM2.5),156,134,111,119,96,88,88,NA,NA,20,22,5,4,0.8,0.7
2026-03-20T0400,2275A,117.3143,32.8977,蚌埠市,高新区,细颗粒物(PM2.5),139,105,103,102,89,46,46,NA,NA,22,24,6,6,0.8,0.8
2026-03-20T0400,3715A,117.3091,32.9314,蚌埠市,蚌埠田家炳中学,细颗粒物(PM2.5),158,144,118,120,97,63,63,NA,NA,22,24,31,9,0.7,0.6
2026-03-20T0400,1585A,109.8761,40.6533,包头市,市环境监测站,颗粒物(PM10),56,58,58,34,33,51,51,NA,NA,30,32,20,16,0.8,0.9
2026-03-20T0400,1587A,109.9992,40.5843,包头市,包头八中,,50,44,73,35,48,9,9,NA,NA,71,48,8,18,0.7,1
2026-03-20T0400,1589A,109.8641,40.6288,包头市,惠龙物流,细颗粒物(PM2.5),72,62,52,46,36,17,17,NA,NA,64,34,9,14,0.7,0.8
2026-03-20T0400,1590A,110.0376,40.5546,包头市,东河鸿龙湾,细颗粒物(PM2.5),111,74,58,72,45,7,7,NA,NA,85,53,9,12,0.9,0.8
2026-03-20T0400,3283A,109.9154,40.5684,包头市,滨河大厦,颗粒物(PM10),64,69,58,40,40,10,10,NA,NA,67,48,8,12,0.8,0.8
2026-03-20T0400,3419A,109.9449,40.6259,包头市,包头市委党校,,31,25,56,21,35,22,22,NA,NA,62,46,7,16,0.4,0.8
2026-03-20T0400,3683A,109.8332,40.6577,包头市,昆区政府,,44,44,51,27,37,56,56,NA,NA,29,34,21,18,0.8,1
2026-03-20T0400,1931A,107.0802,34.3129,宝鸡市,竹园沟,,44,44,112,12,26,15,15,NA,NA,11,22,6,6,0.2,0.2
2026-03-20T0400,1933A,107.1429,34.3549,宝鸡市,监测站,颗粒物(PM10),74,83,127,30,41,9,9,NA,NA,19,25,8,8,0.3,0.3
2026-03-20T0400,1934A,107.1172,34.3759,宝鸡市,技工学校,颗粒物(PM10),80,92,133,35,43,19,19,NA,NA,12,22,4,5,0.4,0.5
2026-03-20T0400,1936A,107.2025,34.3518,宝鸡市,文理学院,颗粒物(PM10),93,110,136,42,46,13,13,NA,NA,20,27,6,5,0.6,0.6
2026-03-20T0400,1937A,107.2396,34.3626,宝鸡市,三迪小学,颗粒物(PM10),96,114,145,41,48,17,17,NA,NA,21,32,4,5,0.5,0.5
2026-03-20T0400,4155A,107.1721,34.3558,宝鸡市,滨河北路,颗粒物(PM10),98,116,152,43,45,14,14,NA,NA,20,28,5,6,0.6,0.6
2026-03-20T0400,4308A,107.3898,34.3601,宝鸡市,陈仓区北开路21号,颗粒物(PM10),94,111,148,48,46,22,22,NA,NA,23,33,67,21,0.9,0.7
2026-03-20T0400,1051A,115.4803,38.8568,保定市,游泳馆,细颗粒物(PM2.5),112,106,73,73,44,35,35,NA,NA,40,27,12,12,0.5,0.7
2026-03-20T0400,1052A,115.509,38.8895,保定市,华电二区,细颗粒物(PM2.5),113,104,62,74,38,40,40,NA,NA,25,20,6,6,0.6,0.6
2026-03-20T0400,1053A,115.4588,38.9037,保定市,接待中心,细颗粒物(PM2.5),108,118,77,68,39,37,37,NA,NA,33,26,5,6,0.3,0.3
2026-03-20T0400,1054A,115.4484,38.8344,保定市,地表水厂,细颗粒物(PM2.5),110,131,81,71,36,36,36,NA,NA,36,31,9,8,0.7,0.6
2026-03-20T0400,3581A,115.3136,38.9511,保定市,满城区生态环境分局,颗粒物(PM10),100,119,94,57,41,23,23,NA,NA,41,29,5,7,0.5,0.5
2026-03-20T0400,3582A,115.4709,38.7628,保定市,清苑区第二中学,"颗粒物(PM10),细颗粒物(PM2.5)",104,130,87,64,41,16,16,NA,NA,40,24,9,9,0.4,0.4
2026-03-20T0400,3583A,115.6231,39.0223,保定市,徐水物探局,细颗粒物(PM2.5),113,142,93,74,39,23,23,NA,NA,48,29,4,5,0.5,0.6
2026-03-20T0400,4004A,115.4199,38.8665,保定市,双鹰农机,细颗粒物(PM2.5),120,138,90,81,43,36,36,NA,NA,47,36,7,7,0.5,0.5
2026-03-20T0400,4034A,115.515,38.8589,保定市,植保所站,细颗粒物(PM2.5),119,123,78,80,39,36,36,NA,NA,32,26,11,6,0.4,0.5
2026-03-20T0400,2594A,99.1589,25.1137,保山市,市环境监测站,,19,19,36,10,24,55,55,NA,NA,6,10,5,7,0.2,0.2
2026-03-20T0400,2595A,99.1616,25.1381,保山市,市环保局,,29,24,43,20,26,68,68,NA,NA,3,6,5,5,0.3,0.3
2026-03-20T0400,1867A,109.1435,21.4085,北海市,海滩公园,,16,15,28,11,15,51,51,NA,NA,8,11,8,8,0.4,0.7
2026-03-20T0400,1868A,109.0983,21.466,北海市,新市环保局,,26,26,28,3,15,51,51,NA,NA,6,11,8,8,0.5,0.6
2026-03-20T0400,1869A,109.1775,21.5232,北海市,北海工业园,,17,17,46,3,16,44,44,NA,NA,6,10,6,9,0.4,0.5
2026-03-20T0400,3400A,109.1844,21.4396,北海市,龙潭自来水厂,,18,18,29,3,19,51,51,NA,NA,5,10,4,5,0.6,0.7
2026-03-20T0400,1001A,116.3611,39.8786,北京市,万寿西宫,颗粒物(PM10),63,68,73,37,36,43,43,NA,NA,47,36,3,4,0.5,0.5
2026-03-20T0400,1003A,116.4174,39.9289,北京市,东四,颗粒物(PM10),61,65,70,35,35,45,45,NA,NA,41,33,6,7,0.4,0.5
2026-03-20T0400,1004A,116.4073,39.8858,北京市,天坛,颗粒物(PM10),62,66,65,38,32,14,14,NA,NA,40,27,2,4,0.5,0.4
2026-03-20T0400,1005A,116.4622,39.9364,北京市,农展馆,颗粒物(PM10),69,76,69,41,32,7,7,NA,NA,71,31,5,6,0.5,0.4
2026-03-20T0400,1006A,116.3399,39.9293,北京市,官园,颗粒物(PM10),60,64,71,36,38,41,41,NA,NA,43,39,2,3,0.4,0.4
2026-03-20T0400,1007A,116.2879,39.9613,北京市,海淀万柳,颗粒物(PM10),71,79,72,39,31,1,1,NA,NA,89,43,3,4,0.5,0.3
2026-03-20T0400,1008A,116.6635,40.1349,北京市,顺义新城,颗粒物(PM10),53,53,59,23,26,54,54,NA,NA,27,32,4,5,0.3,0.4
2026-03-20T0400,1009A,116.6275,40.327,北京市,怀柔镇,,37,37,46,20,22,54,54,NA,NA,9,22,4,5,0.5,0.5
2026-03-20T0400,1010A,116.2295,40.217,北京市,昌平镇,,24,24,46,7,26,39,39,NA,NA,29,32,2,4,0.3,0.5
2026-03-20T0400,1011A,116.3968,39.982,北京市,奥体中心,颗粒物(PM10),61,65,67,37,32,11,11,NA,NA,74,39,4,6,0.5,0.6
2026-03-20T0400,3418A,116.8336,40.4095,北京市,密云新城,,44,44,55,23,22,60,60,NA,NA,12,23,2,3,0.5,0.5
2026-03-20T0400,3671A,116.0879,39.9725,北京市,门头沟三家店,颗粒物(PM10),56,58,62,25,28,36,36,NA,NA,36,31,4,5,0.4,0.4
2026-03-20T0400,3672A,116.1507,39.8246,北京市,丰台云岗,颗粒物(PM10),55,56,80,23,32,46,46,NA,NA,36,34,3,3,0.4,0.4
2026-03-20T0400,3674A,115.9578,39.7602,北京市,房山燕山,颗粒物(PM10),57,59,58,31,29,51,51,NA,NA,15,22,4,5,0.4,0.5
2026-03-20T0400,3675A,116.4669,39.7734,北京市,大兴旧宫,颗粒物(PM10),79,90,76,43,33,4,4,NA,NA,83,31,5,5,0.6,0.4
2026-03-20T0400,3694A,115.9859,40.4562,北京市,延庆石河营,,26,26,49,15,29,3,3,NA,NA,43,33,2,3,0.5,0.5
2026-03-20T0400,3695A,116.6151,40.3052,北京市,怀柔新城,,43,41,43,30,24,50,50,NA,NA,6,15,3,3,0.3,0.3
2026-03-20T0400,3696A,116.2542,39.8764,北京市,丰台小屯,颗粒物(PM10),67,73,81,33,34,31,31,NA,NA,61,49,4,5,0.4,0.4
2026-03-20T0400,3697A,116.8399,40.3843,北京市,密云镇,颗粒物(PM10),53,54,51,27,23,31,31,NA,NA,32,36,2,3,0.4,0.4
2026-03-20T0400,4057A,115.9423,40.4431,北京市,延庆百泉,,32,32,47,20,28,0,0,NA,NA,53,29,3,3,0.4,0.5
2026-03-20T0400,4058A,116.6598,39.9164,北京市,通州新华,颗粒物(PM10),85,98,77,44,31,1,1,NA,NA,87,41,5,5,0.5,0.4
2026-03-20T0400,4182A,116.1942,39.9158,北京市,石景山八角,颗粒物(PM10),57,59,78,25,27,26,26,NA,NA,43,35,1,5,0.4,0.4
2026-03-20T0400,4194A,117.078628,40.151726,北京市,平谷新城,颗粒物(PM10),60,63,59,36,28,40,40,NA,NA,18,28,1,3,0.4,0.5
2026-03-20T0400,1761A,123.8274146,41.31234549,本溪市,大峪,,31,31,49,14,22,70,70,NA,NA,9,21,9,12,0.5,0.9
2026-03-20T0400,1763A,123.7169,41.3094,本溪市,彩屯,,38,38,47,12,23,78,78,NA,NA,11,18,8,11,0.4,0.7
2026-03-20T0400,1764A,123.7672166,41.28649327,本溪市,东明,,32,32,57,11,24,79,79,NA,NA,9,24,8,14,0.4,1
2026-03-20T0400,1765A,123.799345,41.266614,本溪市,新立屯,,30,30,43,11,18,79,79,NA,NA,7,20,7,10,0.4,0.8
2026-03-20T0400,1766A,123.829144,41.336777,本溪市,威宁,NA,NA,38,63,13,24,77,77,NA,NA,9,26,6,9,NA,0.7
2026-03-20T0400,2587A,105.287,27.3133,毕节市,八中,,15,6,18,3,12,48,48,NA,NA,6,9,9,10,0.6,0.7
2026-03-20T0400,2588A,105.3079,27.2987,毕节市,师专,,14,6,17,3,11,44,44,NA,NA,6,9,8,9,0.6,0.6
2026-03-20T0400,4263A,105.3688,27.3598,毕节市,工业大道,,17,NA,12,3,7,54,54,NA,NA,6,9,9,10,/,/
2026-03-20T0400,1629A,117.9961,37.3604,滨州市,第二水厂,细颗粒物(PM2.5),105,88,67,65,43,70,70,NA,NA,22,24,13,11,0.5,0.5
2026-03-20T0400,1630A,117.9789,37.3931,滨州市,北中新校,NA,NA,85,65,60,39,74,74,NA,NA,25,25,NA,12,0.3,0.3
2026-03-20T0400,3514A,117.9379,37.3959,滨州市,中海酒店,细颗粒物(PM2.5),111,95,68,72,45,68,68,NA,NA,32,29,10,11,0.6,0.7
2026-03-20T0400,3515A,117.9381509,37.35547456,滨州市,开发区一中,细颗粒物(PM2.5),114,102,73,75,45,47,47,NA,NA,32,22,14,15,0.7,0.6
2026-03-20T0400,3516A,118.0914,37.6938,滨州市,金海六路,细颗粒物(PM2.5),115,98,63,76,46,48,48,NA,NA,37,33,24,9,0.8,0.6
2026-03-20T0400,4028A,117.9955,37.3752,滨州市,滨州市西街道办事处,细颗粒物(PM2.5),101,85,69,61,41,73,73,NA,NA,20,18,9,10,0.7,0.5
2026-03-20T0400,2311A,115.8071,33.8399,亳州市,污水处理厂,细颗粒物(PM2.5),120,102,84,82,52,87,87,NA,NA,16,19,6,6,0.4,0.2
2026-03-20T0400,2312A,115.7789,33.8519,亳州市,三国揽胜宫,细颗粒物(PM2.5),119,110,91,80,52,69,69,NA,NA,16,18,6,6,0.4,0.2
2026-03-20T0400,3332A,115.7631,33.803,亳州市,亳州学院,细颗粒物(PM2.5),122,103,84,84,54,65,65,NA,NA,14,12,6,6,0.3,0.2
2026-03-20T0400,2693A,82.0482,44.8553,博尔塔拉蒙古自治州,市党校,颗粒物(PM10),69,76,75,16,18,61,61,NA,NA,1,8,2,4,0.4,0.5
2026-03-20T0400,2694A,82.0805,44.8966,博尔塔拉蒙古自治州,市环保局,细颗粒物(PM2.5),119,86,65,80,28,36,36,NA,NA,18,22,1,3,0.5,0.5
2026-03-20T0400,1071A,116.8733,38.2922,沧州市,沧县城建局,细颗粒物(PM2.5),110,114,68,70,39,43,43,NA,NA,37,30,4,5,0.6,0.6
2026-03-20T0400,1072A,116.8462,38.3189,沧州市,电视转播站,细颗粒物(PM2.5),114,113,61,75,42,51,51,NA,NA,30,21,NA,3,0.5,0.4
2026-03-20T0400,1073A,116.8588,38.3161,沧州市,市环保局,细颗粒物(PM2.5),103,117,74,63,41,59,59,NA,NA,21,21,8,8,0.4,0.2
2026-03-20T0400,3324A,116.8011,38.294,沧州市,河北水利电力学院,细颗粒物(PM2.5),110,112,73,70,44,38,38,NA,NA,44,29,9,9,0.4,0.3
2026-03-20T0400,2622A,97.1813,31.1289,昌都市,昌都监测站,,19,6,13,3,4,58,58,NA,NA,1,7,5,6,0.5,0.5
2026-03-20T0400,3719A,97.1707,31.1428,昌都市,昌都会议中心,,19,7,12,3,7,58,58,NA,NA,3,4,8,7,0.3,0.3
2026-03-20T0400,2692A,87.2722,44.0298,昌吉回族自治州,新区政务中心,细颗粒物(PM2.5),78,60,50,49,38,21,21,NA,NA,48,28,5,8,0.7,0.7
2026-03-20T0400,3613A,87.3069,44.0093,昌吉回族自治州,亚心广场,细颗粒物(PM2.5),82,83,66,51,36,42,42,NA,NA,34,24,9,12,0.8,0.9
2026-03-20T0400,4164A,87.2057,43.9289,昌吉回族自治州,财政所,颗粒物(PM10),68,75,68,41,30,44,44,NA,NA,13,15,7,8,1.2,0.7
2026-03-20T0400,1120A,125.2874,43.9024,长春市,客车厂,,30,28,86,21,39,72,72,NA,NA,10,15,8,7,0.3,0.4
2026-03-20T0400,1121A,125.2943,43.8508,长春市,邮电学院,,29,29,77,20,34,72,72,NA,NA,10,13,8,8,0.3,0.4
2026-03-20T0400,1122A,125.3648,43.8745,长春市,劳动公园,,26,26,74,17,32,77,77,NA,NA,7,13,8,8,0.4,0.4
2026-03-20T0400,1123A,125.3233,43.8781,长春市,园林处,,29,24,74,20,36,76,76,NA,NA,9,14,6,8,0.3,0.4
2026-03-20T0400,1124A,125.4604,43.7904,长春市,净月潭,,26,21,68,18,32,77,77,NA,NA,10,13,5,6,0.3,0.4
2026-03-20T0400,1126A,125.38,43.8422,长春市,经开区环卫处,,26,26,76,17,32,79,79,NA,NA,8,15,4,7,0.3,0.4
2026-03-20T0400,1127A,125.234,43.7761,长春市,高新区管委会,,26,23,77,18,32,76,76,NA,NA,7,13,7,7,0.4,0.4
2026-03-20T0400,3430A,119.5812,31.7256,常州市,金坛城区,细颗粒物(PM2.5),141,134,106,105,84,8,8,NA,NA,77,32,NA,8,0.9,0.7
2026-03-20T0400,4089A,119.9551,31.863,常州市,崇义南街5-H号,细颗粒物(PM2.5),80,69,82,50,57,13,13,NA,NA,51,38,5,5,0.7,0.7
2026-03-20T0400,2220A,120.4318,41.588,朝阳市,西梁,NA,NA,35,44,16,20,36,36,NA,NA,27,18,NA,9,0.5,0.6
2026-03-20T0400,2221A,120.452,41.565,朝阳市,河畔小区,NA,NA,29,35,16,14,21,21,NA,NA,41,18,NA,9,0.5,0.5
2026-03-20T0400,2222A,120.4176,41.5648,朝阳市,八里堡,,42,42,38,29,15,12,12,NA,NA,42,20,6,8,0.5,0.5
2026-03-20T0400,3026A,116.6179,23.6608,潮州市,市政府,,26,24,39,18,25,81,81,NA,NA,11,13,5,5,0.5,0.6
2026-03-20T0400,4036A,116.646,23.676,潮州市,金山,,28,27,33,17,22,88,88,NA,NA,9,12,3,4,0.5,0.6
2026-03-20T0400,2473A,113.0116,25.8228,郴州市,市职中,,36,27,34,25,27,27,27,NA,NA,10,15,3,3,0.7,0.7
2026-03-20T0400,2475A,113.0381,25.8074,郴州市,市审计局,,39,NA,34,27,27,20,20,NA,NA,8,10,15,12,/,/
2026-03-20T0400,2476A,113.0348,25.7757,郴州市,市环保局,,40,NA,43,28,32,20,20,NA,NA,18,20,8,12,1.1,0.3
2026-03-20T0400,4252A,113.0138,25.8011,郴州市,好美居路49号,,35,27,34,24,29,26,26,NA,NA,13,17,17,11,/,/
2026-03-20T0400,1431A,103.9727,30.7242,成都市,金泉两河,细颗粒物(PM2.5),64,63,70,42,37,18,18,NA,NA,29,32,1,1,0.3,0.4
2026-03-20T0400,1432A,104.1423,30.6765,成都市,十里店,细颗粒物(PM2.5),70,51,61,45,34,36,36,NA,NA,22,30,4,4,0.4,0.5
2026-03-20T0400,1433A,104.0594,30.5765,成都市,三瓦窑,细颗粒物(PM2.5),76,54,59,48,32,27,27,NA,NA,23,32,3,3,0.6,0.6
2026-03-20T0400,1434A,104.1122,30.6306,成都市,沙河铺,细颗粒物(PM2.5),60,58,58,40,32,27,27,NA,NA,33,38,4,4,0.3,0.3
2026-03-20T0400,2880A,104.0219,30.6561,成都市,大石西路,细颗粒物(PM2.5),68,63,66,44,36,30,30,NA,NA,30,34,2,3,0.6,0.6
2026-03-20T0400,3136A,104.2724,30.559,成都市,龙泉驿区区政府,颗粒物(PM10),56,58,46,31,24,47,47,NA,NA,17,16,7,6,0.4,0.5
2026-03-20T0400,3357A,104.0028,30.6891,成都市,金博路,细颗粒物(PM2.5),62,46,57,41,34,32,32,NA,NA,30,39,5,7,0.5,0.6
2026-03-20T0400,3359A,104.056,30.5228,成都市,华阳,NA,NA,66,60,45,31,36,36,NA,NA,27,29,5,4,NA,0.4
2026-03-20T0400,3488A,104.387954,30.746684,成都市,青石路225号,细颗粒物(PM2.5),64,60,54,42,29,28,28,NA,NA,32,31,4,5,0.5,0.5
2026-03-20T0400,3489A,104.0788,30.4054,成都市,科学城,颗粒物(PM10),53,54,54,34,27,41,41,NA,NA,14,21,8,8,0.7,0.6
2026-03-20T0400,4011A,103.8505,30.6946,成都市,光华大道三段,细颗粒物(PM2.5),62,63,67,41,36,29,29,NA,NA,25,32,4,4,0.5,0.5
2026-03-20T0400,4144A,104.3257,30.6406,成都市,八角井街185号,细颗粒物(PM2.5),56,56,58,38,28,29,29,NA,NA,17,20,3,4,0.6,0.6
2026-03-20T0400,4224A,104.2433276,30.53529463,成都市,鲸龙路1057号,颗粒物(PM10),60,63,56,35,26,49,49,NA,NA,14,19,6,6,0.4,0.4
2026-03-20T0400,1062A,117.9531,40.908,承德市,铁路,,17,17,35,11,14,35,35,NA,NA,11,18,2,5,0.4,0.5
2026-03-20T0400,1063A,117.9397,40.9763,承德市,中国银行,,35,35,40,12,14,26,26,NA,NA,17,20,1,3,0.3,0.5
2026-03-20T0400,4073A,117.9462,40.95,承德市,杏林街1号,,36,36,37,20,19,29,29,NA,NA,18,17,3,6,0.4,0.5
2026-03-20T0400,4274A,117.7994,40.9605,承德市,滨河大街98号,,40,40,32,6,16,32,32,NA,NA,17,16,4,11,0.3,0.5
2026-03-20T0400,2314A,117.4698,30.6617,池州市,池州学院,细颗粒物(PM2.5),98,77,54,59,41,41,41,NA,NA,21,24,2,4,0.9,0.8
2026-03-20T0400,3237A,117.4918,30.6617,池州市,展览馆,细颗粒物(PM2.5),114,92,66,75,61,27,27,NA,NA,21,22,2,3,1.1,0.9
2026-03-20T0400,3333A,117.5626,30.695,池州市,第八中学,细颗粒物(PM2.5),92,79,56,56,41,28,28,NA,NA,27,24,3,3,1.1,0.9
2026-03-20T0400,3334A,117.5037,30.6242,池州市,第十二中学,细颗粒物(PM2.5),74,57,45,47,39,3,3,NA,NA,47,30,2,2,0.9,0.9
2026-03-20T0400,1744A,118.9229,42.2816,赤峰市,松山一中,,32,32,39,20,15,36,36,NA,NA,23,24,4,5,0.4,0.5
2026-03-20T0400,1745A,118.9588,42.2733,赤峰市,哈达街,NA,NA,39,41,24,14,27,27,NA,NA,NA,20,13,9,0.6,0.6
2026-03-20T0400,1746A,118.8792,42.2551,赤峰市,天义路,NA,NA,NA,26,25,11,33,33,NA,NA,19,15,5,5,NA,0.4
2026-03-20T0400,3058A,119.2656,42.0356,赤峰市,银河街,,37,37,45,8,17,30,30,NA,NA,16,13,12,10,0.6,0.5
2026-03-20T0400,3286A,118.9359,42.3146,赤峰市,桥北物流园区,,25,NA,25,17,12,31,31,NA,NA,20,19,4,4,0.6,0.5
2026-03-20T0400,2521A,107.3473,22.4137,崇左市,市环保局江州分局,,29,29,56,14,35,53,53,NA,NA,7,13,6,7,0.7,0.8
2026-03-20T0400,4256A,107.375,22.3736,崇左市,石景林东路7号,,34,34,51,20,33,40,40,NA,NA,11,14,2,4,0.5,0.7
2026-03-20T0400,3207A,118.31131,32.3033,滁州市,市政府原办公楼,细颗粒物(PM2.5),133,NA,97,96,97,26,26,NA,NA,25,32,4,4,NA,0.7
2026-03-20T0400,3331A,118.3268,32.2633,滁州市,图书馆,细颗粒物(PM2.5),120,100,102,82,78,43,43,NA,NA,22,28,8,8,0.7,0.7
2026-03-20T0400,4101A,118.3196,32.3335,滁州市,银山路666号,细颗粒物(PM2.5),102,79,89,62,82,0,0,NA,NA,36,32,8,8,0.9,0.9
2026-03-20T0400,4102A,118.3426,32.2979,滁州市,黄山路555号,细颗粒物(PM2.5),131,124,121,94,88,15,15,NA,NA,33,35,5,6,1.0,0.9
2026-03-20T0400,2606A,101.5379,25.0492,楚雄彝族自治州,市经济开发区,,34,34,42,21,25,104,104,NA,NA,5,13,5,5,0.5,0.5
2026-03-20T0400,4153A,101.5536,25.0343,楚雄彝族自治州,团结路562号,,37,19,40,17,24,117,117,NA,NA,3,17,2,6,0.3,0.3
2026-03-20T0400,2549A,107.5087,31.2186,达州市,市环境监测站,,26,26,28,8,10,8,8,NA,NA,19,24,7,6,0.2,0.3
2026-03-20T0400,2550A,107.4988,31.2132,达州市,凤凰小区,,24,24,28,8,9,10,10,NA,NA,21,23,7,6,0.3,0.3
2026-03-20T0400,2551A,107.5081,31.1987,达州市,达县机关宾馆,,15,NA,29,10,12,3,3,NA,NA,28,30,6,5,0.5,0.5
2026-03-20T0400,2552A,107.4644,31.2124,达州市,市政中心,,37,37,33,12,9,4,4,NA,NA,29,25,6,4,0.4,0.4
2026-03-20T0400,2614A,100.2168,25.5818,大理白族自治州,大理市环境监测站,,42,29,36,29,24,93,93,NA,NA,7,9,8,7,0.5,0.6
2026-03-20T0400,2615A,100.1542,25.7055,大理白族自治州,大理古城,,29,20,35,20,24,88,88,NA,NA,6,8,11,10,0.6,0.6
2026-03-20T0400,1109A,121.6119,38.974,大连市,甘井子,颗粒物(PM10),60,63,48,38,28,67,67,NA,NA,21,17,9,9,0.6,0.6
2026-03-20T0400,1110A,121.565,38.9509,大连市,周水子,细颗粒物(PM2.5),80,56,38,50,31,60,60,NA,NA,21,16,8,9,0.6,0.5
2026-03-20T0400,1111A,121.5637,38.8849,大连市,星海三站,细颗粒物(PM2.5),58,49,39,39,26,54,54,NA,NA,18,15,7,6,0.7,0.6
2026-03-20T0400,1112A,121.6301,38.9117,大连市,青泥洼桥,颗粒物(PM10),57,59,47,38,29,74,74,NA,NA,13,16,5,7,0.4,0.4
2026-03-20T0400,1113A,121.6248,38.8643,大连市,傅家庄,,44,44,45,28,26,74,74,NA,NA,17,20,7,7,0.6,0.6
2026-03-20T0400,1114A,121.5117,38.8636,大连市,七贤岭,,50,47,30,35,26,69,69,NA,NA,16,15,7,8,0.5,0.5
2026-03-20T0400,1116A,121.7507,39.1339,大连市,金州,细颗粒物(PM2.5),64,60,50,42,33,73,73,NA,NA,15,20,7,8,0.5,0.5
2026-03-20T0400,1117A,121.7811,39.0495,大连市,开发区,,40,40,38,25,25,81,81,NA,NA,10,25,7,9,0.3,0.4
2026-03-20T0400,1118A,121.9762,39.0631,大连市,双D港,细颗粒物(PM2.5),66,61,53,43,28,76,76,NA,NA,14,22,6,7,0.5,0.5
2026-03-20T0400,4082A,121.2548,38.8188,大连市,旅顺,细颗粒物(PM2.5),92,59,40,56,31,61,61,NA,NA,16,18,5,7,0.6,0.5
2026-03-20T0400,1789A,124.8085,46.0381,大庆市,大同区,,38,38,54,25,33,63,63,NA,NA,8,9,9,10,0.2,0.3
2026-03-20T0400,1790A,125.1166,46.5255,大庆市,龙凤区,,42,42,45,19,22,65,65,NA,NA,15,15,3,4,0.4,0.4
2026-03-20T0400,1791A,124.8894,46.4007,大庆市,红岗区,,42,35,39,29,24,66,66,NA,NA,7,9,5,5,0.4,0.4
2026-03-20T0400,1792A,125.1391,46.578,大庆市,萨尔图区,,40,40,37,21,22,73,73,NA,NA,8,14,5,6,0.5,0.5
2026-03-20T0400,1793A,124.9026,46.6217,大庆市,让胡路区,,39,39,39,24,22,68,68,NA,NA,8,8,6,5,0.5,0.5
2026-03-20T0400,3481A,125.127,46.6277,大庆市,萨区政府监测点,,35,35,42,17,19,58,58,NA,NA,13,12,8,8,0.3,0.3
2026-03-20T0400,1723A,113.2926,40.0759,大同市,云冈宾馆,颗粒物(PM10),63,67,54,40,29,30,30,NA,NA,35,28,10,9,1.8,1.1
2026-03-20T0400,1724A,113.3437,40.0921,大同市,大同大学,颗粒物(PM10),63,68,54,34,24,50,50,NA,NA,31,29,16,10,0.9,0.7
2026-03-20T0400,1725A,113.2637,40.129,大同市,安家小村,颗粒物(PM10),82,94,67,39,25,15,15,NA,NA,42,30,19,16,4.0,1.3
2026-03-20T0400,3282A,113.3399,40.0586,大同市,大同市卫生学校,NA,NA,69,58,29,28,38,38,NA,NA,NA,27,15,8,1.0,0.8
2026-03-20T0400,3565A,113.1371,40.1122,大同市,云冈站,颗粒物(PM10),71,79,57,16,21,2,2,NA,NA,48,35,14,12,0.8,0.6
2026-03-20T0400,3566A,113.1186,40.2556,大同市,图书馆,颗粒物(PM10),70,77,48,43,30,27,27,NA,NA,16,15,5,9,1.3,0.7
2026-03-20T0400,3567A,113.5931,40.0459,大同市,区一中,,49,44,85,34,49,41,41,NA,NA,14,23,10,22,0.7,0.7
2026-03-20T0400,4199A,113.2798248,40.09972476,大同市,魏都大道141号,颗粒物(PM10),73,82,65,40,30,30,30,NA,NA,37,33,16,12,1.6,1.3
2026-03-20T0400,2269A,124.1068,50.4091,大兴安岭地区,科技局,,24,21,23,7,11,75,75,NA,NA,2,3,6,6,0.3,0.3
2026-03-20T0400,3663A,124.117,50.4279,大兴安岭地区,红旗社区,,23,7,9,7,10,71,71,NA,NA,6,4,10,9,0.3,0.3
2026-03-20T0400,1600A,124.33,40.0625,丹东市,江湾东路,"颗粒物(PM10),细颗粒物(PM2.5)",64,69,67,42,43,47,47,NA,NA,31,25,9,9,0.9,1
2026-03-20T0400,1601A,124.4242,40.1513,丹东市,临江后街,细颗粒物(PM2.5),105,91,70,65,48,32,32,NA,NA,28,23,10,10,0.8,0.6
2026-03-20T0400,1602A,124.3935,40.1461,丹东市,元宝山,细颗粒物(PM2.5),98,92,92,59,44,29,29,NA,NA,31,23,8,11,0.8,0.8
2026-03-20T0400,1603A,124.3634,40.1093,丹东市,民主桥,细颗粒物(PM2.5),72,75,82,46,46,49,49,NA,NA,27,34,8,9,0.6,0.8
2026-03-20T0400,3541A,109.5726195,19.51688767,儋州市,第一中学子站,,24,24,34,14,18,33,33,NA,NA,9,6,7,7,0.4,0.4
2026-03-20T0400,3542A,109.5567,19.5187,儋州市,东坡学校子站,,39,39,25,20,20,29,29,NA,NA,12,8,12,7,0.5,0.5
2026-03-20T0400,2616A,98.5611,24.4273,德宏傣族景颇族自治州,德宏州监测站,,40,29,32,28,32,21,21,NA,NA,11,14,5,5,0.7,0.6
2026-03-20T0400,3677A,98.5887,24.4366,德宏傣族景颇族自治州,芒市人民政府综合楼,NA,NA,NA,60,37,34,24,24,NA,NA,8,12,1,6,NA,0.5
2026-03-20T0400,1901A,104.424,31.1209,德阳市,东山公园,细颗粒物(PM2.5),84,74,54,52,34,11,11,NA,NA,45,24,5,5,0.7,0.5
2026-03-20T0400,1902A,104.3827,31.1318,德阳市,西小区,细颗粒物(PM2.5),98,96,68,59,36,4,4,NA,NA,52,33,6,7,0.8,0.7
2026-03-20T0400,1904A,104.3553,31.1091,德阳市,耐火材料厂,细颗粒物(PM2.5),76,82,68,48,39,4,4,NA,NA,47,36,2,3,0.6,0.5
2026-03-20T0400,4145A,104.4144,31.1495,德阳市,市林业局,细颗粒物(PM2.5),78,68,57,49,35,1,1,NA,NA,47,33,6,7,0.6,0.5
2026-03-20T0400,1622A,116.3034,37.4675,德州市,儿童乐园,细颗粒物(PM2.5),109,127,81,69,42,56,56,NA,NA,26,20,12,12,0.6,0.5
2026-03-20T0400,1624A,116.2992,37.4449,德州市,监理站,细颗粒物(PM2.5),102,119,80,62,37,68,68,NA,NA,24,23,8,7,0.6,0.5
2026-03-20T0400,3066A,116.2722,37.438,德州市,九衢泉纯净水厂,细颗粒物(PM2.5),109,122,73,69,41,36,36,NA,NA,46,34,3,5,0.5,0.4
2026-03-20T0400,3371A,116.3693,37.44,德州市,开发区人民医院,细颗粒物(PM2.5),115,122,82,76,45,49,49,NA,NA,28,24,9,8,0.6,0.6
2026-03-20T0400,3511A,116.5687,37.3331,德州市,陵城艺术中心,细颗粒物(PM2.5),119,124,75,80,46,48,48,NA,NA,23,22,8,11,0.9,0.6
2026-03-20T0400,4292A,116.352738,37.420875,德州市,新河东路,细颗粒物(PM2.5),110,124,80,70,40,35,35,NA,NA,40,29,10,9,0.7,0.6
2026-03-20T0400,2621A,99.7054,27.8319,迪庆藏族自治州,迪庆州站,,27,20,21,15,13,84,84,NA,NA,8,9,7,7,0.6,0.6
2026-03-20T0400,3180A,99.7122,27.8129,迪庆藏族自治州,质量技术监督局,,29,14,20,6,10,90,90,NA,NA,7,9,6,6,0.7,0.7
2026-03-20T0400,4257A,104.6092,35.5962,定西市,将台街,颗粒物(PM10),102,124,126,39,41,23,23,NA,NA,34,24,8,9,0.7,0.5
2026-03-20T0400,4309A,104.6159,35.5701,定西市,正龙路62号,颗粒物(PM10),102,124,136,30,39,44,44,NA,NA,13,16,2,5,0.6,0.6
2026-03-20T0400,4071A,114.9883,38.5232,定州市,交通局,细颗粒物(PM2.5),113,128,78,74,37,37,37,NA,NA,30,30,12,14,0.5,0.6
2026-03-20T0400,4072A,115.0045,38.5136,定州市,第五中学,细颗粒物(PM2.5),118,147,91,79,36,27,27,NA,NA,38,30,9,11,0.5,0.5
2026-03-20T0400,1390A,113.7943,23.0132,东莞市,东城石井,,36,36,44,17,23,38,38,NA,NA,32,41,3,5,0.5,0.6
2026-03-20T0400,1391A,113.7384,22.9659,东莞市,南城西平,,43,43,42,19,23,39,39,NA,NA,25,43,5,8,0.5,0.6
2026-03-20T0400,3319A,113.7283,23.041,东莞市,万江金泰,NA,NA,NA,53,NA,31,NA,NA,179,NA,NA,38,NA,7,NA,0.6
2026-03-20T0400,4129A,113.8666,23.1062,东莞市,裕兴路,颗粒物(PM10),55,57,58,22,28,52,52,NA,NA,15,36,8,10,0.7,0.7
2026-03-20T0400,4130A,114.0076,22.9739,东莞市,教育路1号,颗粒物(PM10),56,58,57,30,27,64,64,NA,NA,18,34,5,6,0.6,0.5
2026-03-20T0400,4131A,113.7981,22.8124,东莞市,长怡路1号,,50,50,44,19,19,44,44,NA,NA,26,41,4,5,0.6,0.6
2026-03-20T0400,1666A,118.6612,37.4313,东营市,市环保局,细颗粒物(PM2.5),106,90,69,66,45,45,45,NA,NA,44,32,26,14,0.5,0.6
2026-03-20T0400,3036A,118.6903,37.4337,东营市,开发区管委会,细颗粒物(PM2.5),105,88,66,65,42,54,54,NA,NA,47,44,28,14,0.6,0.6
2026-03-20T0400,3365A,118.5721,37.5654,东营市,垦利区民丰路,细颗粒物(PM2.5),102,88,69,62,42,65,65,NA,NA,30,33,14,17,0.8,0.7
2026-03-20T0400,3498A,118.5063,37.8606,东营市,河口城区,细颗粒物(PM2.5),102,90,61,62,39,66,66,NA,NA,22,22,NA,12,0.6,0.5
2026-03-20T0400,3646A,118.4979,37.4623,东营市,胜利站,细颗粒物(PM2.5),104,96,67,64,38,47,47,NA,NA,42,35,12,19,1.1,0.8
2026-03-20T0400,3734A,118.5753,37.4405,东营市,理想之城,细颗粒物(PM2.5),108,97,71,68,40,59,59,NA,NA,42,35,6,11,0.8,0.8
2026-03-20T0400,1591A,110.0024,39.8127,鄂尔多斯市,综合楼,,29,27,30,20,15,59,59,NA,NA,25,22,7,7,0.4,0.3
2026-03-20T0400,1592A,109.9485,39.8259,鄂尔多斯市,巴音孟克林场办事处,,29,19,27,7,11,92,92,NA,NA,8,21,9,8,0.4,0.4
2026-03-20T0400,1593A,109.7734,39.5987,鄂尔多斯市,康泽苑,,31,31,27,18,12,54,54,NA,NA,15,14,6,7,0.4,0.3
2026-03-20T0400,1594A,109.8121,39.5987,鄂尔多斯市,华泰汽车城,,36,36,29,17,12,33,33,NA,NA,24,20,5,6,0.4,0.3
2026-03-20T0400,1595A,109.9734,39.7884,鄂尔多斯市,奥林花园,,27,27,32,16,13,53,53,NA,NA,35,36,7,8,0.4,0.3
2026-03-20T0400,2436A,114.894,30.3989,鄂州市,市政府,细颗粒物(PM2.5),56,49,51,38,35,50,50,NA,NA,25,21,9,8,0.6,0.5
2026-03-20T0400,2437A,114.8986,30.3714,鄂州市,赵家坝,颗粒物(PM10),51,51,52,35,38,55,55,NA,NA,18,18,3,6,0.9,0.9
2026-03-20T0400,3654A,114.8093,30.4091,鄂州市,精准医疗中心,细颗粒物(PM2.5),102,72,59,62,38,57,57,NA,NA,26,28,13,10,0.9,0.9
2026-03-20T0400,2454A,109.4978,30.2979,恩施土家族苗族自治州,湖北民院,,34,34,33,16,18,7,7,NA,NA,13,15,6,6,0.6,0.6
2026-03-20T0400,3549A,109.5061,30.3771,恩施土家族苗族自治州,龙凤新区,,24,24,24,12,14,8,8,NA,NA,4,7,7,7,0.4,0.4
2026-03-20T0400,2499A,108.3411,21.6159,防城港市,沙万,颗粒物(PM10),60,64,51,23,20,60,60,NA,NA,18,23,6,8,0.5,0.5
2026-03-20T0400,2500A,108.3515,21.7733,防城港市,防城档案局,,46,43,45,32,24,25,25,NA,NA,16,11,8,15,0.6,0.5
2026-03-20T0400,2501A,108.3506,21.6414,防城港市,大海花园,,35,31,37,24,22,63,63,NA,NA,25,26,8,9,0.4,0.4
2026-03-20T0400,1371A,113.1293,23.0065,佛山市,湾梁,,18,17,46,12,28,24,24,NA,NA,28,28,/,/,/,/
2026-03-20T0400,1372A,113.1082,23.0477,佛山市,华材职中,,22,22,50,11,28,34,34,NA,NA,25,30,7,8,0.2,0.4
2026-03-20T0400,1373A,113.1439,23.045,佛山市,南海气象局,,33,33,54,13,29,36,36,NA,NA,23,35,/,/,/,/
2026-03-20T0400,1374A,113.2879,22.8094,佛山市,顺德苏岗,,29,29,49,11,25,39,39,NA,NA,19,34,/,/,0.3,0.5
2026-03-20T0400,1376A,112.8384,22.8678,佛山市,高明孔堂,,26,26,38,10,22,32,32,NA,NA,17,20,/,/,/,/
2026-03-20T0400,1377A,112.8835,23.1584,佛山市,三水监测站,,36,36,48,16,28,6,6,NA,NA,46,30,6,5,0.6,0.6
2026-03-20T0400,1378A,112.8668,23.185,佛山市,三水云东海,,37,37,58,14,25,11,11,NA,NA,38,25,/,/,/,/
2026-03-20T0400,3625A,113.2568,22.7629,佛山市,容桂街道办,,15,12,45,8,29,46,46,NA,NA,19,40,/,/,/,/
2026-03-20T0400,1282A,119.2681,26.0506,福州市,师大,,26,20,20,15,11,82,82,NA,NA,13,19,3,3,0.3,0.4
2026-03-20T0400,1283A,119.2983,26.1028,福州市,五四北路,,29,25,32,15,10,90,90,NA,NA,13,17,4,4,0.4,0.5
2026-03-20T0400,1284A,119.2648,26.0769,福州市,杨桥西路,,28,19,17,14,9,88,88,NA,NA,13,17,4,3,/,/
2026-03-20T0400,3048A,119.5799,26.0937,福州市,九龙,,24,20,17,13,6,74,74,NA,NA,15,12,4,4,0.3,0.4
2026-03-20T0400,3526A,119.5188,25.9666,福州市,吴航,,32,32,19,16,10,93,93,NA,NA,12,12,6,4,0.5,0.6
2026-03-20T0400,4104A,119.3106,26.0648,福州市,路通桥巷6号,,29,22,18,20,15,82,82,NA,NA,9,14,/,/,/,/
2026-03-20T0400,1755A,123.7974,41.8494,抚顺市,望花区,,37,37,56,18,29,75,75,NA,NA,11,16,8,13,0.4,0.7
2026-03-20T0400,1756A,123.9161,41.8827,抚顺市,顺城区,,24,23,47,8,22,76,76,NA,NA,12,20,8,11,0.4,0.7
2026-03-20T0400,1757A,124.0437,41.8615,抚顺市,东洲区,,27,27,57,8,23,80,80,NA,NA,8,17,6,9,0.4,0.6
2026-03-20T0400,1758A,123.9246,41.8638,抚顺市,新抚区,,27,27,59,10,24,78,78,NA,NA,12,20,8,10,0.4,0.7
2026-03-20T0400,1759A,124.0972,41.8961,抚顺市,大伙房水库,,26,21,54,6,22,81,81,NA,NA,8,15,9,11,0.3,0.5
2026-03-20T0400,1760A,123.708,41.8386,抚顺市,沈抚新城,,38,38,59,12,26,61,61,NA,NA,22,23,6,10,0.4,0.7
2026-03-20T0400,2377A,116.3544,27.9833,抚州市,市站,,20,16,21,14,15,53,53,NA,NA,7,8,7,8,0.8,1
2026-03-20T0400,2378A,116.3562,27.9631,抚州市,血防站,,23,20,24,16,13,52,52,NA,NA,3,4,5,6,0.8,0.8
2026-03-20T0400,2379A,116.3561,28.0007,抚州市,采茶剧团,,27,27,24,16,14,53,53,NA,NA,6,8,11,12,0.8,0.7
2026-03-20T0400,2380A,116.3854,27.9648,抚州市,医学分院,,29,29,29,10,14,57,57,NA,NA,8,9,10,9,1.1,1
2026-03-20T0400,2207A,121.6095,41.9978,阜新市,工业园区,,47,47,58,12,20,55,55,NA,NA,18,18,7,10,0.4,0.5
2026-03-20T0400,2208A,121.6567,42.0188,阜新市,长青街,NA,NA,18,34,10,18,63,63,NA,NA,NA,17,6,9,0.3,0.5
2026-03-20T0400,2209A,121.6672,42.07,阜新市,农业园区,,24,14,44,9,20,75,75,NA,NA,9,15,6,6,0.4,0.5
2026-03-20T0400,2211A,121.6343,42.0455,阜新市,玉龙新城,,33,33,45,9,19,44,44,NA,NA,23,24,5,7,0.4,0.5
2026-03-20T0400,2301A,115.8276,32.8929,阜阳市,市监测站,细颗粒物(PM2.5),130,122,89,92,59,73,73,NA,NA,14,16,5,5,0.6,0.5
2026-03-20T0400,2303A,115.8551,32.8606,阜阳市,开发区,细颗粒物(PM2.5),138,127,101,101,62,80,80,NA,NA,17,16,5,5,0.7,0.6
2026-03-20T0400,2875A,115.783962,32.889217,阜阳市,阜阳职业技术学院,细颗粒物(PM2.5),117,108,79,78,48,99,99,NA,NA,14,15,6,6,0.9,0.7
2026-03-20T0400,3468A,115.79,32.8614,阜阳市,市规划展馆,细颗粒物(PM2.5),126,122,88,88,59,89,89,NA,NA,16,13,6,6,0.6,0.6
2026-03-20T0400,3469A,115.835101,32.918568,阜阳市,枣园社区,细颗粒物(PM2.5),131,120,89,94,61,72,72,NA,NA,17,17,4,4,0.5,0.4
2026-03-20T0400,2669A,102.9097,34.9841,甘南藏族自治州,州政府,颗粒物(PM10),64,69,46,41,28,71,71,NA,NA,2,4,3,5,0.5,0.4
2026-03-20T0400,3380A,102.8915,34.9618,甘南藏族自治州,甘肃民族师范学院,颗粒物(PM10),72,80,53,29,26,91,91,NA,NA,6,10,1,2,0.4,0.4
2026-03-20T0400,2570A,101.96,30.048,甘孜藏族自治州,水桥子,,17,13,16,3,4,52,52,NA,NA,6,16,3,4,0.6,0.6
2026-03-20T0400,3065A,101.9534,29.9976,甘孜藏族自治州,州环保局,,20,6,10,3,4,62,62,NA,NA,9,19,6,6,0.5,0.5
2026-03-20T0400,2363A,114.9368,25.8663,赣州市,地委,,23,22,16,16,9,31,31,NA,NA,12,12,4,4,1.1,1.2
2026-03-20T0400,2364A,114.946,25.8483,赣州市,气象台,,35,35,24,17,12,46,46,NA,NA,15,17,4,4,0.7,0.8
2026-03-20T0400,2365A,114.932,25.8332,赣州市,市图书馆,NA,NA,27,17,18,10,46,46,NA,NA,NA,13,5,4,0.8,0.8
2026-03-20T0400,2366A,114.8905,25.8472,赣州市,华坚鞋城,,28,28,20,14,11,37,37,NA,NA,11,14,5,6,0.4,0.6
2026-03-20T0400,3109A,115.0094,25.8614,赣州市,赣县区卫计委,,18,18,16,12,9,42,42,NA,NA,11,13,3,3,0.9,1
2026-03-20T0400,2684A,106.2753,36.0057,固原市,监测站,颗粒物(PM10),95,112,231,35,41,36,36,NA,NA,27,20,9,10,0.7,0.5
2026-03-20T0400,2685A,106.2384,36.0189,固原市,新区,颗粒物(PM10),96,114,135,33,37,14,14,NA,NA,44,23,7,8,0.8,0.5
2026-03-20T0400,2544A,106.6307,30.4577,广安市,市委,,26,22,27,18,16,26,26,NA,NA,15,14,5,5,0.6,0.6
2026-03-20T0400,2545A,106.6266,30.4662,广安市,友谊中学,,24,24,26,13,13,34,34,NA,NA,9,12,8,7,0.7,0.8
2026-03-20T0400,2547A,106.6386,30.4551,广安市,广电花园,,25,24,30,17,16,22,22,NA,NA,16,16,8,8,0.7,0.7
2026-03-20T0400,2902A,106.6347,30.4868,广安市,北辰小学,,25,19,25,17,16,28,28,NA,NA,8,11,4,5,0.6,0.7
2026-03-20T0400,2524A,105.8211,32.4444,广元市,老城,颗粒物(PM10),54,55,48,26,17,2,2,NA,NA,49,36,10,7,0.6,0.6
2026-03-20T0400,2526A,105.8629,32.429,广元市,监测站,,50,50,50,24,17,16,16,NA,NA,34,24,2,4,0.6,0.5
2026-03-20T0400,3617A,105.8047,32.4167,广元市,经开区,颗粒物(PM10),63,67,52,34,24,3,3,NA,NA,51,38,10,6,0.6,0.5
2026-03-20T0400,1345A,113.2346,23.1423,广州市,广雅中学,,21,21,49,10,24,50,50,NA,NA,15,32,3,3,0.4,0.7
2026-03-20T0400,1346A,113.2611,23.105,广州市,市五中,,25,25,47,13,27,48,48,NA,NA,21,35,7,8,/,/
2026-03-20T0400,1348A,113.3477,23.0916,广州市,广东商学院,,27,27,46,13,25,27,27,NA,NA,28,30,5,6,0.7,0.8
2026-03-20T0400,1349A,113.4332,23.105,广州市,市八十六中,,26,22,37,8,21,3,3,NA,NA,51,49,7,7,/,/
2026-03-20T0400,1350A,113.3506,22.9488,广州市,番禺中学,颗粒物(PM10),53,53,58,13,22,51,51,NA,NA,11,31,3,4,0.6,0.6
2026-03-20T0400,1351A,113.2147,23.3918,广州市,花都师范,,23,23,46,9,24,22,22,NA,NA,35,25,6,7,0.5,0.7
2026-03-20T0400,1352A,113.2599,23.1329,广州市,市监测站,,22,22,50,10,26,45,45,NA,NA,15,33,1,2,/,/
2026-03-20T0400,1353A,113.5618,23.3119,广州市,九龙镇镇龙,,41,41,49,18,27,3,3,NA,NA,43,34,6,7,0.4,0.4
2026-03-20T0400,1354A,113.2764,23.1544,广州市,麓湖,NA,NA,NA,53,NA,30,NA,NA,175,NA,NA,30,NA,4,NA,0.7
2026-03-20T0400,2846A,113.3209,23.1323,广州市,体育西,,26,26,46,10,23,35,35,NA,NA,27,34,6,7,0.5,0.7
2026-03-20T0400,3298A,113.5718,23.5493,广州市,从化街口,,40,40,53,26,35,0,0,NA,NA,48,31,6,8,0.6,0.8
2026-03-20T0400,3299A,113.3463,23.369,广州市,白云竹料,,33,33,49,12,26,2,2,NA,NA,54,30,5,5,0.5,0.6
2026-03-20T0400,3300A,113.2981,23.2365,广州市,白云嘉禾,,27,27,50,11,26,5,5,NA,NA,52,37,8,8,/,/
2026-03-20T0400,3301A,113.4256,23.1716,广州市,黄埔科学城,,24,24,44,9,26,5,5,NA,NA,46,34,8,9,0.5,0.6
2026-03-20T0400,3302A,113.3942,23.0485,广州市,番禺大学城,NA,NA,NA,51,NA,21,NA,NA,169,NA,NA,33,NA,8,NA,0.5
2026-03-20T0400,3303A,113.4923,22.8169,广州市,南沙黄阁,,26,26,37,13,20,45,45,NA,NA,23,30,7,7,/,/
2026-03-20T0400,3304A,113.534,22.7893,广州市,南沙街,,23,23,33,16,18,35,35,NA,NA,17,21,8,8,0.4,0.5
2026-03-20T0400,3443A,113.2905,23.5541,广州市,花都梯面,,19,19,42,11,24,3,3,NA,NA,34,23,7,8,/,/
2026-03-20T0400,3445A,113.786,23.7479,广州市,从化良口,,30,30,37,19,27,24,24,NA,NA,16,14,4,5,/,/
2026-03-20T0400,3446A,113.805,23.2614,广州市,增城荔城,,37,37,48,18,28,28,28,NA,NA,28,29,9,6,0.3,0.4
2026-03-20T0400,2506A,109.604387,23.066791,贵港市,江南子站,颗粒物(PM10),80,92,74,31,25,23,23,NA,NA,36,20,29,10,0.9,0.9
2026-03-20T0400,2508A,109.5669,23.1065,贵港市,荷城子站,细颗粒物(PM2.5),92,66,63,56,37,45,45,NA,NA,20,21,15,10,0.7,0.8
2026-03-20T0400,3405A,109.5886,23.1172,贵港市,新世纪学校,细颗粒物(PM2.5),86,70,69,53,38,44,44,NA,NA,23,22,/,/,0.6,0.8
2026-03-20T0400,4260A,109.5933,23.095,贵港市,中山路155-3号,细颗粒物(PM2.5),90,86,73,55,42,34,34,NA,NA,23,19,/,/,0.8,0.8
2026-03-20T0400,1439A,106.6863,26.6035,贵阳市,马鞍山,,13,9,21,9,14,33,33,NA,NA,7,11,3,5,/,/
2026-03-20T0400,1441A,106.6241,26.6266,贵阳市,鉴湖路,,14,14,31,3,15,35,35,NA,NA,9,16,4,4,0.5,0.6
2026-03-20T0400,1442A,106.7468,26.6344,贵阳市,燕子冲,,12,9,22,3,13,36,36,NA,NA,8,11,6,7,1.2,1.2
2026-03-20T0400,1443A,106.6556,26.4362,贵阳市,碧云窝,,12,9,27,6,13,36,36,NA,NA,8,16,8,8,/,/
2026-03-20T0400,1445A,106.6963,26.6063,贵阳市,红边门,,13,12,27,7,14,39,39,NA,NA,9,15,8,9,/,/
2026-03-20T0400,1446A,106.7162383,26.56964667,贵阳市,新华路,,17,17,33,3,14,42,42,NA,NA,8,14,4,6,0.5,0.5
2026-03-20T0400,1447A,106.6742,26.542,贵阳市,太慈桥,,13,12,29,9,16,33,33,NA,NA,9,16,3,5,/,/
2026-03-20T0400,4230A,106.688212,26.56952,贵阳市,花果园大街66号,,11,9,23,6,15,33,33,NA,NA,8,15,2,2,/,/
2026-03-20T0400,4231A,106.687268,26.516892,贵阳市,漓江路57号,NA,NA,NA,20,4,13,37,37,NA,NA,9,17,7,8,0.8,0.9
2026-03-20T0400,1864A,110.3091,25.2705,桂林市,龙隐路小学,,42,37,36,29,26,49,49,NA,NA,13,15,3,3,0.7,0.6
2026-03-20T0400,1865A,110.2849361,25.22909545,桂林市,八中,,36,35,37,25,16,42,42,NA,NA,13,15,3,3,0.8,0.8
2026-03-20T0400,3531A,110.296,25.1254,桂林市,旅游学院,细颗粒物(PM2.5),54,44,45,37,29,36,36,NA,NA,13,17,5,5,0.7,0.7
2026-03-20T0400,4222A,110.1835,25.2444,桂林市,环湖路276号,,39,36,37,27,21,55,55,NA,NA,9,12,3,5,0.8,0.9
2026-03-20T0400,4301A,110.2803,25.2773,桂林市,信义路13号,,42,30,35,29,24,54,54,NA,NA,11,14,3,3,1.1,1
2026-03-20T0400,2674A,100.2262,34.4854,果洛藏族自治州,玛沁县大武镇,,40,40,43,6,13,64,64,NA,NA,2,2,18,12,0.3,0.3
2026-03-20T0400,1130A,126.5557,45.8109,哈尔滨市,松北商大,,38,31,48,26,34,57,57,NA,NA,7,8,3,2,0.2,0.2
2026-03-20T0400,1132A,126.6162,45.719,哈尔滨市,南岗学府路,,35,35,53,22,27,50,50,NA,NA,21,12,21,10,0,0
2026-03-20T0400,1133A,126.6894,45.7733,哈尔滨市,太平宏伟公园,,46,35,54,32,37,51,51,NA,NA,15,13,20,11,0.5,0.5
2026-03-20T0400,1134A,126.6361,45.7672,哈尔滨市,道外承德广场,,42,42,77,24,31,67,67,NA,NA,9,14,8,9,0.9,0.9
2026-03-20T0400,1136A,126.644,45.7261,哈尔滨市,动力和平路,,33,32,54,23,31,63,63,NA,NA,8,11,11,10,0.8,0.8
2026-03-20T0400,1137A,126.5933,45.7479,哈尔滨市,道里建国路,,33,25,48,23,28,60,60,NA,NA,12,17,4,8,1.1,0.6
2026-03-20T0400,1138A,126.6127,45.6119,哈尔滨市,平房东轻厂,,48,48,57,21,34,42,42,NA,NA,45,40,23,28,0.7,0.7
2026-03-20T0400,1139A,126.5875,45.9827,哈尔滨市,呼兰师专,,25,17,52,17,31,54,54,NA,NA,9,13,6,9,0.3,0.3
2026-03-20T0400,1140A,126.6299,45.6799,哈尔滨市,省农科院,,36,30,65,25,32,67,67,NA,NA,5,11,10,11,0.6,0.6
2026-03-20T0400,4282A,126.6769,45.7379,哈尔滨市,华山路1号,,36,36,57,21,38,67,67,NA,NA,10,14,4,2,0.6,0.6
2026-03-20T0400,4283A,126.9717,45.5356,哈尔滨市,解放大街52号,颗粒物(PM10),55,56,88,21,32,64,64,NA,NA,13,13,1,2,0,0.1
2026-03-20T0400,2688A,93.5124,42.8176,哈密市,地区监测站,颗粒物(PM10),63,67,71,31,22,17,17,NA,NA,43,22,5,5,0.5,0.2
2026-03-20T0400,2689A,93.5014,42.8312,哈密市,哈密师范学校,颗粒物(PM10),75,85,89,30,28,7,7,NA,NA,58,35,6,7,0.6,0.5
2026-03-20T0400,2671A,100.9016,36.9464,海北藏族自治州,海晏县西海镇,,42,42,48,25,27,48,48,NA,NA,4,4,5,8,0.4,0.5
2026-03-20T0400,3867A,102.074,36.5056,海东市,平安区公安局北苑,颗粒物(PM10),74,83,98,35,46,61,61,NA,NA,4,12,7,16,0.3,0.7
2026-03-20T0400,4163A,102.0984,36.5119,海东市,滨河路,颗粒物(PM10),77,87,102,38,43,45,45,NA,NA,16,29,8,18,0.7,0.8
2026-03-20T0400,1410A,110.3189,20.0596,海口市,海南大学,,22,22,25,9,11,46,46,NA,NA,6,5,5,5,0.3,0.4
2026-03-20T0400,1411A,110.2827,20.0051,海口市,秀英海南医院,,18,18,20,9,11,43,43,NA,NA,6,8,7,7,0.2,0.3
2026-03-20T0400,1412A,110.3391,19.9979,海口市,海南师范大学,,22,22,26,8,11,48,48,NA,NA,7,7,6,6,0.3,0.4
2026-03-20T0400,1413A,110.3303,20.0359,海口市,龙华路环保局宿舍,,20,20,25,10,12,47,47,NA,NA,8,7,/,/,0.4,0.4
2026-03-20T0400,3539A,110.5111,19.9737,海口市,桂林洋子站,,20,20,23,10,11,39,39,NA,NA,7,8,/,/,/,/
2026-03-20T0400,4134A,110.1952,20.0451,海口市,长滨二路9号,,16,16,19,9,11,43,43,NA,NA,3,5,/,/,/,/
2026-03-20T0400,2673A,100.6158,36.2985,海南藏族自治州,共和县恰卜恰镇,,30,30,46,18,22,58,58,NA,NA,8,10,10,11,0.2,0.3
2026-03-20T0400,2676A,97.373,37.376,海西蒙古族藏族自治州,德令哈市,,40,34,32,22,18,127,127,NA,NA,2,3,15,15,0.3,0.4
2026-03-20T0400,1049A,114.492,36.5712,邯郸市,矿院,细颗粒物(PM2.5),90,94,73,55,35,21,21,NA,NA,25,21,2,4,0.5,0.5
2026-03-20T0400,1050A,114.4839,36.6136,邯郸市,丛台公园,细颗粒物(PM2.5),110,101,79,70,45,30,30,NA,NA,21,20,1,3,0.5,0.5
2026-03-20T0400,3458A,114.7893,36.5592,邯郸市,香泉濮院小区,颗粒物(PM10),93,110,88,51,34,40,40,NA,NA,13,15,1,2,0.5,0.5
2026-03-20T0400,3580A,114.1998,36.4439,邯郸市,峰峰矿区临水派出所,颗粒物(PM10),78,89,76,47,31,54,54,NA,NA,7,12,6,8,0.7,0.8
2026-03-20T0400,4068A,114.5209,36.7697,邯郸市,建安街268号,细颗粒物(PM2.5),109,96,84,69,43,3,3,NA,NA,50,34,3,3,0.4,0.5
2026-03-20T0400,4069A,114.5488,36.6177,邯郸市,丛台东路558号,细颗粒物(PM2.5),128,98,74,90,52,17,17,NA,NA,32,20,6,4,0.5,0.5
2026-03-20T0400,2635A,107.0155,33.0707,汉中市,市监测站,颗粒物(PM10),55,57,59,30,26,10,10,NA,NA,23,21,7,7,0.6,0.6
2026-03-20T0400,2636A,107.0083,33.114,汉中市,鑫源开发区,颗粒物(PM10),55,56,56,14,12,13,13,NA,NA,27,23,5,5,0.5,0.4
2026-03-20T0400,2637A,107.0072,33.0323,汉中市,南郑大河坎水厂,颗粒物(PM10),53,54,60,25,25,10,10,NA,NA,16,21,2,4,0.5,0.5
2026-03-20T0400,1223A,120.2073,30.2111,杭州市,滨江,细颗粒物(PM2.5),114,97,76,75,54,56,56,NA,NA,30,29,8,8,0.8,0.8
2026-03-20T0400,1698A,114.6895,23.7232,河源市,老城,,48,47,36,33,25,66,66,NA,NA,8,12,6,7,0.6,0.8
2026-03-20T0400,3374A,115.5562,35.089,菏泽市,定陶老年大学,细颗粒物(PM2.5),104,107,83,64,41,48,48,NA,NA,23,19,6,6,0.6,0.5
2026-03-20T0400,4114A,115.4239,35.2593,菏泽市,黄河路600号,细颗粒物(PM2.5),109,128,96,69,40,40,40,NA,NA,26,22,4,3,0.4,0.3
2026-03-20T0400,4115A,115.5025,35.2727,菏泽市,菏泽市人社局,细颗粒物(PM2.5),110,111,84,71,43,53,53,NA,NA,22,19,6,6,0.4,0.3
2026-03-20T0400,4184A,115.479691,35.244011,菏泽市,永昌路1号,细颗粒物(PM2.5),110,116,85,71,41,62,62,NA,NA,23,21,5,4,0.4,0.3
2026-03-20T0400,4193A,115.471542,35.280012,菏泽市,长城路999号,细颗粒物(PM2.5),103,122,85,63,35,53,53,NA,NA,25,18,6,5,0.4,0.3
2026-03-20T0400,2514A,111.5264,24.4178,贺州市,环保小区,,43,36,34,30,23,36,36,NA,NA,15,11,5,5,0.9,0.8
2026-03-20T0400,2515A,111.561,24.4074,贺州市,政协大楼,,48,39,35,33,27,16,16,NA,NA,13,16,7,6,0.4,0.4
2026-03-20T0400,3534A,111.4744,24.455,贺州市,西湾,,46,46,37,32,26,34,34,NA,NA,12,12,7,6,0.8,0.8
2026-03-20T0400,2385A,114.17,35.9019,鹤壁市,市监测站,细颗粒物(PM2.5),106,113,93,66,45,15,15,NA,NA,29,23,8,7,0.7,0.6
2026-03-20T0400,2386A,114.2953,35.7512,鹤壁市,市交警支队,细颗粒物(PM2.5),116,138,99,77,48,10,10,NA,NA,48,43,6,9,0.7,0.5
2026-03-20T0400,2387A,114.2877,35.7302,鹤壁市,迎宾馆,细颗粒物(PM2.5),112,134,119,73,51,8,8,NA,NA,44,37,9,11,0.6,0.5
2026-03-20T0400,3474A,114.2616,35.6824,鹤壁市,大新区,细颗粒物(PM2.5),113,126,101,74,56,7,7,NA,NA,47,44,5,8,0.8,0.7
2026-03-20T0400,3596A,114.1573,35.9607,鹤壁市,南山宾馆,细颗粒物(PM2.5),118,133,123,79,52,48,48,NA,NA,22,20,11,12,0.6,0.4
2026-03-20T0400,2244A,130.2537,47.3416,鹤岗市,哈啤分公司,,38,37,58,26,43,87,87,NA,NA,7,13,10,12,0.3,0.4
2026-03-20T0400,2245A,130.2683,47.3087,鹤岗市,斯达机电,,41,41,61,27,37,102,102,NA,NA,5,10,9,10,0.6,0.6
2026-03-20T0400,2246A,130.3114,47.3388,鹤岗市,东山纸板厂,颗粒物(PM10),55,56,84,29,40,83,83,NA,NA,8,17,14,11,0.4,0.6
2026-03-20T0400,2263A,127.4832,50.2524,黑河市,交通局,,42,40,45,29,25,83,83,NA,NA,4,12,5,7,0.2,0.3
2026-03-20T0400,2264A,127.5146,50.2339,黑河市,环保局,颗粒物(PM10),77,87,52,24,33,88,88,NA,NA,8,20,4,8,0.3,0.5
2026-03-20T0400,1074A,115.6839,37.754,衡水市,电机北厂,细颗粒物(PM2.5),107,120,71,67,34,60,60,NA,NA,20,18,4,5,0.6,0.4
2026-03-20T0400,1075A,115.6303,37.7318,衡水市,市监测站,细颗粒物(PM2.5),94,107,69,57,36,44,44,NA,NA,25,20,5,6,0.4,0.4
2026-03-20T0400,3188A,115.6684,37.7216,衡水市,市城管局,细颗粒物(PM2.5),92,97,75,56,37,52,52,NA,NA,21,19,7,7,0.5,0.4
2026-03-20T0400,3459A,115.599,37.5491,衡水市,地表水厂,细颗粒物(PM2.5),106,102,69,66,41,13,13,NA,NA,49,29,7,8,0.4,0.4
2026-03-20T0400,2457A,112.6209,26.9268,衡阳市,衡阳化工总厂,,38,NA,25,26,21,33,33,NA,NA,10,17,5,5,1.1,1
2026-03-20T0400,2458A,112.621,26.8957,衡阳市,珠晖区环保局,,35,31,27,24,20,29,29,NA,NA,14,23,6,5,1.0,1
2026-03-20T0400,2459A,112.628,26.8654,衡阳市,市委党校,NA,NA,NA,26,28,21,32,32,NA,NA,8,14,7,5,NA,1.1
2026-03-20T0400,2460A,112.6007,26.8977,衡阳市,市监测站,,26,26,29,13,20,34,34,NA,NA,12,17,7,7,0.9,0.8
2026-03-20T0400,2461A,112.5658,26.9013,衡阳市,真空机电公司,,35,26,25,24,21,36,36,NA,NA,10,18,7,7,1.2,1.1
2026-03-20T0400,3399A,112.6703,26.8817,衡阳市,师范学院,,26,26,25,18,17,37,37,NA,NA,8,12,5,4,1.1,1.1
2026-03-20T0400,3038A,103.3757,23.3679,红河哈尼族彝族自治州,州图书馆,细颗粒物(PM2.5),74,72,60,47,38,79,79,NA,NA,6,6,5,5,0.4,0.4
2026-03-20T0400,4154A,103.401,23.3561,红河哈尼族彝族自治州,蒙自市朝阳路,细颗粒物(PM2.5),72,50,43,46,34,85,85,NA,NA,7,7,9,9,0.3,0.4
2026-03-20T0400,1090A,111.6506,40.7517,呼和浩特市,呼市一监,细颗粒物(PM2.5),113,85,79,74,60,30,30,NA,NA,44,37,7,10,0.8,0.7
2026-03-20T0400,1094A,111.7516,40.8369,呼和浩特市,如意水处理厂,,50,50,61,31,36,18,18,NA,NA,66,40,8,11,0.5,0.5
2026-03-20T0400,1095A,111.727798,40.806187,呼和浩特市,二十九中,细颗粒物(PM2.5),60,50,61,40,34,40,40,NA,NA,36,36,9,11,0.8,0.6
2026-03-20T0400,1097A,111.717,40.7617,呼和浩特市,化肥厂生活区,细颗粒物(PM2.5),116,89,88,77,61,33,33,NA,NA,46,44,10,9,1.0,0.6
2026-03-20T0400,3699A,111.6519,40.8389,呼和浩特市,海东办,,48,48,59,32,40,11,11,NA,NA,64,47,4,8,0.5,0.5
2026-03-20T0400,4275A,111.591512,40.827312,呼和浩特市,成吉思汗西街8号,,30,29,58,21,35,15,15,NA,NA,60,39,5,7,0.4,0.5
2026-03-20T0400,4276A,111.6597,40.8077,呼和浩特市,公园东路75号,细颗粒物(PM2.5),58,39,64,39,51,43,43,NA,NA,38,33,9,11,0.6,0.7
2026-03-20T0400,4277A,111.5427,40.7846,呼和浩特市,金海路35号,,37,37,61,23,40,31,31,NA,NA,38,40,6,10,0.4,0.5
2026-03-20T0400,3061A,119.7511,49.1576,呼伦贝尔市,国华电力东,,25,23,28,12,14,79,79,NA,NA,8,9,6,4,0.2,0.2
2026-03-20T0400,4279A,119.7569,49.2222,呼伦贝尔市,伊敏大街东7号,,34,34,30,21,14,77,77,NA,NA,10,11,6,6,0.2,0.3
2026-03-20T0400,1250A,120.075,30.867,湖州市,城西水厂,细颗粒物(PM2.5),110,88,72,71,60,66,66,NA,NA,26,23,6,6,0.6,0.7
2026-03-20T0400,2873A,120.083,30.8929,湖州市,仁皇山新区,细颗粒物(PM2.5),107,90,78,67,58,60,60,NA,NA,27,22,5,5,0.7,0.8
2026-03-20T0400,2907A,120.1846,30.8592,湖州市,吴兴区站,细颗粒物(PM2.5),105,97,86,65,60,64,64,NA,NA,27,21,5,5,0.5,0.7
2026-03-20T0400,3562A,120.4146,30.8538,湖州市,南浔区站,细颗粒物(PM2.5),60,58,73,40,58,94,94,NA,NA,15,23,4,7,0.6,0.8
2026-03-20T0400,1607A,120.904878,40.721091,葫芦岛市,龙港区,,31,31,46,14,22,34,34,NA,NA,40,28,13,10,0.7,0.7
2026-03-20T0400,1608A,120.8382,40.7521,葫芦岛市,化工街,NA,NA,14,53,10,24,69,69,NA,NA,NA,34,16,16,0.3,0.5
2026-03-20T0400,1609A,120.8339,40.7078,葫芦岛市,新区,,22,22,43,7,23,69,69,NA,NA,12,25,16,10,0.4,0.7
2026-03-20T0400,1610A,120.8697,40.7679,葫芦岛市,东城区,,20,16,45,14,27,63,63,NA,NA,19,32,24,14,0.5,0.6
2026-03-20T0400,2483A,109.9297,27.5383,怀化市,河西地税局,,35,31,39,24,26,47,47,NA,NA,9,10,3,4,/,/
2026-03-20T0400,2484A,109.9783,27.5342,怀化市,市四医院,,38,38,45,25,26,40,40,NA,NA,6,10,6,8,0.4,0.4
2026-03-20T0400,2485A,109.9971,27.5579,怀化市,监测楼,,38,38,40,25,28,39,39,NA,NA,7,9,3,5,0.3,0.3
2026-03-20T0400,1210A,119.0566,33.5991,淮安市,钵池山,细颗粒物(PM2.5),119,97,66,80,43,67,67,NA,NA,22,22,7,7,0.5,0.4
2026-03-20T0400,1211A,119.0083,33.578,淮安市,北京南路,细颗粒物(PM2.5),121,92,65,83,46,48,48,NA,NA,22,20,11,8,0.5,0.4
2026-03-20T0400,1212A,118.9938,33.6083,淮安市,市监测站,细颗粒物(PM2.5),130,NA,68,93,50,62,62,NA,NA,21,21,12,7,0.9,0.6
2026-03-20T0400,1213A,119.135,33.5038,淮安市,楚州区监测站,细颗粒物(PM2.5),119,95,64,80,46,27,27,NA,NA,42,22,6,6,1.0,0.6
2026-03-20T0400,3426A,118.8757,33.2897,淮安市,新华书店,细颗粒物(PM2.5),120,109,74,81,51,43,43,NA,NA,29,20,7,7,0.5,0.5
2026-03-20T0400,4092A,119.119691,33.550006,淮安市,枚皋中路89号,细颗粒物(PM2.5),126,98,66,88,50,51,51,NA,NA,17,16,9,10,0.8,0.7
2026-03-20T0400,4206A,119.028838,33.631911,淮安市,承德北路606号,细颗粒物(PM2.5),122,117,79,84,45,66,66,NA,NA,16,17,11,9,0.6,0.5
2026-03-20T0400,2282A,116.8005,33.9749,淮北市,监测站,细颗粒物(PM2.5),109,114,96,69,55,43,43,NA,NA,22,17,6,6,0.8,0.7
2026-03-20T0400,2283A,116.8094,33.9008,淮北市,烈山区政府,细颗粒物(PM2.5),125,127,93,87,54,25,25,NA,NA,49,22,4,5,0.6,0.5
2026-03-20T0400,4017A,116.7926,33.9534,淮北市,市博物馆,细颗粒物(PM2.5),122,116,95,84,59,46,46,NA,NA,27,19,3,3,0.7,0.6
2026-03-20T0400,4100A,116.8322,33.9884,淮北市,杜集区第一实验学校,细颗粒物(PM2.5),118,116,98,79,58,37,37,NA,NA,25,20,5,6,0.7,0.6
2026-03-20T0400,2277A,116.8304,32.7726,淮南市,潘集区政府,细颗粒物(PM2.5),131,123,97,94,65,70,70,NA,NA,19,20,6,6,0.8,0.7
2026-03-20T0400,2279A,116.8569,32.5949,淮南市,谢家集区政府,细颗粒物(PM2.5),137,119,94,100,79,67,67,NA,NA,25,24,7,8,0.7,0.7
2026-03-20T0400,2280A,116.8279,32.6333,淮南市,八公山区政府,细颗粒物(PM2.5),135,112,93,98,73,82,82,NA,NA,12,15,10,10,0.8,0.7
2026-03-20T0400,2894A,117.0561,32.6536,淮南市,经济技术开发区消防队,细颗粒物(PM2.5),142,125,99,106,82,32,32,NA,NA,41,24,7,6,0.8,0.6
2026-03-20T0400,3329A,117.011,32.5891,淮南市,山南新区,细颗粒物(PM2.5),147,137,104,111,80,68,68,NA,NA,27,24,7,6,0.7,0.7
2026-03-20T0400,4209A,117.003137,32.644456,淮南市,国庆中路369号,细颗粒物(PM2.5),140,123,102,103,78,72,72,NA,NA,16,18,7,7,0.8,0.8
2026-03-20T0400,2446A,114.9021,30.474,黄冈市,职工中心,细颗粒物(PM2.5),64,62,54,42,39,65,65,NA,NA,19,15,9,5,1.1,0.7
2026-03-20T0400,2929A,114.8858,30.4519,黄冈市,红卫路,细颗粒物(PM2.5),58,59,50,39,40,56,56,NA,NA,18,13,4,4,0.6,0.5
2026-03-20T0400,3398A,114.9134,30.4446,黄冈市,市林业局,颗粒物(PM10),67,73,59,43,38,67,67,NA,NA,23,15,4,4,0.8,0.6
2026-03-20T0400,2672A,102.02,35.5101,黄南藏族自治州,同仁县隆务镇,颗粒物(PM10),76,86,61,31,26,75,75,NA,NA,2,4,9,10,0.3,0.4
2026-03-20T0400,2295A,118.2905,29.6965,黄山市,延安路89号,,33,27,17,23,13,24,24,NA,NA,13,10,4,4,0.5,0.5
2026-03-20T0400,2297A,118.1369,30.2755,黄山市,黄山区政府5号楼,,27,27,30,18,18,7,7,NA,NA,10,10,3,2,0.7,0.7
2026-03-20T0400,4210A,118.335445,29.720283,黄山市,滨江东路7-2号,,31,31,29,18,10,28,28,NA,NA,13,14,/,/,/,/
2026-03-20T0400,2423A,115.0547,30.2332,黄石市,沈家营,NA,NA,55,67,28,44,70,70,NA,NA,11,21,6,11,NA,1
2026-03-20T0400,2426A,114.899,30.211,黄石市,铁山,细颗粒物(PM2.5),68,45,49,44,44,73,73,NA,NA,12,13,7,6,0.7,0.7
2026-03-20T0400,2427A,115.0259,30.2108,黄石市,团城山,NA,NA,NA,13,42,22,21,21,NA,NA,1,3,6,144,NA,1.7
2026-03-20T0400,3149A,115.0174,30.1591,黄石市,笔架山北路,"颗粒物(PM10),细颗粒物(PM2.5)",70,77,76,45,45,81,81,NA,NA,16,14,5,7,1.0,1.1
2026-03-20T0400,4185A,115.078022,30.21118,黄石市,磁湖东路29号,细颗粒物(PM2.5),78,62,65,49,48,86,86,NA,NA,7,12,6,6,1.0,1.1
2026-03-20T0400,1392A,114.4181,23.0528,惠州市,河南岸金山湖子站,,43,43,41,25,23,74,74,NA,NA,7,14,7,7,0.7,0.6
2026-03-20T0400,1393A,114.4055,23.0824,惠州市,下埔横江三路子站,,47,47,46,26,22,76,76,NA,NA,6,14,4,5,0.7,0.6
2026-03-20T0400,1395A,114.4645,22.7832,惠州市,惠阳区承修路船湖子站,,33,33,43,15,18,78,78,NA,NA,6,17,6,7,0.6,0.5
2026-03-20T0400,1396A,114.5316,22.7423,惠州市,大亚湾管委会子站,,38,38,39,19,18,68,68,NA,NA,11,16,3,4,0.6,0.6
2026-03-20T0400,3314A,114.4334,22.8134,惠州市,惠阳秋长,,46,39,38,32,20,79,79,NA,NA,9,17,/,/,/,/
2026-03-20T0400,3452A,114.6521,22.7755,惠州市,大亚湾霞涌,,29,29,25,19,14,75,75,NA,NA,9,12,/,/,/,/
2026-03-20T0400,4300A,114.4089,23.1147,惠州市,文华一路1号,,44,44,42,26,22,74,74,NA,NA,7,16,/,/,/,/
2026-03-20T0400,2240A,130.9618,45.2926,鸡西市,环保局,,50,46,48,35,26,73,73,NA,NA,12,18,6,7,0.3,0.4
2026-03-20T0400,2243A,130.9294,45.2959,鸡西市,第一中学,,48,43,39,33,28,72,72,NA,NA,8,10,4,4,0.6,0.6
2026-03-20T0400,3707A,131.0069,45.2988,鸡西市,欧美日汽修厂,颗粒物(PM10),58,60,55,33,31,76,76,NA,NA,8,22,7,9,0.5,0.6
2026-03-20T0400,2367A,114.9753,27.0803,吉安市,红声器材厂,,24,24,26,16,13,47,47,NA,NA,16,20,5,5,0.8,0.9
2026-03-20T0400,2369A,114.9903,27.1313,吉安市,市环境监测站,,18,18,22,12,12,55,55,NA,NA,14,18,7,7,/,/
2026-03-20T0400,2370A,115.009527,27.096792,吉安市,青原区法院,,22,22,23,13,13,48,48,NA,NA,15,27,4,4,0.8,0.9
2026-03-20T0400,1772A,126.54,43.8622,吉林市,哈达湾,颗粒物(PM10),58,61,74,21,39,73,73,NA,NA,8,13,6,6,0.4,0.5
2026-03-20T0400,1773A,126.5843,43.8358,吉林市,东局子,,29,27,87,20,39,70,70,NA,NA,9,15,3,4,0.5,0.6
2026-03-20T0400,1774A,126.5051,43.8243,吉林市,电力学院,,26,20,86,18,36,78,78,NA,NA,7,14,5,6,0.5,0.6
2026-03-20T0400,1775A,126.6133,43.8971,吉林市,江北,,48,48,92,17,35,70,70,NA,NA,6,17,6,7,0.4,0.6
2026-03-20T0400,1776A,126.5549,43.8304,吉林市,江南公园,,43,43,66,22,37,71,71,NA,NA,7,13,6,7,0.4,0.5
2026-03-20T0400,2868A,126.4737,43.953,吉林市,九站,,49,49,104,25,49,63,63,NA,NA,16,21,14,7,0.5,0.6
2026-03-20T0400,1299A,116.9866,36.6118,济南市,科干所,颗粒物(PM10),84,97,66,44,38,90,90,NA,NA,12,15,6,6,0.6,0.6
2026-03-20T0400,1300A,116.9379,36.6652,济南市,农科所,细颗粒物(PM2.5),84,88,66,52,43,61,61,NA,NA,20,19,7,8,0.5,0.5
2026-03-20T0400,1301A,117.1265,36.6736,济南市,开发区,颗粒物(PM10),78,88,59,46,34,70,70,NA,NA,24,20,4,4,0.6,0.6
2026-03-20T0400,1303A,117.0616,36.6865,济南市,省种子仓库,细颗粒物(PM2.5),80,88,67,50,38,28,28,NA,NA,60,27,4,4,0.5,0.5
2026-03-20T0400,1304A,116.9495185,36.644937,济南市,机床二厂,颗粒物(PM10),85,98,70,48,40,77,77,NA,NA,18,19,7,7,0.6,0.6
2026-03-20T0400,1305A,117.0496,36.6629,济南市,市监测站,颗粒物(PM10),93,110,69,46,39,87,87,NA,NA,13,19,3,4,0.5,0.5
2026-03-20T0400,1306A,116.7674,36.5458,济南市,长清党校,颗粒物(PM10),93,110,78,54,42,77,77,NA,NA,15,17,5,5,0.5,0.6
2026-03-20T0400,1961A,117.5323,36.6865,济南市,东山小学,细颗粒物(PM2.5),94,98,68,57,37,83,83,NA,NA,20,23,3,4,0.6,0.7
2026-03-20T0400,3059A,117.7181,36.205,济南市,泰兴公司,细颗粒物(PM2.5),118,105,84,79,51,7,7,NA,NA,62,34,9,9,1.0,0.6
2026-03-20T0400,3064A,117.6861,36.2172,济南市,莱芜战役纪念馆,细颗粒物(PM2.5),120,114,82,82,50,11,11,NA,NA,71,33,4,5,0.8,0.7
2026-03-20T0400,3494A,117.1673,36.9782,济南市,济阳区政府,细颗粒物(PM2.5),104,112,78,64,47,16,16,NA,NA,86,33,3,7,0.5,0.5
2026-03-20T0400,3495A,117.1168,36.6299,济南市,锦屏中学,颗粒物(PM10),81,93,58,47,35,80,80,NA,NA,12,15,8,8,0.6,0.6
2026-03-20T0400,4108A,117.7107,36.2385,济南市,山财大街5号,细颗粒物(PM2.5),128,117,79,90,51,8,8,NA,NA,NA,39,NA,8,0.9,0.9
2026-03-20T0400,4109A,116.9744,36.6889,济南市,无影山路12号,细颗粒物(PM2.5),78,83,59,49,40,66,66,NA,NA,27,18,5,5,0.6,0.6
2026-03-20T0400,1653A,116.6229,35.4288,济宁市,火炬城,NA,NA,NA,55,NA,35,NA,NA,27,NA,NA,41,NA,5,NA,0.6
2026-03-20T0400,3500A,116.5808,35.3703,济宁市,北湖一中,细颗粒物(PM2.5),78,73,60,49,42,49,49,NA,NA,23,21,6,6,0.5,0.5
2026-03-20T0400,3501A,116.8251,35.5592,济宁市,服务中心,细颗粒物(PM2.5),100,108,85,60,49,25,25,NA,NA,46,26,4,4,0.7,0.7
2026-03-20T0400,3678A,116.5907,35.4054,济宁市,市第七中学,细颗粒物(PM2.5),80,83,70,50,41,39,39,NA,NA,35,26,5,4,0.7,0.6
2026-03-20T0400,4111A,116.6075,35.4566,济宁市,任和路,细颗粒物(PM2.5),84,92,79,52,45,65,65,NA,NA,17,23,9,6,0.8,0.7
2026-03-20T0400,4112A,116.5648,35.3921,济宁市,文体南路1号,颗粒物(PM10),80,92,76,46,41,52,52,NA,NA,23,22,5,4,0.5,0.5
2026-03-20T0400,4122A,112.6071,35.1015,济源市,市委党校,颗粒物(PM10),105,132,128,61,48,31,31,NA,NA,26,30,8,10,0.8,0.7
2026-03-20T0400,4123A,112.596,35.0702,济源市,沁园中路1号,颗粒物(PM10),95,112,114,54,49,8,8,NA,NA,54,38,5,7,0.9,0.8
2026-03-20T0400,2255A,130.2749,46.8028,佳木斯市,佳纺,颗粒物(PM10),54,55,73,33,41,72,72,NA,NA,10,16,4,5,0.4,0.4
2026-03-20T0400,2257A,130.3258,46.7975,佳木斯市,环保局,,49,43,75,34,36,72,72,NA,NA,9,14,2,3,0.3,0.3
2026-03-20T0400,4285A,130.363,46.806,佳木斯市,顺和街,NA,NA,44,72,42,41,68,68,NA,NA,NA,21,3,4,0.4,0.4
2026-03-20T0400,4286A,130.3952,46.8268,佳木斯市,长安路196号,,49,38,68,34,38,64,64,NA,NA,5,13,3,3,0.6,0.6
2026-03-20T0400,1252A,120.7439,30.778,嘉兴市,清河小学,颗粒物(PM10),53,53,59,17,32,79,79,NA,NA,18,22,6,6,0.6,0.6
2026-03-20T0400,1253A,120.7261,30.7477,嘉兴市,嘉兴学院,,43,43,57,28,38,93,93,NA,NA,18,26,5,5,0.5,0.6
2026-03-20T0400,2872A,120.7845,30.7524,嘉兴市,南湖区残联,,40,36,48,28,37,70,70,NA,NA,25,23,4,4,0.6,0.6
2026-03-20T0400,3407A,120.6915,30.7741,嘉兴市,秀洲住建,颗粒物(PM10),56,58,66,30,41,91,91,NA,NA,19,25,8,8,0.6,0.7
2026-03-20T0400,1945A,98.291,39.7705,嘉峪关市,气象局,颗粒物(PM10),142,229,219,55,48,70,70,NA,NA,6,8,6,8,0.3,0.3
2026-03-20T0400,2884A,98.2672,39.7978,嘉峪关市,酒钢宾馆,颗粒物(PM10),158,266,264,67,56,67,67,NA,NA,8,7,12,12,0.4,0.4
2026-03-20T0400,3248A,98.2644,39.7723,嘉峪关市,雄关区,颗粒物(PM10),134,207,188,63,50,58,58,NA,NA,10,12,6,7,0.2,0.3
2026-03-20T0400,1383A,113.1063,22.6058,江门市,北街,,36,35,39,25,22,33,33,NA,NA,27,28,/,/,/,/
2026-03-20T0400,1384A,113.073,22.5835,江门市,西区,,32,32,42,13,22,50,50,NA,NA,13,27,/,/,/,/
2026-03-20T0400,1385A,113.0218,22.531,江门市,圭峰西,,39,39,36,15,20,48,48,NA,NA,13,18,/,/,/,/
2026-03-20T0400,1386A,113.0826,22.5947,江门市,东湖,,27,27,38,14,18,35,35,NA,NA,16,25,8,9,0.5,0.6
2026-03-20T0400,3311A,113.1077,22.5647,江门市,江海富民,,45,45,52,21,22,44,44,NA,NA,20,24,/,/,0.3,0.5
2026-03-20T0400,3449A,113.0496,22.4669,江门市,新会银湖,,42,42,37,24,19,8,8,NA,NA,42,26,8,8,0.4,0.4
2026-03-20T0400,3335A,113.3137,35.2643,焦作市,马村街道办,细颗粒物(PM2.5),108,129,110,68,50,36,36,NA,NA,29,27,11,12,1.0,0.8
2026-03-20T0400,3336A,113.2464,35.2374,焦作市,焦作技师学院,细颗粒物(PM2.5),111,138,113,72,50,29,29,NA,NA,34,28,12,12,1.0,0.8
2026-03-20T0400,3477A,113.1656,35.2536,焦作市,中站许衡医院,颗粒物(PM10),104,129,99,51,48,43,43,NA,NA,31,27,35,18,1.5,0.8
2026-03-20T0400,3981A,113.2456,35.18,焦作市,原李万街道办,颗粒物(PM10),101,121,109,60,47,24,24,NA,NA,29,28,10,13,0.7,0.7
2026-03-20T0400,4264A,113.234,35.219,焦作市,新安路1731号,颗粒物(PM10),104,130,119,60,52,37,37,NA,NA,31,32,16,15,0.9,0.7
2026-03-20T0400,4295A,113.2722,35.2121,焦作市,人民路3066号,细颗粒物(PM2.5),108,133,106,68,51,36,36,NA,NA,31,36,12,12,0.6,0.6
2026-03-20T0400,1708A,116.3701,23.5345,揭阳市,新兴,,26,20,41,12,25,82,82,NA,NA,13,20,7,8,0.6,0.7
2026-03-20T0400,1709A,116.3261,23.5442,揭阳市,西马,,27,27,41,11,24,76,76,NA,NA,12,15,7,6,0.6,0.7
2026-03-20T0400,1710A,116.361,23.5627,揭阳市,东兴,,25,19,42,13,25,78,78,NA,NA,9,15,10,7,/,/
2026-03-20T0400,1711A,116.4151,23.5295,揭阳市,渔湖,,31,15,47,11,30,97,97,NA,NA,8,17,4,6,/,/
2026-03-20T0400,3320A,116.4028,23.5699,揭阳市,曲溪,,28,22,40,14,24,89,89,NA,NA,11,17,3,4,0.5,0.6
2026-03-20T0400,1944A,102.1691,38.5166,金昌市,天庆家园,颗粒物(PM10),142,229,245,49,55,48,48,NA,NA,31,7,41,18,0.7,0.6
2026-03-20T0400,4022A,102.1648,38.5369,金昌市,金川区人防中心,颗粒物(PM10),168,286,266,59,58,65,65,NA,NA,10,8,10,5,0.6,0.5
2026-03-20T0400,4239A,102.193042,38.531887,金昌市,长春路96号,颗粒物(PM10),184,317,244,62,56,42,42,NA,NA,32,7,33,12,0.8,0.5
2026-03-20T0400,1262A,119.6478,29.0773,金华市,十五中,细颗粒物(PM2.5),70,69,35,45,23,67,67,NA,NA,22,18,3,3,0.5,0.5
2026-03-20T0400,1263A,119.6859,29.1032,金华市,监测站,细颗粒物(PM2.5),82,59,32,51,27,60,60,NA,NA,31,27,4,4,0.5,0.6
2026-03-20T0400,3659A,119.656,29.1132,金华市,气象局,细颗粒物(PM2.5),82,72,40,51,28,53,53,NA,NA,39,27,3,2,0.6,0.6
2026-03-20T0400,1767A,121.1114,41.0879,锦州市,南山,,27,27,46,9,26,65,65,NA,NA,12,21,8,9,0.4,0.6
2026-03-20T0400,1768A,121.060361,40.842794,锦州市,开发区,NA,NA,28,61,11,26,73,73,NA,NA,NA,39,8,10,0.4,0.7
